Environment,Lighting,Timestamp_s,Wind_mps,Pos_X_m,Pos_Y_m,Altitude_m,Roll_deg,Pitch_deg,Yaw_deg,Velocity_mps,Depth_Min_m,Depth_Mean_m,Lateral_Error_m,Corridor_Center_Error_m,Obstacle_Type,Obstacle_Distance_m,AGSS_Activated,CAMR_Confidence,SACR_Score,Path_Clear_Probability,Collision,Mission_State
Environment_1,CM,0.000,0.517,-4.392,-0.036,2.477,0.33,-0.556,-0.426,1.035,6.1,7.682,0.0,0.0366,,,No,0.9525,0.9581,0.9768,No,Cruise
Environment_1,CM,0.777,0.517,-3.63,-0.014,2.501,0.057,0.015,0.147,0.981,6.478,7.534,0.0168,0.0656,,,No,0.9532,0.9654,0.9845,No,Cruise
Environment_1,CM,0.936,0.517,-3.47,0.017,2.498,0.336,0.112,0.457,1.004,6.145,7.707,0.0,0.0196,,,No,0.9507,0.9691,0.9769,No,Cruise
Environment_1,CM,2.083,0.517,-2.305,0.008,2.494,-0.393,-0.251,0.329,1.016,6.263,7.731,0.022,0.0,,,No,0.9479,0.9695,0.9882,No,Cruise
Environment_1,CM,2.099,0.517,-2.289,0.003,2.513,-0.425,0.173,0.735,1.007,6.339,7.499,0.0,0.0101,,,No,0.9527,0.9646,0.9769,No,Cruise
Environment_1,CM,2.893,0.517,-1.5,0.089,2.523,0.897,0.269,-0.242,0.993,6.023,7.565,0.0704,0.0546,,,No,0.9587,0.9685,0.9851,No,Cruise
Environment_1,CM,2.964,0.517,-1.429,-0.024,2.497,0.07,-0.098,0.019,0.999,6.359,7.786,0.0122,0.0,,,No,0.9469,0.9757,0.9865,No,Cruise
Environment_1,CM,3.446,0.517,-0.949,-0.028,2.5,-0.117,-0.015,-0.609,0.997,6.099,7.542,0.0,0.0,,,No,0.9482,0.9574,0.995,No,Cruise
Environment_1,CM,3.812,0.517,-0.588,-0.017,2.51,0.133,0.046,0.275,0.986,6.319,7.461,0.0,0.0386,,,No,0.9582,0.9518,0.9726,No,Cruise
Environment_1,CM,4.126,0.517,-0.291,0.005,2.521,0.067,0.128,0.316,0.944,6.062,7.729,0.0218,0.0,,,No,0.9393,0.9784,0.9912,No,Cruise
Environment_1,CM,4.140,0.517,-0.277,0.064,2.514,0.739,-0.034,0.758,1.006,6.061,7.299,0.0736,0.1014,,,No,0.9629,0.9595,0.9774,No,Cruise
Environment_1,CM,4.212,0.517,-0.205,0.072,2.517,0.04,-0.078,1.437,1.008,6.163,7.74,0.0767,0.077,,,No,0.9706,0.9684,0.9837,No,Cruise
Environment_1,CM,4.293,0.517,-0.123,-0.025,2.5,0.078,0.143,0.814,1.005,6.268,7.699,0.0,0.0,,,No,0.9517,0.9711,0.9923,No,Cruise
Environment_1,CM,4.421,0.517,0.009,0.106,2.51,0.526,-0.034,0.899,1.031,6.13,7.363,0.0951,0.0403,,,No,0.9659,0.9611,0.9865,No,Cruise
Environment_1,CM,4.495,0.517,0.081,0.091,2.539,0.557,0.198,2.085,0.976,6.274,7.337,0.0857,0.0864,,,No,0.9496,0.9648,0.9864,No,Cruise
Environment_1,CM,4.588,0.517,0.17,0.018,2.487,0.36,-0.117,-0.616,0.964,6.494,7.52,0.0257,0.0324,,,No,0.952,0.9603,0.9806,No,Cruise
Environment_1,CM,4.697,0.517,0.279,0.001,2.507,-0.1,0.335,-1.345,0.999,6.146,7.581,0.036,0.0074,,,No,0.9548,0.9681,0.9938,No,Cruise
Environment_1,CM,5.197,0.517,0.786,0.055,2.506,-0.008,-0.101,-0.344,1.014,6.156,7.689,0.0238,0.0,,,No,0.9518,0.9692,0.9808,No,Cruise
Environment_1,CM,5.353,0.517,0.937,0.089,2.495,0.176,-0.019,1.106,0.967,5.9,7.586,0.0262,0.0,,,No,0.9539,0.9739,0.9874,No,Cruise
Environment_1,CM,5.465,0.517,1.048,0.024,2.498,-0.003,-0.082,-0.705,0.985,6.125,7.506,0.0172,0.0,,,No,0.946,0.9716,0.9839,No,Cruise
Environment_1,CM,5.532,0.517,1.116,0.059,2.496,-0.39,-0.173,0.56,1.02,6.155,7.488,0.0297,0.0795,,,No,0.9706,0.9657,0.9829,No,Cruise
Environment_1,CM,5.553,0.517,1.137,0.054,2.489,0.38,-0.14,1.788,1.013,6.108,7.43,0.0804,0.0349,,,No,0.9722,0.961,0.9677,No,Cruise
Environment_1,CM,5.575,0.517,1.159,0.036,2.502,0.31,0.049,1.18,1.002,5.98,7.602,0.0874,0.0683,,,No,0.9691,0.9671,0.9773,No,Cruise
Environment_1,CM,5.616,0.517,1.2,-0.026,2.517,0.133,0.057,0.63,0.994,5.997,7.751,0.011,0.0217,,,No,0.9453,0.9752,0.9912,No,Cruise
Environment_1,CM,5.629,0.517,1.213,-0.03,2.521,-0.377,-0.063,-0.175,0.979,6.247,7.653,0.0587,0.0204,,,No,0.9631,0.9694,0.9861,No,Cruise
Environment_1,CM,5.719,0.517,1.304,-0.019,2.508,0.03,-0.396,0.47,1.014,6.348,7.729,0.0397,0.0227,,,No,0.9534,0.9642,0.9989,No,Cruise
Environment_1,CM,6.071,0.517,1.641,0.001,2.522,0.122,0.175,-0.302,0.957,6.509,7.542,0.0183,0.0204,,,No,0.9578,0.9737,0.9782,No,Cruise
Environment_1,CM,6.209,0.517,1.775,0.024,2.492,0.26,0.079,0.426,0.975,6.237,7.617,0.0235,0.0211,,,No,0.9568,0.973,0.9842,No,Cruise
Environment_1,CM,6.279,0.517,1.844,0.05,2.494,0.9,-0.051,1.362,0.988,6.111,7.691,0.0463,0.0803,,,No,0.9747,0.9681,0.9787,No,Cruise
Environment_1,CM,6.334,0.517,1.9,0.006,2.492,0.008,0.147,1.92,1.014,6.513,7.515,0.0218,0.0221,,,No,0.96,0.9622,0.9734,No,Cruise
Environment_1,CM,6.461,0.517,2.024,0.068,2.507,0.653,0.051,1.291,0.975,5.894,7.361,0.0566,0.0491,,,No,0.9658,0.9667,0.9838,No,Cruise
Environment_1,CM,6.642,0.517,2.203,0.091,2.521,0.174,0.032,1.379,0.991,6.144,7.549,0.0101,0.0426,,,No,0.9657,0.9711,0.9822,No,Cruise
Environment_1,CM,6.703,0.517,2.261,0.084,2.505,0.111,0.623,1.0,0.946,6.259,7.301,0.0826,0.0023,,,No,0.97,0.9628,0.9834,No,Cruise
Environment_1,CM,6.890,0.517,2.442,0.09,2.518,0.308,-0.236,-0.275,0.967,6.129,7.333,0.1039,0.0151,,,No,0.9562,0.9652,0.9861,No,Cruise
Environment_1,CM,6.909,0.517,2.461,0.05,2.504,0.248,-0.153,0.035,1.013,6.099,7.377,0.0479,0.0625,,,No,0.9753,0.9628,0.9718,No,Cruise
Environment_1,CM,7.367,0.517,2.913,0.052,2.526,0.454,0.25,0.777,0.986,6.097,7.39,0.024,0.0482,,,No,0.9541,0.9579,0.9814,No,Cruise
Environment_1,CM,7.479,0.517,3.025,0.095,2.508,-0.14,-0.342,0.448,0.998,6.186,7.512,0.0349,0.079,,,No,0.9604,0.9606,0.9846,No,Cruise
Environment_1,CM,7.502,0.517,3.047,0.0,2.505,0.049,0.158,0.025,0.995,6.174,7.649,0.0385,0.029,,,No,0.9553,0.965,0.9846,No,Cruise
Environment_1,CM,7.882,0.517,3.423,0.099,2.504,0.526,-0.25,0.625,0.988,5.98,7.41,0.0528,0.027,,,No,0.9714,0.9582,0.9731,No,Cruise
Environment_1,CM,8.071,0.517,3.607,0.109,2.515,0.634,0.104,1.92,0.974,6.099,7.423,0.1225,0.0962,,,No,0.9668,0.9562,0.9767,No,Cruise
Environment_1,CM,8.115,0.517,3.653,0.034,2.488,-0.328,0.106,1.935,1.041,6.13,7.814,0.0136,0.0427,,,No,0.9498,0.9681,0.9788,No,Cruise
Environment_1,CM,8.376,0.517,3.913,0.009,2.468,-0.11,0.178,-0.224,0.996,6.256,7.614,0.0018,0.0251,,,No,0.9529,0.9646,0.9861,No,Cruise
Environment_1,CM,8.482,0.517,4.02,0.119,2.49,0.048,0.033,1.39,1.014,6.166,7.289,0.1194,0.1002,,,No,0.9677,0.9592,0.9732,No,Cruise
Environment_1,CM,8.521,0.517,4.059,0.037,2.488,0.147,-0.331,-0.595,1.001,6.191,7.764,0.0211,0.0418,,,No,0.9574,0.9625,0.9685,No,Cruise
Environment_1,CM,8.525,0.517,4.063,0.101,2.492,0.265,0.088,-0.454,0.986,6.224,7.592,0.0113,0.0,,,No,0.9693,0.9701,0.9992,No,Cruise
Environment_1,CM,8.740,0.517,4.268,0.074,2.499,0.41,0.011,0.094,0.954,6.028,7.254,0.0537,0.0514,,,No,0.9582,0.9763,0.9709,No,Cruise
Environment_1,CM,8.819,0.517,4.347,0.095,2.512,0.349,0.345,1.215,0.992,6.294,7.539,0.049,0.0,,,No,0.9593,0.9674,0.9768,No,Cruise
Environment_1,CM,8.883,0.517,4.412,-0.01,2.5,0.165,-0.194,1.759,1.027,6.344,7.343,0.0459,0.0,,,No,0.9556,0.9632,0.9763,No,Cruise
Environment_1,CM,9.021,0.517,4.55,0.098,2.504,0.787,-0.13,1.457,0.999,6.189,7.382,0.1192,0.0804,,,No,0.9663,0.9643,0.9719,No,Cruise
Environment_1,CM,9.034,0.517,4.563,0.124,2.49,0.858,0.165,1.635,0.988,6.156,7.239,0.1291,0.1208,,,No,0.9622,0.9669,0.9701,No,Cruise
Environment_1,CM,9.150,0.517,4.679,0.066,2.516,-0.088,-0.026,1.128,0.998,6.164,7.403,0.0346,0.0442,,,No,0.9617,0.9665,0.9819,No,Cruise
Environment_1,CM,9.373,0.517,4.902,-0.03,2.505,-0.201,0.165,0.795,1.001,6.212,7.482,0.0358,0.0066,,,No,0.9645,0.9585,0.9886,No,Cruise
Environment_1,CM,9.702,0.517,5.233,0.084,2.489,0.896,0.039,1.097,1.005,5.853,7.314,0.0958,0.0394,,,No,0.9691,0.9569,0.9805,No,Cruise
Environment_1,CM,9.707,0.517,5.238,0.086,2.505,0.763,0.185,2.048,0.982,6.138,7.231,0.1065,0.0489,,,No,0.9704,0.9658,0.9929,No,Cruise
Environment_1,CM,9.736,0.517,5.266,0.153,2.526,0.516,-0.226,1.854,0.995,6.011,7.483,0.063,0.0576,,,No,0.9742,0.9673,0.9732,No,Cruise
Environment_1,CM,9.832,0.517,5.361,0.048,2.517,0.209,0.167,-0.181,0.988,6.253,7.61,0.1008,0.0586,,,No,0.9776,0.9668,0.9751,No,Cruise
Environment_1,CM,9.901,0.517,5.43,0.078,2.507,0.838,0.065,1.502,0.997,6.088,7.545,0.132,0.0622,,,No,0.9632,0.9595,0.9908,No,Cruise
Environment_1,CM,9.964,0.517,5.495,0.125,2.521,0.674,-0.14,2.148,1.038,5.939,7.336,0.1005,0.1131,,,No,0.9775,0.9674,0.9797,No,Cruise
Environment_1,CM,9.998,0.517,5.53,0.133,2.501,0.455,0.063,1.531,1.014,6.023,7.183,0.1492,0.0871,,,No,0.9403,0.9506,0.981,No,Cruise
Environment_1,CM,10.158,0.517,5.697,0.089,2.519,0.473,0.007,1.16,1.042,5.966,7.344,0.0741,0.0173,,,No,0.974,0.9678,0.9738,No,Cruise
Environment_1,CM,10.411,0.517,5.951,0.113,2.486,0.748,0.144,0.834,1.007,6.001,7.447,0.1099,0.0949,,,No,0.9473,0.9659,0.985,No,Cruise
Environment_1,CM,10.511,0.517,6.048,0.053,2.512,0.291,-0.234,1.47,0.969,6.128,7.592,0.1086,0.0743,,,No,0.9736,0.9669,0.9803,No,Cruise
Environment_1,CM,10.518,0.517,6.056,0.046,2.498,0.238,0.013,0.543,1.02,6.037,7.545,0.1075,0.0527,,,No,0.9749,0.9573,0.9902,No,Cruise
Environment_1,CM,10.535,0.517,6.073,0.069,2.501,0.861,0.267,1.994,1.0,5.992,7.351,0.0886,0.0698,,,No,0.964,0.9553,0.98,No,Cruise
Environment_1,CM,10.655,0.517,6.192,0.086,2.523,0.47,-0.085,1.555,0.997,6.058,7.222,0.1129,0.0824,,,No,0.9479,0.9617,0.9897,No,Cruise
Environment_1,CM,10.728,0.517,6.264,0.08,2.49,0.069,0.14,1.826,0.983,6.014,7.233,0.1246,0.063,,,No,0.9494,0.964,0.9866,No,Cruise
Environment_1,CM,10.733,0.517,6.269,0.055,2.496,0.587,0.079,1.658,0.989,6.026,7.324,0.0607,0.0123,,,No,0.9613,0.9756,0.9856,No,Cruise
Environment_1,CM,10.753,0.517,6.288,0.127,2.457,0.695,-0.113,1.541,0.965,6.171,7.29,0.1407,0.049,,,No,0.9609,0.9591,0.9818,No,Cruise
Environment_1,CM,11.065,0.517,6.591,0.079,2.495,0.311,0.047,2.072,0.972,5.981,7.195,0.1226,0.0787,,,No,0.9589,0.9676,0.9808,No,Cruise
Environment_1,CM,11.313,0.517,6.831,0.119,2.491,1.144,0.26,0.948,0.967,6.199,7.361,0.0957,0.0651,,,No,0.9493,0.9619,0.9872,No,Cruise
Environment_1,CM,11.403,0.517,6.92,0.049,2.515,1.021,-0.107,1.93,0.981,5.952,7.344,0.1068,0.0506,,,No,0.9705,0.963,0.9746,No,Cruise
Environment_1,CM,11.508,0.517,7.025,0.089,2.514,0.324,-0.032,1.918,1.002,6.111,7.457,0.1279,0.0744,,,No,0.9489,0.9669,0.9908,No,Cruise
Environment_1,CM,11.556,0.517,7.072,0.12,2.493,0.575,-0.215,2.699,0.979,6.111,7.303,0.1169,0.0119,,,No,0.9711,0.9626,0.9832,No,Cruise
Environment_1,CM,11.688,0.517,7.2,0.137,2.513,0.315,-0.012,1.497,0.975,6.177,7.397,0.088,0.0074,,,No,0.9566,0.9619,0.987,No,Cruise
Environment_1,CM,11.732,0.517,7.245,0.098,2.503,0.095,0.208,3.21,1.02,6.183,7.394,0.1317,0.0452,,,No,0.9624,0.9578,0.9847,No,Cruise
Environment_1,CM,11.788,0.517,7.301,0.024,2.532,0.318,0.375,1.352,1.0,5.928,7.361,0.1062,0.0405,,,No,0.9673,0.9634,0.9889,No,Cruise
Environment_1,CM,11.841,0.517,7.353,0.089,2.492,0.885,-0.195,2.539,0.977,5.883,7.295,0.1005,0.057,,,No,0.9667,0.9645,0.9733,No,Cruise
Environment_1,CM,11.984,0.517,7.499,0.069,2.516,0.534,0.073,2.122,1.017,6.161,7.495,0.1019,0.113,,,No,0.9611,0.9604,0.9683,No,Cruise
Environment_1,CM,11.995,0.517,7.509,0.087,2.506,0.819,-0.224,1.867,0.991,6.036,7.467,0.0948,0.0916,,,No,0.9733,0.9679,0.9879,No,Cruise
Environment_1,CM,12.049,0.517,7.565,0.157,2.514,0.762,0.113,2.513,1.031,6.207,7.596,0.0865,0.0986,,,No,0.9505,0.9561,0.987,No,Cruise
Environment_1,CM,12.120,0.517,7.635,0.125,2.491,0.778,-0.084,2.359,0.98,6.269,7.637,0.0705,0.1043,,,No,0.9569,0.9601,0.9883,No,Cruise
Environment_1,CM,12.134,0.517,7.649,0.119,2.487,0.323,-0.185,0.809,0.986,6.105,7.423,0.1264,0.0659,,,No,0.9552,0.966,0.986,No,Cruise
Environment_1,CM,12.163,0.517,7.678,0.043,2.508,-0.406,0.37,2.126,1.024,5.983,7.393,0.0805,0.0665,,,No,0.977,0.9613,0.9883,No,Cruise
Environment_1,CM,12.242,0.517,7.757,0.142,2.483,0.637,-0.399,1.097,0.994,6.044,7.581,0.1136,0.0986,,,No,0.9598,0.9553,0.9926,No,Cruise
Environment_1,CM,12.587,0.517,8.111,0.108,2.494,0.626,-0.062,1.9,1.028,6.131,7.486,0.1041,0.1034,,,No,0.9514,0.953,0.9864,No,Cruise
Environment_1,CM,12.757,0.517,8.285,0.099,2.514,0.416,0.087,2.605,1.023,6.057,7.275,0.1233,0.058,,,No,0.9661,0.9608,0.9806,No,Cruise
Environment_1,CM,12.851,0.517,8.383,0.084,2.501,0.361,-0.024,1.124,1.044,6.109,7.5,0.1079,0.0861,,,No,0.9514,0.943,0.9737,No,Cruise
Environment_1,CM,12.944,0.517,8.477,0.116,2.505,0.651,-0.375,0.375,1.001,6.102,7.374,0.1431,0.0769,,,No,0.9563,0.9521,0.9796,No,Cruise
Environment_1,CM,12.948,0.517,8.481,0.117,2.515,0.508,0.029,3.873,1.01,6.099,7.132,0.1011,0.0627,,,No,0.9619,0.9746,0.9804,No,Cruise
Environment_1,CM,12.994,0.517,8.525,0.09,2.521,0.69,-0.097,0.883,0.976,6.136,7.185,0.1056,0.0881,,,No,0.9508,0.9492,0.9835,No,Cruise
Environment_1,CM,13.219,0.517,8.751,0.105,2.509,0.723,-0.081,2.955,1.003,5.926,7.367,0.112,0.0483,,,No,0.9696,0.9602,0.9834,No,Cruise
Environment_1,CM,13.253,0.517,8.785,0.102,2.5,0.671,0.092,1.65,0.987,5.985,7.571,0.0884,0.1173,,,No,0.9528,0.9499,0.9779,No,Cruise
Environment_1,CM,13.435,0.517,8.963,0.089,2.461,0.961,-0.022,3.725,0.979,6.18,7.262,0.1026,0.0738,,,No,0.9531,0.9746,0.9856,No,Cruise
Environment_1,CM,13.453,0.517,8.981,0.109,2.501,0.394,-0.057,0.694,0.998,5.992,7.218,0.1356,0.0925,,,No,0.9556,0.9545,0.985,No,Cruise
Environment_1,CM,13.462,0.517,8.99,0.097,2.48,0.608,-0.026,1.395,1.023,6.04,7.184,0.1292,0.1352,,,No,0.9562,0.9613,0.9817,No,Cruise
Environment_1,CM,13.572,0.517,9.098,0.015,2.499,0.237,0.003,-0.712,0.979,6.119,7.677,0.032,0.0528,,,No,0.969,0.9621,0.9663,No,Cruise
Environment_1,CM,13.578,0.517,9.104,0.134,2.51,0.145,0.031,0.702,1.012,6.086,7.38,0.0896,0.0784,,,No,0.9579,0.9494,0.9867,No,Cruise
Environment_1,CM,13.685,0.517,9.21,0.086,2.5,0.13,-0.165,2.589,0.988,5.914,7.464,0.114,0.0805,,,No,0.9496,0.9518,0.9798,No,Cruise
Environment_1,CM,13.710,0.517,9.234,0.109,2.501,0.199,-0.085,0.249,0.968,6.083,7.45,0.071,0.004,,,No,0.962,0.9706,0.9858,No,Cruise
Environment_1,CM,13.783,0.517,9.307,0.11,2.495,0.63,0.073,1.143,1.005,6.242,7.393,0.1343,0.0185,,,No,0.9616,0.956,0.9856,No,Cruise
Environment_1,CM,13.905,0.517,9.427,0.092,2.523,-0.077,-0.046,1.647,0.982,5.926,7.566,0.1308,0.037,,,No,0.9622,0.9535,0.9839,No,Cruise
Environment_1,CM,13.910,0.517,9.432,0.119,2.49,0.59,-0.074,1.773,1.012,6.062,7.203,0.0859,0.1256,,,No,0.9528,0.9527,0.9709,No,Cruise
Environment_1,CM,14.056,0.517,9.577,0.106,2.516,0.065,-0.084,0.568,0.995,6.054,7.336,0.1612,0.0547,,,No,0.9677,0.9606,0.9811,No,Cruise
Environment_1,CM,14.213,0.517,9.735,0.119,2.487,1.028,0.304,0.894,1.002,5.986,7.205,0.107,0.0933,,,No,0.9471,0.9451,0.9837,No,Cruise
Environment_1,CM,14.423,0.517,9.939,0.082,2.518,0.119,0.083,1.74,0.973,5.931,7.348,0.0955,0.0601,,,No,0.9619,0.9539,0.9878,No,Cruise
Environment_1,CM,14.646,0.517,10.167,0.095,2.505,0.449,-0.249,2.219,1.024,6.111,7.328,0.0875,0.0836,,,No,0.9574,0.9622,0.9882,No,Cruise
Environment_1,CM,14.696,0.517,10.216,0.097,2.514,0.408,-0.14,1.216,0.967,5.974,7.49,0.0822,0.0898,,,No,0.9446,0.9477,0.9773,No,Cruise
Environment_1,CM,14.810,0.517,10.331,0.12,2.486,0.291,0.052,1.321,1.014,6.178,7.641,0.0642,0.0804,,,No,0.9559,0.9505,0.9841,No,Cruise
Environment_1,CM,15.079,0.517,10.602,0.076,2.483,0.665,0.122,2.083,1.006,6.003,7.299,0.0876,0.1281,,,No,0.9667,0.9521,0.9751,No,Cruise
Environment_1,CM,15.088,0.517,10.611,0.114,2.512,0.819,-0.044,-0.522,0.976,5.978,7.24,0.1226,0.0495,,,No,0.9547,0.9487,0.9905,No,Cruise
Environment_1,CM,15.137,0.517,10.659,0.072,2.495,1.016,-0.025,0.536,0.998,6.217,7.305,0.1326,0.091,,,No,0.9607,0.9483,0.979,No,Cruise
Environment_1,CM,15.149,0.517,10.671,0.088,2.491,0.908,0.103,-0.077,0.989,5.942,7.175,0.1275,0.0602,,,No,0.9546,0.9606,0.9794,No,Cruise
Environment_1,CM,15.256,0.517,10.78,0.136,2.506,1.065,0.273,2.634,1.017,5.925,7.478,0.1055,0.0767,,,No,0.9654,0.948,0.9953,No,Cruise
Environment_1,CM,15.337,0.517,10.859,0.057,2.503,0.282,-0.29,1.311,0.973,6.096,7.421,0.0835,0.1163,,,No,0.9662,0.9382,0.9815,No,Cruise
Environment_1,CM,15.363,0.517,10.885,0.106,2.513,0.449,-0.019,1.789,0.999,5.896,7.386,0.085,0.0867,,,No,0.9634,0.9577,0.9805,No,Cruise
Environment_1,CM,15.568,0.517,11.082,0.062,2.484,0.441,0.176,1.229,0.96,6.042,7.284,0.094,0.0423,,,No,0.9566,0.9556,0.9916,No,Cruise
Environment_1,CM,15.672,0.517,11.186,0.118,2.505,0.512,0.144,2.676,1.002,5.69,7.33,0.1116,0.1018,,,No,0.952,0.9395,0.9769,No,Cruise
Environment_1,CM,15.736,0.517,11.248,0.134,2.527,0.377,0.219,1.455,0.964,6.139,7.546,0.0956,0.0706,,,No,0.9523,0.9568,0.983,No,Cruise
Environment_1,CM,15.766,0.517,11.278,0.087,2.505,0.375,-0.145,2.423,1.027,6.034,7.368,0.1127,0.1013,,,No,0.9651,0.9666,0.9917,No,Cruise
Environment_1,CM,15.849,0.517,11.36,0.146,2.518,0.691,0.328,0.89,0.989,5.931,7.47,0.1276,0.0775,,,No,0.9536,0.9518,0.9896,No,Cruise
Environment_1,CM,15.934,0.517,11.446,0.068,2.501,0.788,0.24,2.583,1.007,6.096,7.548,0.1213,0.0799,,,No,0.9516,0.9638,0.9796,No,Cruise
Environment_1,CM,16.099,0.517,11.612,0.108,2.489,0.581,-0.235,1.98,1.003,5.987,7.28,0.118,0.0646,,,No,0.963,0.9492,0.9824,No,Cruise
Environment_1,CM,16.127,0.517,11.639,0.073,2.486,0.536,0.104,1.146,0.995,6.487,7.658,0.1199,0.0711,,,No,0.9576,0.961,0.9906,No,Cruise
Environment_1,CM,16.153,0.517,11.665,0.09,2.524,0.162,0.187,0.045,0.996,6.076,7.278,0.1208,0.0784,,,No,0.9605,0.9505,0.9816,No,Cruise
Environment_1,CM,16.188,0.517,11.7,0.073,2.525,0.532,-0.171,0.11,1.003,6.022,7.477,0.107,0.026,,,No,0.9711,0.9599,0.9764,No,Cruise
Environment_1,CM,16.265,0.517,11.778,0.12,2.482,0.964,-0.241,0.669,1.006,6.203,7.532,0.0857,0.1061,,,No,0.9551,0.9566,0.9837,No,Cruise
Environment_1,CM,16.329,0.517,11.84,0.119,2.518,0.367,0.204,1.248,0.966,6.281,7.778,0.0736,0.0678,,,No,0.9506,0.9541,0.9754,No,Cruise
Environment_1,CM,16.353,0.517,11.864,0.083,2.493,0.93,-0.171,0.438,1.004,6.009,7.518,0.0873,0.0879,,,No,0.9531,0.9672,0.9793,No,Cruise
Environment_1,CM,16.363,0.517,11.874,0.103,2.502,0.325,0.303,1.804,0.973,6.315,7.789,0.1257,0.0504,,,No,0.9544,0.9484,0.9955,No,Cruise
Environment_1,CM,16.561,0.517,12.071,0.075,2.505,0.707,0.014,0.736,0.995,6.282,7.545,0.078,0.0275,,,No,0.9364,0.9494,0.9841,No,Cruise
Environment_1,CM,16.595,0.517,12.104,0.059,2.506,0.576,0.017,2.255,0.999,5.903,7.217,0.1185,0.0605,,,No,0.9636,0.9515,0.9783,No,Cruise
Environment_1,CM,16.673,0.517,12.181,0.103,2.481,0.629,0.146,1.027,0.982,5.918,7.363,0.1135,0.1326,,,No,0.9593,0.9417,0.9925,No,Cruise
Environment_1,CM,16.848,0.517,12.355,0.099,2.503,0.082,-0.085,1.154,0.993,5.964,7.265,0.1328,0.104,,,No,0.947,0.9445,0.9879,No,Cruise
Environment_1,CM,16.875,0.517,12.382,0.052,2.489,0.442,-0.193,0.11,0.999,6.036,7.565,0.1133,0.1409,,,No,0.9519,0.9559,0.9767,No,Cruise
Environment_1,CM,16.947,0.517,12.454,0.135,2.506,0.761,-0.029,1.325,1.007,5.99,7.403,0.1102,0.0865,,,No,0.9567,0.952,0.9798,No,Cruise
Environment_1,CM,16.949,0.517,12.456,0.126,2.504,0.477,0.137,0.136,1.002,6.136,7.539,0.0714,0.0883,,,No,0.9481,0.9524,0.9738,No,Cruise
Environment_1,CM,16.969,0.517,12.476,0.103,2.509,0.896,-0.231,0.771,0.994,5.901,7.282,0.102,0.0765,,,No,0.9425,0.9525,0.9748,No,Cruise
Environment_1,CM,17.363,0.517,12.869,0.089,2.475,0.518,-0.032,1.086,0.997,6.05,7.565,0.1462,0.126,,,No,0.9528,0.9648,0.978,No,Cruise
Environment_1,CM,17.505,0.517,13.009,0.016,2.504,0.716,-0.015,0.969,0.983,6.318,7.738,0.0234,0.0276,,,No,0.949,0.9588,0.9797,No,Cruise
Environment_1,CM,17.793,0.517,13.29,0.103,2.496,0.857,-0.374,1.383,0.977,5.992,7.47,0.0938,0.1205,,,No,0.9547,0.968,0.9729,No,Cruise
Environment_1,CM,17.899,0.517,13.395,0.156,2.488,0.577,-0.068,2.176,0.993,6.051,7.554,0.1,0.0695,,,No,0.9411,0.9583,0.9842,No,Cruise
Environment_1,CM,17.914,0.517,13.41,0.075,2.504,-0.168,-0.228,0.207,0.996,6.138,7.387,0.1174,0.067,,,No,0.9399,0.9621,0.9783,No,Cruise
Environment_1,CM,17.934,0.517,13.43,0.136,2.492,0.933,0.249,1.975,1.016,6.188,7.386,0.1223,0.0771,,,No,0.9466,0.954,0.9693,No,Cruise
Environment_1,CM,18.027,0.517,13.52,0.077,2.515,0.752,0.149,0.223,0.965,6.099,7.379,0.1148,0.0951,,,No,0.935,0.9606,0.9874,No,Cruise
Environment_1,CM,18.215,0.517,13.712,0.041,2.513,0.171,-0.159,0.963,1.021,6.028,7.689,0.0524,0.017,,,No,0.9453,0.9573,0.9768,No,Cruise
Environment_1,CM,18.383,0.517,13.88,0.078,2.484,0.12,-0.032,0.609,1.0,5.954,7.718,0.0409,0.0341,,,No,0.9587,0.9536,0.9739,No,Cruise
Environment_1,CM,18.388,0.517,13.885,0.11,2.529,0.582,0.027,0.572,1.013,6.126,7.545,0.087,0.1001,,,No,0.9397,0.9467,0.982,No,Cruise
Environment_1,CM,18.433,0.517,13.93,0.081,2.494,0.672,0.112,-0.11,1.002,6.289,7.429,0.0811,0.02,,,No,0.9436,0.9639,0.9789,No,Cruise
Environment_1,CM,18.790,0.517,14.287,0.025,2.492,0.36,-0.186,-0.871,0.999,6.293,7.58,0.0428,0.0403,,,No,0.9477,0.9642,0.9871,No,Cruise
Environment_1,CM,18.805,0.517,14.302,-0.016,2.52,-0.016,-0.025,0.244,0.992,6.079,7.573,0.0082,0.0,,,No,0.9408,0.9405,0.9827,No,Cruise
Environment_1,CM,18.825,0.517,14.322,0.046,2.474,-0.179,-0.033,2.064,1.016,5.7,7.308,0.0602,0.0158,,,No,0.9281,0.9261,0.949,No,Cruise
Environment_1,CM,18.915,0.517,14.412,0.029,2.493,0.21,0.097,0.264,0.999,6.195,7.61,0.0453,0.0,,,No,0.954,0.9517,0.957,No,Cruise
Environment_1,CM,18.919,0.517,14.416,-0.007,2.489,0.855,-0.068,0.216,0.957,6.245,7.636,0.0659,0.0298,,,No,0.9564,0.9541,0.9767,No,Cruise
Environment_1,CM,18.968,0.517,14.466,0.017,2.51,0.131,-0.312,0.794,1.024,6.376,7.658,0.0157,0.0,,,No,0.943,0.9524,0.9827,No,Cruise
Environment_1,CM,18.974,0.517,14.472,0.032,2.498,0.662,-0.206,0.47,0.989,6.174,7.546,0.0464,0.0272,,,No,0.9512,0.954,0.9818,No,Cruise
Environment_1,CM,19.005,0.517,14.503,0.072,2.48,0.226,-0.02,1.034,0.997,6.132,7.471,0.1086,0.0589,,,No,0.9435,0.9465,0.984,No,Cruise
Environment_1,CM,19.022,0.517,14.52,0.003,2.517,-0.144,0.071,-0.31,1.017,6.001,7.667,0.0381,0.0075,,,No,0.9494,0.9614,0.9878,No,Cruise
Environment_1,CM,19.073,0.517,14.57,0.063,2.485,0.535,0.166,1.372,0.981,5.981,7.421,0.071,0.0231,,,No,0.9385,0.9627,0.9817,No,Cruise
Environment_1,CM,19.171,0.517,14.667,0.006,2.495,0.336,0.039,-1.212,0.989,5.938,7.612,0.0346,0.0552,,,No,0.9497,0.952,0.9841,No,Cruise
Environment_1,CM,19.189,0.517,14.686,0.064,2.489,0.332,-0.109,1.672,1.022,6.175,7.715,0.0523,0.0204,,,No,0.9487,0.9555,0.9828,No,Cruise
Environment_1,CM,19.357,0.517,14.853,0.098,2.491,0.257,-0.334,2.012,0.999,6.12,7.372,0.068,0.0369,,,No,0.9342,0.9495,0.9858,No,Cruise
Environment_1,CM,19.708,0.517,15.203,0.029,2.502,0.424,-0.396,1.671,0.996,6.116,7.445,0.0403,0.022,,,No,0.9453,0.9625,0.9912,No,Cruise
Environment_1,CM,19.920,0.517,15.418,-0.016,2.481,-0.207,0.019,0.522,1.012,6.132,7.836,0.0354,0.0379,,,No,0.9462,0.9421,0.9839,No,Cruise
Environment_1,CM,19.945,0.517,15.443,0.155,2.539,0.36,-0.022,2.461,1.029,5.103,6.932,0.145,0.1259,,,No,0.8991,0.8965,0.888,No,Cruise
Environment_1,CM,20.155,0.517,15.655,0.034,2.508,-0.179,0.393,0.478,1.008,5.872,7.468,0.034,0.0722,,,No,0.9407,0.9577,0.9855,No,Cruise
Environment_1,CM,20.155,0.517,15.655,0.023,2.472,-0.288,0.286,-0.166,0.95,6.097,7.733,0.0632,0.0,,,No,0.9547,0.9536,0.9789,No,Cruise
Environment_1,CM,20.206,0.517,15.706,-0.004,2.474,0.255,0.233,0.594,0.999,6.099,7.574,0.0144,0.0639,,,No,0.9533,0.9525,0.9788,No,Cruise
Environment_1,CM,20.370,0.517,15.87,0.054,2.512,0.946,0.484,1.209,0.999,6.175,7.723,0.0304,0.0796,,,No,0.9436,0.9556,0.9622,No,Cruise
Environment_1,CM,20.391,0.517,15.891,0.036,2.512,0.194,-0.004,1.074,1.002,6.392,7.671,0.0614,0.0257,,,No,0.9412,0.9381,0.9803,No,Cruise
Environment_1,CM,20.491,0.517,15.989,0.005,2.486,0.117,0.333,1.004,0.983,6.129,7.709,0.0587,0.0135,,,No,0.9562,0.9525,0.9859,No,Cruise
Environment_1,CM,20.510,0.517,16.008,0.026,2.484,-0.107,0.088,1.139,0.98,6.17,7.715,0.0523,0.0554,,,No,0.9462,0.9614,0.9728,No,Cruise
Environment_1,CM,20.711,0.517,16.211,0.07,2.477,0.363,-0.252,1.07,1.014,5.762,7.201,0.0517,0.0,,,No,0.9196,0.9281,0.9429,No,Cruise
Environment_1,CM,20.737,0.517,16.238,-0.051,2.47,-0.111,0.025,-0.041,1.023,6.164,7.612,0.0186,0.0303,,,No,0.9445,0.947,0.9763,No,Cruise
Environment_1,CM,20.886,0.517,16.382,0.065,2.525,0.531,-0.098,1.842,0.969,5.536,6.984,0.1203,0.0746,,,No,0.9215,0.936,0.9275,No,Cruise
Environment_1,CM,21.177,0.517,16.66,0.093,2.498,0.327,0.004,1.826,0.955,5.051,6.426,0.0851,0.0567,Human,,Yes,0.8627,0.8827,0.8817,No,Avoidance
Environment_1,CM,21.229,0.517,16.712,0.093,2.496,0.627,0.254,0.504,0.989,5.879,7.433,0.0924,0.0498,,,No,0.9368,0.9484,0.9862,No,Cruise
Environment_1,CM,21.318,0.517,16.802,0.037,2.495,0.014,-0.05,1.669,1.008,5.655,7.341,0.0743,0.0151,,,No,0.925,0.9287,0.9646,No,Cruise
Environment_1,CM,21.415,0.517,16.896,0.068,2.479,0.499,0.137,0.696,0.978,5.583,7.093,0.1154,0.0653,,,No,0.9278,0.9217,0.9324,No,Cruise
Environment_1,CM,21.562,0.517,17.046,-0.023,2.483,-0.354,-0.059,1.038,1.018,6.347,7.707,0.0275,0.0,,,No,0.9456,0.9529,0.9859,No,Cruise
Environment_1,CM,21.563,0.517,17.047,0.015,2.511,0.356,-0.05,0.405,0.981,6.065,7.552,0.0335,0.063,,,No,0.9475,0.9525,0.9806,No,Cruise
Environment_1,CM,21.870,0.517,17.353,0.123,2.515,0.194,0.258,2.398,0.996,6.217,7.532,0.0871,0.0464,,,No,0.9406,0.9511,0.9793,No,Cruise
Environment_1,CM,22.042,0.517,17.526,0.084,2.522,0.799,0.04,0.628,1.006,5.249,6.956,0.1305,0.1127,,,No,0.9083,0.9214,0.9047,No,Cruise
Environment_1,CM,22.064,0.517,17.548,0.034,2.529,0.517,0.365,1.314,1.003,5.662,7.114,0.0855,0.047,,,No,0.9266,0.9288,0.9465,No,Cruise
Environment_1,CM,22.102,0.517,17.586,0.054,2.484,-0.323,0.275,0.921,0.99,6.092,7.651,0.0346,0.0789,,,No,0.9546,0.9503,0.9697,No,Cruise
Environment_1,CM,22.232,0.517,17.715,-0.07,2.506,0.216,0.261,1.189,0.997,6.076,7.412,0.0353,0.0,,,No,0.9457,0.9473,0.9868,No,Cruise
Environment_1,CM,22.395,0.517,17.879,-0.054,2.5,0.107,0.011,0.14,1.006,6.236,7.528,0.0413,0.042,,,No,0.9365,0.9454,0.9832,No,Cruise
Environment_1,CM,23.181,0.517,18.666,0.018,2.494,-0.109,-0.015,0.588,1.001,6.246,7.638,0.0147,0.0627,,,No,0.9515,0.9576,0.9901,No,Cruise
Environment_1,CM,23.218,0.517,18.702,0.054,2.5,0.184,-0.378,0.951,0.987,6.096,7.311,0.003,0.0,,,No,0.9444,0.9346,0.9594,No,Cruise
Environment_1,CM,23.223,0.517,18.707,0.625,2.491,2.689,0.351,7.004,0.989,3.702,4.851,0.6378,0.5125,Human,,Yes,0.7899,0.8891,0.795,No,Avoidance
Environment_1,CM,23.428,0.517,18.909,-0.034,2.497,0.528,-0.033,0.662,0.982,6.423,7.607,0.0387,0.0388,,,No,0.9443,0.9634,0.9695,No,Cruise
Environment_1,CM,23.454,0.517,18.934,-0.074,2.513,-0.723,-0.257,-1.895,0.983,5.979,7.42,0.0956,0.0205,,,No,0.932,0.9441,0.9396,No,Cruise
Environment_1,CM,23.551,0.517,19.028,0.052,2.506,-0.201,0.089,0.088,0.969,6.034,7.12,0.0443,0.0,,,No,0.94,0.9421,0.9545,No,Cruise
Environment_1,CM,23.729,0.517,19.205,-0.129,2.494,-0.531,-0.348,-1.209,0.992,6.062,7.717,0.0704,0.0806,,,No,0.9412,0.969,0.9899,No,Cruise
Environment_1,CM,24.047,0.517,19.534,0.008,2.492,-0.224,0.129,1.62,1.034,6.325,7.335,0.0005,0.0,,,No,0.9522,0.9506,0.9829,No,Cruise
Environment_1,CM,24.206,0.517,19.693,-0.01,2.488,0.06,-0.076,0.83,1.001,6.365,7.753,0.0529,0.0119,,,No,0.9447,0.9616,0.9663,No,Cruise
Environment_1,CM,24.216,0.517,19.703,0.407,2.512,2.479,0.364,6.267,0.983,3.888,5.497,0.3933,0.3488,Human,,Yes,0.8516,0.898,0.8196,No,Avoidance
Environment_1,CM,24.409,0.517,19.898,0.108,2.498,0.416,-0.3,2.139,1.012,4.917,6.277,0.1704,0.1123,Human,,Yes,0.8376,0.8656,0.8737,No,Avoidance
Environment_1,CM,24.471,0.517,19.96,0.633,2.508,3.214,-0.218,7.941,0.998,3.84,5.078,0.6253,0.4934,Human,,Yes,0.8019,0.9011,0.8128,No,Avoidance
Environment_1,CM,24.513,0.517,20.001,0.664,2.53,3.407,0.08,8.362,0.984,3.658,4.81,0.6052,0.4589,Human,,Yes,0.8002,0.9061,0.8313,No,Avoidance
Environment_1,CM,24.656,0.517,20.144,0.191,2.505,1.19,0.168,3.327,1.002,4.838,6.55,0.1831,0.1065,,,No,0.8948,0.8932,0.8568,No,Cruise
Environment_1,CM,24.678,0.517,20.167,-0.203,2.493,-0.386,0.086,-1.767,1.015,6.051,7.8,0.1383,0.1377,,,No,0.9515,0.9633,0.9857,No,Cruise
Environment_1,CM,24.699,0.517,20.188,-0.074,2.508,-0.329,0.1,-1.434,1.007,6.097,7.428,0.04,0.1097,,,No,0.952,0.973,0.9758,No,Cruise
Environment_1,CM,25.055,0.517,20.541,-0.101,2.499,-0.298,0.209,-2.168,0.992,6.025,7.455,0.0758,0.0374,,,No,0.9415,0.9382,0.952,No,Cruise
Environment_1,CM,25.269,0.517,20.761,0.291,2.493,1.27,-0.053,3.886,1.028,4.751,6.184,0.3149,0.2971,,,No,0.8993,0.9049,0.8682,No,Cruise
Environment_1,CM,25.274,0.517,20.766,-0.027,2.511,-0.025,-0.088,-0.126,1.002,5.461,6.839,0.0661,0.0092,Human,,Yes,0.9,0.9061,0.9241,No,Avoidance
Environment_1,CM,25.294,0.517,20.786,0.329,2.504,1.871,0.162,4.578,0.993,4.252,5.787,0.3536,0.2958,Human,,Yes,0.8663,0.8998,0.7951,No,Avoidance
Environment_1,CM,25.379,0.517,20.869,0.156,2.513,0.298,-0.151,0.039,0.977,4.882,6.197,0.1522,0.1272,Human,,Yes,0.8264,0.8546,0.8791,No,Avoidance
Environment_1,CM,25.565,0.517,21.057,-0.098,2.477,-0.044,-0.28,-1.17,1.011,5.949,7.59,0.1166,0.0635,,,No,0.9553,0.9568,0.9947,No,Cruise
Environment_1,CM,25.623,0.517,21.115,0.049,2.478,-0.214,0.263,0.516,1.001,5.218,6.562,0.1066,0.0738,Human,,Yes,0.8689,0.8965,0.883,No,Avoidance
Environment_1,CM,25.639,0.517,21.131,0.66,2.495,3.053,0.26,8.215,0.996,3.539,4.785,0.6124,0.4277,Human,,Yes,0.7937,0.8903,0.8082,No,Avoidance
Environment_1,CM,25.668,0.517,21.159,0.619,2.509,3.232,-0.111,7.915,0.98,3.576,5.047,0.6273,0.5395,Human,,Yes,0.8078,0.8905,0.8131,No,Avoidance
Environment_1,CM,25.735,0.517,21.227,0.631,2.498,2.657,0.048,9.008,1.008,3.695,5.189,0.5976,0.5031,Human,,Yes,0.8175,0.8873,0.7894,No,Avoidance
Environment_1,CM,25.793,0.517,21.284,0.246,2.493,0.949,0.01,3.919,0.988,4.62,5.848,0.2745,0.2549,,,No,0.8934,0.8963,0.8652,No,Cruise
Environment_1,CM,25.872,0.517,21.361,0.169,2.523,0.807,0.174,1.519,0.967,4.908,6.309,0.2269,0.2183,,,No,0.9031,0.9165,0.86,No,Cruise
Environment_1,CM,26.041,0.517,21.528,0.65,2.518,3.198,-0.186,7.961,0.992,3.698,4.861,0.626,0.4835,Human,,Yes,0.8025,0.9063,0.8262,No,Avoidance
Environment_1,CM,26.126,0.517,21.612,-0.131,2.481,-0.036,-0.091,-1.814,0.986,6.002,7.658,0.1149,0.0927,,,No,0.9411,0.9556,0.9781,No,Cruise
Environment_1,CM,26.147,0.517,21.633,-0.071,2.492,-0.665,-0.005,-1.809,0.989,5.779,7.123,0.0906,0.0243,Human,,Yes,0.914,0.9196,0.9385,No,Avoidance
Environment_1,CM,26.163,0.517,21.649,-0.072,2.503,-0.186,0.342,-1.275,0.991,6.079,7.389,0.0634,0.1048,,,No,0.9479,0.9647,0.9941,No,Cruise
Environment_1,CM,26.485,0.517,21.976,0.22,2.494,1.582,-0.235,2.844,1.016,4.306,6.001,0.3219,0.2361,Human,,Yes,0.8076,0.8516,0.8403,No,Avoidance
Environment_1,CM,26.517,0.517,22.009,0.601,2.487,3.083,-0.319,10.589,1.024,3.767,5.162,0.5856,0.4179,Human,,Yes,0.7922,0.894,0.7855,No,Avoidance
Environment_1,CM,26.529,0.517,22.021,-0.029,2.504,-0.059,-0.019,0.912,0.999,5.193,6.753,0.0933,0.0467,Human,,Yes,0.8797,0.88,0.8968,No,Avoidance
Environment_1,CM,26.585,0.517,22.077,0.618,2.484,3.057,0.238,7.932,1.003,3.498,5.234,0.4873,0.4778,Human,,Yes,0.8486,0.9153,0.7913,No,Avoidance
Environment_1,CM,26.597,0.517,22.089,0.649,2.458,3.4,0.388,8.683,0.995,3.63,4.891,0.6563,0.519,Human,,Yes,0.8097,0.9044,0.7942,No,Avoidance
Environment_1,CM,26.600,0.517,22.092,0.64,2.52,3.312,0.189,8.604,0.974,3.479,4.882,0.6515,0.5699,Human,,Yes,0.8136,0.8998,0.7919,No,Avoidance
Environment_1,CM,26.623,0.517,22.114,0.382,2.488,2.503,0.023,5.498,0.968,4.025,5.52,0.404,0.327,Human,,Yes,0.8621,0.8953,0.7884,No,Avoidance
Environment_1,CM,26.768,0.517,22.266,-0.082,2.482,-0.146,-0.152,-1.295,1.052,5.804,7.62,0.065,0.0668,,,No,0.9623,0.9609,0.9951,No,Cruise
Environment_1,CM,26.791,0.517,22.289,-0.164,2.471,-0.438,-0.051,-1.252,0.989,6.217,7.815,0.0867,0.1091,,,No,0.9519,0.9676,0.9881,No,Cruise
Environment_1,CM,27.137,0.517,22.635,-0.095,2.513,-0.541,-0.104,0.056,1.0,6.143,7.348,0.0645,0.1175,,,No,0.9579,0.969,0.9879,No,Cruise
Environment_1,CM,27.140,0.517,22.638,0.544,2.479,2.795,0.096,6.729,0.992,3.593,5.199,0.4978,0.4304,Human,,Yes,0.8395,0.8983,0.8116,No,Avoidance
Environment_1,CM,27.287,0.517,22.789,-0.127,2.503,-0.295,0.044,-1.675,1.023,5.85,7.392,0.0687,0.0296,,,No,0.9316,0.9573,0.9964,No,Cruise
Environment_1,CM,27.350,0.517,22.851,-0.113,2.527,-0.706,0.074,-0.554,0.988,6.025,7.495,0.1283,0.1307,,,No,0.9518,0.9577,0.9845,No,Cruise
Environment_1,CM,27.406,0.517,22.908,0.624,2.523,2.442,0.046,7.795,1.029,3.513,5.037,0.5367,0.4455,Human,,Yes,0.8222,0.8955,0.8209,No,Avoidance
Environment_1,CM,27.417,0.517,22.92,0.641,2.536,2.744,0.151,8.127,1.015,3.602,5.19,0.6149,0.5217,Human,,Yes,0.8124,0.9103,0.8214,No,Avoidance
Environment_1,CM,27.453,0.517,22.955,0.12,2.5,0.66,0.101,2.429,0.978,4.546,5.825,0.2235,0.1474,Human,,Yes,0.8237,0.8583,0.8355,No,Avoidance
Environment_1,CM,27.539,0.517,23.038,0.473,2.479,2.681,0.062,5.62,0.971,3.924,5.395,0.4508,0.3996,Human,,Yes,0.846,0.8969,0.7853,No,Avoidance
Environment_1,CM,27.557,0.517,23.057,-0.123,2.522,-0.991,0.046,-0.96,1.024,6.001,7.509,0.0932,0.0799,,,No,0.9409,0.9689,0.9934,No,Cruise
Environment_1,CM,27.745,0.517,23.243,-0.11,2.501,-0.644,-0.048,0.578,0.993,6.086,7.636,0.1123,0.1061,,,No,0.9384,0.9605,0.9809,No,Cruise
Environment_1,CM,27.869,0.517,23.367,0.208,2.511,1.188,0.17,2.779,0.997,4.253,5.896,0.2451,0.1807,Human,,Yes,0.8164,0.8505,0.8706,No,Avoidance
Environment_1,CM,27.894,0.517,23.392,0.583,2.509,3.475,-0.162,8.522,1.014,3.785,4.965,0.5573,0.4051,Human,,Yes,0.7837,0.8892,0.8218,No,Avoidance
Environment_1,CM,27.913,0.517,23.412,-0.142,2.482,0.123,-0.372,-0.434,1.005,6.096,7.776,0.0941,0.1199,,,No,0.9487,0.9728,0.9817,No,Cruise
Environment_1,CM,27.948,0.517,23.447,0.189,2.493,0.9,-0.201,3.646,1.01,4.898,6.359,0.2134,0.1547,,,No,0.894,0.8929,0.8533,No,Cruise
Environment_1,CM,28.171,0.517,23.679,-0.149,2.489,-0.761,0.14,-0.885,1.042,5.846,7.239,0.1117,0.0522,,,No,0.9409,0.9625,1.0046,No,Cruise
Environment_1,CM,28.174,0.517,23.682,-0.161,2.498,-0.156,0.192,-1.894,0.994,6.131,7.707,0.1101,0.1571,,,No,0.9516,0.9678,0.9792,No,Cruise
Environment_1,CM,28.189,0.517,23.697,-0.167,2.508,-0.479,0.128,-1.91,1.02,6.197,7.665,0.1163,0.1353,,,No,0.959,0.9623,0.9761,No,Cruise
Environment_1,CM,28.273,0.517,23.784,-0.15,2.512,-0.601,0.09,-1.146,1.032,6.136,7.364,0.0836,0.0996,,,No,0.9641,0.9756,0.9802,No,Cruise
Environment_1,CM,28.285,0.517,23.796,-0.073,2.486,-0.688,-0.042,-1.536,1.015,5.979,7.476,0.1035,0.0387,,,No,0.9474,0.9548,0.9796,No,Cruise
Environment_1,CM,28.418,0.517,23.929,-0.161,2.485,-0.068,0.005,0.066,0.997,6.164,7.696,0.0974,0.0708,,,No,0.9533,0.968,0.9841,No,Cruise
Environment_1,CM,28.502,0.517,24.012,0.482,2.512,3.025,-0.094,5.761,0.987,3.696,5.207,0.4852,0.3965,Human,,Yes,0.7838,0.8735,0.8093,No,Avoidance
Environment_1,CM,28.525,0.517,24.036,-0.092,2.494,-0.727,0.061,-1.768,1.041,5.887,7.531,0.1125,0.1089,,,No,0.9558,0.963,0.9753,No,Cruise
Environment_1,CM,28.674,0.517,24.182,-0.106,2.53,-0.179,0.226,-1.656,0.98,6.019,7.494,0.0889,0.1171,,,No,0.9654,0.9751,0.9881,No,Cruise
Environment_1,CM,28.690,0.517,24.199,-0.106,2.475,-0.645,0.375,-0.825,1.045,6.153,7.169,0.0798,0.1103,,,No,0.9619,0.962,0.9865,No,Cruise
Environment_1,CM,28.766,0.517,24.275,-0.122,2.518,-0.827,-0.095,-3.291,1.003,6.227,7.29,0.1052,0.069,,,No,0.9647,0.9542,0.9827,No,Cruise
Environment_1,CM,28.793,0.517,24.302,0.543,2.495,2.545,0.217,7.354,1.022,3.726,5.044,0.5522,0.4292,Human,,Yes,0.7859,0.8836,0.7898,No,Avoidance
Environment_1,CM,28.807,0.517,24.316,-0.135,2.515,-0.438,-0.342,-2.174,0.999,5.848,7.379,0.1072,0.1056,,,No,0.9489,0.9644,0.9723,No,Cruise
Environment_1,CM,28.858,0.517,24.367,-0.083,2.497,-0.349,0.301,-1.637,0.985,5.892,7.318,0.126,0.1241,,,No,0.9586,0.9578,0.9751,No,Cruise
Environment_1,CM,28.889,0.517,24.397,-0.118,2.495,-0.506,-0.049,-2.071,0.986,6.224,7.366,0.1478,0.0748,,,No,0.9615,0.9619,0.9877,No,Cruise
Environment_1,CM,28.996,0.517,24.507,-0.139,2.491,-0.555,-0.193,-1.335,1.027,6.054,7.354,0.0838,0.0989,,,No,0.9551,0.9672,0.9741,No,Cruise
Environment_1,CM,29.004,0.517,24.515,0.385,2.512,1.7,0.368,6.032,1.0,4.276,5.913,0.3806,0.3244,Human,,Yes,0.8046,0.8708,0.8164,No,Avoidance
Environment_1,CM,29.013,0.517,24.524,-0.113,2.487,-0.857,0.078,-2.861,1.012,6.08,7.554,0.1095,0.107,,,No,0.9452,0.9673,0.9873,No,Cruise
Environment_1,CM,29.037,0.517,24.548,-0.106,2.489,-0.374,0.181,0.032,1.008,6.101,7.713,0.0995,0.1119,,,No,0.952,0.9627,0.9884,No,Cruise
Environment_1,CM,29.182,0.517,24.692,-0.049,2.504,-0.84,0.154,-1.855,0.989,5.966,7.501,0.0684,0.084,,,No,0.9538,0.9655,0.9706,No,Cruise
Environment_1,CM,29.187,0.517,24.697,-0.169,2.491,-0.962,-0.195,-2.014,0.976,5.77,7.369,0.149,0.1089,,,No,0.953,0.9529,0.9765,No,Cruise
Environment_1,CM,29.192,0.517,24.702,0.491,2.498,2.449,-0.452,7.324,1.014,3.91,5.376,0.4776,0.4155,Human,,Yes,0.7804,0.8693,0.8275,No,Avoidance
Environment_1,CM,29.201,0.517,24.711,-0.156,2.51,-0.369,0.036,-2.193,0.995,6.124,7.573,0.0999,0.1253,,,No,0.9531,0.9652,0.9733,No,Cruise
Environment_1,CM,29.297,0.517,24.802,-0.119,2.501,-0.836,-0.397,-2.115,0.955,6.378,7.513,0.1551,0.0598,,,No,0.9637,0.9586,0.9855,No,Cruise
Environment_1,CM,29.497,0.517,25.001,-0.097,2.52,-0.173,-0.038,0.198,0.993,6.198,7.349,0.08,0.0873,,,No,0.9572,0.974,0.9888,No,Cruise
Environment_1,CM,29.510,0.517,25.014,-0.115,2.506,-0.086,-0.068,-0.695,1.017,5.754,7.496,0.0846,0.0704,,,No,0.96,0.9571,0.9973,No,Cruise
Environment_1,CM,29.616,0.517,25.12,-0.188,2.513,-0.287,-0.182,-2.149,0.995,5.944,7.119,0.1273,0.0902,,,No,0.9548,0.9583,0.9811,No,Cruise
Environment_1,CM,29.768,0.517,25.271,-0.092,2.519,-0.064,-0.186,-0.209,0.998,6.242,7.528,0.0739,0.1128,,,No,0.9629,0.9732,0.9765,No,Cruise
Environment_1,CM,29.870,0.517,25.374,-0.107,2.521,-0.623,-0.12,-2.635,1.011,6.187,7.287,0.1478,0.0817,,,No,0.9557,0.9694,0.9877,No,Cruise
Environment_1,CM,29.883,0.517,25.387,0.516,2.503,1.978,0.003,8.422,0.987,3.748,5.27,0.4557,0.4061,Human,,Yes,0.8453,0.8914,0.8019,No,Avoidance
Environment_1,CM,30.037,0.517,25.537,-0.159,2.501,-1.109,0.224,-2.626,0.971,6.1,7.506,0.0945,0.1135,,,No,0.9591,0.9653,0.978,No,Cruise
Environment_1,CM,30.044,0.517,25.544,-0.08,2.526,-0.708,0.1,-0.823,0.986,6.142,7.505,0.1113,0.1162,,,No,0.96,0.978,0.9846,No,Cruise
Environment_1,CM,30.355,0.517,25.846,-0.113,2.521,-0.674,0.061,-3.435,0.973,5.863,7.368,0.1047,0.0944,,,No,0.9458,0.9628,0.976,No,Cruise
Environment_1,CM,30.803,0.517,26.3,0.44,2.52,2.237,-0.269,5.325,1.012,4.058,5.642,0.3998,0.3117,Human,,Yes,0.8028,0.8869,0.8377,No,Avoidance
Environment_1,CM,30.805,0.517,26.302,0.465,2.486,1.801,-0.154,7.203,0.989,4.057,5.669,0.4353,0.3749,Human,,Yes,0.8094,0.8762,0.842,No,Avoidance
Environment_1,CM,30.878,0.517,26.375,0.302,2.493,1.388,-0.018,3.32,1.004,4.192,6.157,0.3462,0.2438,Human,,Yes,0.8064,0.8583,0.8159,No,Avoidance
Environment_1,CM,31.148,0.517,26.641,-0.177,2.497,-1.016,0.312,-1.89,0.987,6.104,7.37,0.0901,0.142,,,No,0.9709,0.9744,0.9939,No,Cruise
Environment_1,CM,31.238,0.517,26.731,-0.073,2.491,-0.65,-0.267,-3.429,0.992,6.089,7.548,0.0998,0.1331,,,No,0.9516,0.9596,0.9712,No,Cruise
Environment_1,CM,31.244,0.517,26.737,0.433,2.469,2.569,0.131,6.21,0.969,4.038,5.343,0.4151,0.3432,Human,,Yes,0.782,0.8614,0.8152,No,Avoidance
Environment_1,CM,31.265,0.517,26.757,-0.148,2.5,-0.977,-0.18,-1.268,0.993,5.982,7.252,0.1262,0.0998,,,No,0.966,0.9702,0.9751,No,Cruise
Environment_1,CM,31.291,0.517,26.784,0.347,2.475,1.628,-0.404,5.895,1.008,4.15,5.985,0.3547,0.2683,Human,,Yes,0.8048,0.8549,0.8308,No,Avoidance
Environment_1,CM,31.443,0.517,26.94,-0.131,2.494,-0.487,-0.348,-2.227,1.026,5.944,7.443,0.0971,0.1197,,,No,0.969,0.969,0.9854,No,Cruise
Environment_1,CM,31.897,0.517,27.385,-0.06,2.495,-0.637,-0.096,-2.113,0.98,5.96,7.444,0.0911,0.0666,,,No,0.9675,0.9757,0.9935,No,Cruise
Environment_1,CM,31.938,0.517,27.425,-0.101,2.487,-1.165,0.044,-1.92,0.976,6.18,7.331,0.0912,0.084,,,No,0.9556,0.9643,0.9735,No,Cruise
Environment_1,CM,32.151,0.517,27.642,-0.059,2.497,-1.318,0.037,-2.348,1.019,6.2,7.674,0.1041,0.0956,,,No,0.9655,0.9563,0.9753,No,Cruise
Environment_1,CM,32.327,0.517,27.821,-0.483,2.494,-2.087,0.017,-5.418,1.02,3.846,5.427,0.4344,0.3529,Palm_Trunk,,Yes,0.8759,0.8564,0.8268,No,Avoidance
Environment_1,CM,32.448,0.517,27.939,-0.132,2.485,-0.732,0.079,-2.199,0.977,6.051,7.331,0.0996,0.0887,,,No,0.9769,0.9642,0.9765,No,Cruise
Environment_1,CM,32.491,0.517,27.982,-0.103,2.512,-0.454,0.003,-1.246,0.985,5.806,7.162,0.0725,0.104,,,No,0.9459,0.9394,0.9556,No,Cruise
Environment_1,CM,32.515,0.517,28.006,-0.106,2.51,-0.662,0.073,-1.437,1.016,6.156,7.376,0.1012,0.0769,,,No,0.9581,0.9639,0.9773,No,Cruise
Environment_1,CM,32.555,0.517,28.046,-0.165,2.515,-0.407,0.196,-1.499,1.007,5.347,6.81,0.1103,0.1057,,,No,0.9316,0.9327,0.9482,No,Cruise
Environment_1,CM,33.004,0.517,28.485,-0.095,2.471,-0.353,0.109,-2.552,0.977,5.812,7.353,0.1497,0.0767,,,No,0.9462,0.9818,0.9872,No,Cruise
Environment_1,CM,33.165,0.517,28.642,-0.07,2.507,-1.011,0.07,-0.774,0.978,5.86,7.15,0.1035,0.0995,,,No,0.9398,0.9425,0.9551,No,Cruise
Environment_1,CM,33.240,0.517,28.717,-0.095,2.506,-0.519,0.26,-1.626,0.993,5.983,7.47,0.1155,0.0995,,,No,0.9491,0.9723,0.9957,No,Cruise
Environment_1,CM,33.388,0.517,28.863,-0.175,2.505,-0.908,-0.182,-2.382,0.99,5.528,6.797,0.1244,0.0944,,,No,0.9343,0.9395,0.9377,No,Cruise
Environment_1,CM,33.656,0.517,29.131,-0.146,2.488,-0.927,0.008,-1.301,1.0,6.06,7.355,0.1538,0.131,,,No,0.9632,0.9544,0.983,No,Cruise
Environment_1,CM,33.709,0.517,29.184,-0.662,2.511,-2.848,0.319,-9.409,0.994,3.512,5.001,0.5927,0.4669,Palm_Trunk,,Yes,0.8638,0.896,0.8195,No,Avoidance
Environment_1,CM,33.802,0.517,29.274,-0.157,2.486,-0.585,0.186,-0.745,0.966,5.571,6.804,0.1028,0.0967,,,No,0.9297,0.933,0.9234,No,Cruise
Environment_1,CM,33.912,0.517,29.384,-0.162,2.514,-0.709,0.155,-1.029,0.999,5.739,6.986,0.0817,0.0988,,,No,0.9454,0.949,0.9484,No,Cruise
Environment_1,CM,33.933,0.517,29.405,-0.19,2.506,-0.412,0.052,-1.727,1.007,5.499,6.8,0.1482,0.1408,,,No,0.9366,0.9181,0.9428,No,Cruise
Environment_1,CM,33.995,0.517,29.468,-0.146,2.504,-0.035,0.195,-1.978,1.013,6.016,7.399,0.1164,0.1225,,,No,0.9583,0.9796,0.9872,No,Cruise
Environment_1,CM,34.035,0.517,29.507,-0.427,2.527,-2.551,0.068,-6.923,0.99,4.004,5.533,0.3851,0.3104,Palm_Trunk,,Yes,0.8888,0.849,0.8404,No,Avoidance
Environment_1,CM,34.052,0.517,29.524,-0.635,2.513,-2.959,-0.184,-8.433,0.999,3.735,5.264,0.551,0.434,Palm_Trunk,,Yes,0.8999,0.8821,0.812,No,Avoidance
Environment_1,CM,34.080,0.517,29.552,-0.629,2.491,-3.114,-0.324,-8.877,1.0,3.313,4.933,0.6101,0.4681,Palm_Trunk,,Yes,0.8707,0.8927,0.8166,No,Avoidance
Environment_1,CM,34.108,0.517,29.579,-0.628,2.504,-2.955,-0.021,-8.026,0.945,3.429,5.12,0.6194,0.4681,Palm_Trunk,,Yes,0.8738,0.8897,0.8312,No,Avoidance
Environment_1,CM,34.643,0.517,30.11,-0.159,2.471,-0.435,-0.025,-0.408,0.992,6.245,7.588,0.1041,0.0751,,,No,0.9693,0.9648,0.9748,No,Cruise
Environment_1,CM,34.662,0.517,30.128,-0.606,2.484,-3.149,-0.074,-8.873,0.975,3.641,4.999,0.5814,0.4245,Palm_Trunk,,Yes,0.8848,0.8788,0.8288,No,Avoidance
Environment_1,CM,34.830,0.517,30.295,-0.092,2.483,-0.871,-0.023,-1.915,0.996,5.797,7.424,0.0919,0.0519,,,No,0.9536,0.9681,0.9976,No,Cruise
Environment_1,CM,35.083,0.517,30.549,-0.659,2.491,-3.384,-0.049,-8.507,1.001,3.391,5.0,0.6045,0.4686,Palm_Trunk,,Yes,0.8648,0.8967,0.8109,No,Avoidance
Environment_1,CM,35.182,0.517,30.651,-0.105,2.468,-1.037,-0.261,-0.469,1.03,6.136,7.387,0.1383,0.1201,,,No,0.9513,0.966,0.9926,No,Cruise
Environment_1,CM,35.213,0.517,30.682,-0.019,2.478,0.111,0.126,0.833,1.005,6.328,7.55,0.0,0.0226,,,No,0.964,0.963,0.988,No,Cruise
Environment_1,CM,35.354,0.517,30.825,-0.106,2.511,-0.617,-0.018,-1.515,1.013,6.269,7.476,0.1104,0.0966,,,No,0.9553,0.9546,0.9893,No,Cruise
Environment_1,CM,35.373,0.517,30.844,-0.579,2.506,-2.899,-0.036,-8.654,1.007,3.543,4.864,0.5572,0.4613,Palm_Trunk,,Yes,0.888,0.8725,0.832,No,Avoidance
Environment_1,CM,35.434,0.517,30.904,-0.008,2.521,0.288,-0.026,-0.358,0.992,6.326,7.72,0.0,0.0066,,,No,0.9631,0.9595,0.9755,No,Cruise
Environment_1,CM,35.451,0.517,30.922,-0.57,2.498,-2.857,-0.067,-8.649,1.016,3.75,4.978,0.5141,0.4033,Palm_Trunk,,Yes,0.8894,0.8667,0.8323,No,Avoidance
Environment_1,CM,35.493,0.517,30.963,-0.282,2.519,-1.708,0.206,-4.342,0.991,4.584,5.753,0.2705,0.2241,Palm_Trunk,,Yes,0.8202,0.8932,0.8574,No,Avoidance
Environment_1,CM,35.543,0.517,31.013,-0.182,2.518,-1.419,0.084,-3.435,0.993,5.104,6.537,0.2186,0.168,Palm_Trunk,,Yes,0.86,0.9086,0.8906,No,Avoidance
Environment_1,CM,35.861,0.517,31.338,-0.155,2.494,-0.813,-0.228,-1.706,1.023,6.017,7.539,0.0852,0.1005,,,No,0.9671,0.9597,0.9827,No,Cruise
Environment_1,CM,36.091,0.517,31.57,-0.222,2.493,-0.833,0.215,-4.255,1.007,5.222,6.628,0.1885,0.185,,,No,0.9177,0.9036,0.9206,No,Cruise
Environment_1,CM,36.311,0.517,31.788,-0.641,2.505,-3.114,-0.091,-9.031,0.994,3.705,5.153,0.5959,0.4626,Palm_Trunk,,Yes,0.8424,0.8919,0.8142,No,Avoidance
Environment_1,CM,36.427,0.517,31.905,-0.252,2.5,-1.509,0.202,-2.41,1.009,5.061,6.43,0.1893,0.1929,,,No,0.918,0.8991,0.9189,No,Cruise
Environment_1,CM,36.492,0.517,31.97,-0.37,2.498,-1.92,-0.249,-4.71,0.998,3.912,5.563,0.3323,0.2692,Palm_Trunk,,Yes,0.8744,0.8583,0.7985,No,Avoidance
Environment_1,CM,36.628,0.517,32.102,-0.0,2.485,-0.105,-0.181,0.515,0.966,6.235,7.395,0.005,0.0407,,,No,0.9521,0.956,0.9756,No,Cruise
Environment_1,CM,36.755,0.517,32.229,-0.081,2.481,-0.452,-0.224,-0.583,1.004,5.77,7.005,0.0751,0.1579,Palm_Trunk,,Yes,0.9131,0.9439,0.9328,No,Avoidance
Environment_1,CM,36.851,0.517,32.327,-0.136,2.489,-0.699,0.338,-2.82,1.017,5.284,6.787,0.1699,0.1564,Palm_Trunk,,Yes,0.8706,0.9054,0.8777,No,Avoidance
Environment_1,CM,36.880,0.517,32.357,-0.201,2.491,-0.934,0.344,-3.796,1.029,5.008,6.048,0.2163,0.201,Palm_Trunk,,Yes,0.8325,0.8989,0.8701,No,Avoidance
Environment_1,CM,36.964,0.517,32.442,-0.1,2.489,-0.586,0.141,-1.329,1.012,5.441,6.563,0.127,0.1595,Palm_Trunk,,Yes,0.8863,0.9204,0.9158,No,Avoidance
Environment_1,CM,37.047,0.517,32.524,-0.473,2.485,-2.711,0.361,-6.922,0.997,3.853,5.489,0.4435,0.3695,Palm_Trunk,,Yes,0.8944,0.8648,0.7933,No,Avoidance
Environment_1,CM,37.083,0.517,32.559,-0.046,2.492,-0.169,0.047,1.665,0.963,6.294,7.565,0.0565,0.0276,,,No,0.9552,0.9641,0.9628,No,Cruise
Environment_1,CM,37.431,0.517,32.904,-0.076,2.504,-0.278,-0.256,-0.628,0.991,5.842,7.136,0.0861,0.1278,Palm_Trunk,,Yes,0.9144,0.9374,0.9425,No,Avoidance
Environment_1,CM,37.604,0.517,33.078,-0.07,2.515,-0.6,-0.048,-0.534,1.005,5.828,7.183,0.1041,0.0794,Palm_Trunk,,Yes,0.8983,0.9381,0.9369,No,Avoidance
Environment_1,CM,37.652,0.517,33.127,-0.223,2.487,-0.4,-0.326,-3.484,1.021,5.284,6.791,0.1595,0.1667,,,No,0.9164,0.9107,0.9142,No,Cruise
Environment_1,CM,37.810,0.517,33.284,-0.576,2.489,-2.448,-0.026,-8.671,0.992,3.947,5.059,0.5473,0.4545,Palm_Trunk,,Yes,0.83,0.9023,0.8337,No,Avoidance
Environment_1,CM,37.885,0.517,33.357,-0.494,2.505,-2.832,-0.184,-7.569,0.98,3.917,5.146,0.4763,0.4129,Palm_Trunk,,Yes,0.894,0.8532,0.8021,No,Avoidance
Environment_1,CM,37.896,0.517,33.368,-0.581,2.49,-3.238,0.026,-9.768,0.974,3.704,5.014,0.5549,0.4123,Palm_Trunk,,Yes,0.8291,0.8963,0.8181,No,Avoidance
Environment_1,CM,38.184,0.517,33.645,0.004,2.477,-0.156,-0.057,0.854,0.961,6.34,7.611,0.0175,0.0,,,No,0.9522,0.9542,0.9681,No,Cruise
Environment_1,CM,38.409,0.517,33.866,-0.24,2.499,-0.969,-0.18,-3.94,0.985,4.354,5.772,0.1836,0.1938,Palm_Trunk,,Yes,0.8857,0.8623,0.8473,No,Avoidance
Environment_1,CM,38.507,0.517,33.962,-0.021,2.502,0.26,-0.271,0.864,0.981,6.309,7.412,0.0434,0.0,,,No,0.9495,0.963,0.9794,No,Cruise
Environment_1,CM,38.605,0.517,34.061,-0.024,2.495,0.073,0.304,-0.481,1.008,6.149,7.68,0.022,0.0492,,,No,0.952,0.9611,0.9903,No,Cruise
Environment_1,CM,38.628,0.517,34.084,-0.009,2.481,0.105,0.061,0.189,0.997,6.29,7.689,0.0068,0.0,,,No,0.9637,0.9578,0.9782,No,Cruise
Environment_1,CM,38.630,0.517,34.086,0.036,2.494,-0.002,-0.18,0.543,0.971,6.306,7.796,0.0,0.0073,,,No,0.9613,0.9606,0.9847,No,Cruise
Environment_1,CM,38.709,0.517,34.164,0.025,2.514,-0.312,0.105,0.152,0.991,6.313,7.838,0.0197,0.0,,,No,0.9606,0.9605,0.9769,No,Cruise
Environment_1,CM,38.763,0.517,34.217,-0.048,2.517,-0.249,0.065,0.332,0.979,6.345,7.71,0.0119,0.0,,,No,0.9614,0.9603,0.9657,No,Cruise
Environment_1,CM,38.794,0.517,34.249,-0.603,2.503,-3.029,0.13,-8.2,1.012,3.643,5.171,0.5866,0.4222,Palm_Trunk,,Yes,0.8722,0.8729,0.8192,No,Avoidance
Environment_1,CM,38.905,0.517,34.36,-0.034,2.479,0.142,-0.009,1.205,1.005,6.029,7.358,0.0,0.0,,,No,0.9499,0.9638,0.9737,No,Cruise
Environment_1,CM,38.942,0.517,34.398,0.011,2.493,-0.171,0.138,-0.026,1.017,6.32,7.606,0.0005,0.0,,,No,0.9518,0.9636,0.9702,No,Cruise
Environment_1,CM,38.950,0.517,34.406,-0.521,2.521,-2.509,0.087,-7.187,0.986,3.767,5.117,0.4577,0.3935,Palm_Trunk,,Yes,0.8265,0.8999,0.8036,No,Avoidance
Environment_1,CM,39.062,0.517,34.518,-0.079,2.489,0.178,0.11,0.816,1.004,6.211,7.609,0.0122,0.0429,,,No,0.9489,0.956,0.9886,No,Cruise
Environment_1,CM,39.110,0.517,34.566,-0.317,2.5,-1.729,0.124,-5.319,1.004,4.043,5.683,0.3073,0.2744,Palm_Trunk,,Yes,0.8838,0.8636,0.834,No,Avoidance
Environment_1,CM,39.112,0.517,34.568,-0.57,2.501,-2.295,0.149,-7.326,1.015,3.859,5.217,0.5119,0.4476,Palm_Trunk,,Yes,0.8855,0.8626,0.8192,No,Avoidance
Environment_1,CM,39.136,0.517,34.592,-0.05,2.509,-0.299,0.016,-0.679,0.989,5.927,7.553,0.04,0.0322,,,No,0.9329,0.9557,0.9546,No,Cruise
Environment_1,CM,39.265,0.517,34.724,0.004,2.522,-0.324,-0.04,0.256,1.02,6.394,7.683,0.0128,0.0274,,,No,0.9465,0.9618,0.9776,No,Cruise
Environment_1,CM,39.267,0.517,34.726,-0.02,2.495,0.197,0.192,-0.749,0.982,6.162,7.444,0.018,0.0,,,No,0.966,0.9526,0.9787,No,Cruise
Environment_1,CM,39.356,0.517,34.812,-0.393,2.491,-1.747,-0.288,-6.307,0.972,4.142,5.519,0.3759,0.3566,Palm_Trunk,,Yes,0.8205,0.8983,0.809,No,Avoidance
Environment_1,CM,39.440,0.517,34.894,-0.291,2.512,-1.387,-0.133,-3.662,0.98,4.268,5.701,0.2367,0.2226,Palm_Trunk,,Yes,0.8817,0.8543,0.823,No,Avoidance
Environment_1,CM,39.709,0.517,35.16,0.045,2.492,-0.079,-0.098,-0.584,0.988,6.184,7.459,0.0528,0.0176,,,No,0.958,0.9581,0.988,No,Cruise
Environment_1,CM,39.898,0.517,35.349,-0.071,2.491,-0.095,0.403,-1.118,0.998,6.081,7.458,0.0268,0.0116,,,No,0.9459,0.9646,0.9608,No,Cruise
Environment_1,CM,39.937,0.517,35.388,-0.533,2.508,-2.562,-0.043,-9.079,1.003,3.782,5.185,0.4846,0.3974,Palm_Trunk,,Yes,0.8234,0.8924,0.8047,No,Avoidance
Environment_1,CM,40.011,0.517,35.463,-0.027,2.51,-0.487,-0.099,0.27,1.011,6.214,7.525,0.0028,0.0,,,No,0.9489,0.9543,0.9678,No,Cruise
Environment_1,CM,40.046,0.517,35.498,0.052,2.516,0.035,-0.096,0.701,0.996,6.224,7.39,0.0338,0.0369,,,No,0.9501,0.9574,0.9821,No,Cruise
Environment_1,CM,40.112,0.517,35.564,0.049,2.513,0.112,-0.211,0.638,1.001,6.15,7.521,0.0749,0.0708,,,No,0.9496,0.9692,0.9754,No,Cruise
Environment_1,CM,40.243,0.517,35.696,-0.609,2.533,-3.219,0.06,-7.667,1.007,3.631,4.968,0.56,0.4366,Palm_Trunk,,Yes,0.849,0.8972,0.8057,No,Avoidance
Environment_1,CM,40.245,0.517,35.698,-0.061,2.481,-0.099,-0.122,0.503,0.996,6.235,7.707,0.0,0.0366,,,No,0.9445,0.9542,0.9815,No,Cruise
Environment_1,CM,40.350,0.517,35.799,-0.348,2.501,-1.38,0.238,-3.259,0.964,4.75,5.774,0.2673,0.2303,Palm_Trunk,,Yes,0.8136,0.8991,0.8406,No,Avoidance
Environment_1,CM,40.447,0.517,35.897,-0.096,2.519,-0.228,0.224,-2.725,1.01,5.703,6.936,0.102,0.0765,Palm_Trunk,,Yes,0.908,0.9345,0.935,No,Avoidance
Environment_1,CM,40.516,0.517,35.964,-0.359,2.515,-1.828,-0.272,-5.286,0.978,4.569,5.711,0.3469,0.2831,Palm_Trunk,,Yes,0.8349,0.9093,0.8443,No,Avoidance
Environment_1,CM,40.517,0.517,35.965,-0.141,2.489,-0.544,-0.137,-3.432,1.008,5.877,6.891,0.1336,0.1225,Palm_Trunk,,Yes,0.9027,0.9457,0.9282,No,Avoidance
Environment_1,CM,40.574,0.517,36.024,-0.001,2.517,0.08,-0.029,0.222,1.025,6.157,7.34,0.0313,0.0444,,,No,0.9503,0.9714,0.9637,No,Cruise
Environment_1,CM,40.589,0.517,36.038,-0.051,2.473,-0.238,0.102,-0.648,0.977,5.703,7.214,0.028,0.0995,Palm_Trunk,,Yes,0.9243,0.9441,0.927,No,Avoidance
Environment_1,CM,40.620,0.517,36.069,-0.049,2.506,-0.204,0.243,-1.186,0.985,6.256,7.737,0.0238,0.007,,,No,0.9587,0.9741,0.9722,No,Cruise
Environment_1,CM,40.641,0.517,36.09,-0.301,2.535,-1.644,-0.128,-1.674,1.009,4.216,5.573,0.2233,0.2056,Palm_Trunk,,Yes,0.8692,0.842,0.8144,No,Avoidance
Environment_1,CM,40.672,0.517,36.121,-0.347,2.496,-2.067,0.15,-5.79,0.997,4.541,5.628,0.3332,0.2936,Palm_Trunk,,Yes,0.8298,0.9038,0.8399,No,Avoidance
Environment_1,CM,40.952,0.517,36.404,-0.586,2.463,-2.789,0.105,-6.715,1.009,3.911,4.973,0.5679,0.4641,Palm_Trunk,,Yes,0.8298,0.8893,0.826,No,Avoidance
Environment_1,CM,40.998,0.517,36.45,-0.017,2.517,0.095,0.199,-0.352,1.017,6.311,7.611,0.0,0.0,,,No,0.9619,0.95,0.9822,No,Cruise
Environment_1,CM,41.233,0.517,36.684,-0.015,2.515,-0.442,0.088,0.551,0.995,6.236,7.641,0.0199,0.0515,,,No,0.9531,0.9593,0.984,No,Cruise
Environment_1,CM,41.262,0.517,36.713,-0.097,2.526,-1.048,0.062,-1.469,0.988,5.814,7.015,0.0898,0.0756,Palm_Trunk,,Yes,0.905,0.9411,0.9384,No,Avoidance
Environment_1,CM,41.543,0.517,36.997,-0.057,2.5,-0.048,0.182,0.846,1.012,6.473,7.437,0.0258,0.0595,,,No,0.9583,0.9618,0.9773,No,Cruise
Environment_1,CM,41.621,0.517,37.074,-0.329,2.512,-1.765,0.092,-5.263,0.985,4.727,5.596,0.3179,0.2327,Palm_Trunk,,Yes,0.8084,0.8945,0.8872,No,Avoidance
Environment_1,CM,41.646,0.517,37.099,-0.1,2.529,-0.289,-0.125,-1.095,1.015,5.643,6.834,0.1138,0.1285,Palm_Trunk,,Yes,0.8956,0.9452,0.9324,No,Avoidance
Environment_1,CM,41.711,0.517,37.166,-0.466,2.474,-2.482,0.06,-5.972,1.022,4.07,5.316,0.4126,0.3601,Palm_Trunk,,Yes,0.8296,0.8956,0.8171,No,Avoidance
Environment_1,CM,41.889,0.517,37.343,-0.074,2.505,0.019,-0.167,-0.415,0.998,6.021,7.647,0.0,0.0,,,No,0.9523,0.9623,0.9853,No,Cruise
Environment_1,CM,41.904,0.517,37.358,0.109,2.5,0.455,-0.095,0.886,1.003,6.377,7.597,0.0506,0.0,,,No,0.9545,0.9649,0.9913,No,Cruise
Environment_1,CM,41.918,0.517,37.372,-0.026,2.478,-0.201,0.088,0.057,0.986,6.179,7.648,0.0,0.0,,,No,0.9386,0.9675,0.9804,No,Cruise
Environment_1,CM,41.971,0.517,37.426,-0.021,2.524,0.118,-0.06,-0.23,1.01,6.27,7.703,0.0199,0.0437,,,No,0.9606,0.9529,0.9831,No,Cruise
Environment_1,CM,41.990,0.517,37.444,-0.026,2.51,-0.307,0.652,0.031,0.958,6.35,7.663,0.056,0.022,,,No,0.9474,0.9639,1.0018,No,Cruise
Environment_1,CM,42.259,0.517,37.713,-0.488,2.502,-2.183,-0.219,-6.716,1.001,3.941,5.336,0.3924,0.3589,Palm_Trunk,,Yes,0.8298,0.9027,0.8085,No,Avoidance
Environment_1,CM,42.331,0.517,37.783,-0.001,2.489,-0.228,-0.026,-0.052,0.974,6.526,7.88,0.0225,0.0781,,,No,0.9478,0.9578,0.988,No,Cruise
Environment_1,CM,42.341,0.517,37.794,-0.033,2.509,-0.528,-0.115,-0.213,1.024,6.2,7.615,0.0271,0.0226,,,No,0.956,0.9781,0.9827,No,Cruise
Environment_1,CM,42.461,0.517,37.908,0.018,2.493,0.108,0.006,-0.216,0.949,6.18,7.657,0.0323,0.0666,,,No,0.948,0.9469,0.9829,No,Cruise
Environment_1,CM,42.479,0.517,37.925,-0.574,2.496,-2.598,0.199,-7.136,0.996,3.601,4.878,0.5566,0.4245,Palm_Trunk,,Yes,0.8353,0.9008,0.8237,No,Avoidance
Environment_1,CM,42.521,0.517,37.968,0.088,2.491,0.351,0.027,0.49,1.015,6.166,7.308,0.0372,0.0448,,,No,0.9555,0.9672,0.9797,No,Cruise
Environment_1,CM,42.553,0.517,38.001,0.099,2.466,0.222,-0.26,0.983,1.026,6.198,7.853,0.0364,0.0,,,No,0.9404,0.9684,0.9699,No,Cruise
Environment_1,CM,42.600,0.517,38.049,0.065,2.488,-0.346,-0.084,-0.042,1.021,6.453,7.535,0.0397,0.0453,,,No,0.9435,0.9594,0.9738,No,Cruise
Environment_1,CM,42.721,0.517,38.17,-0.036,2.484,-0.102,-0.012,0.768,1.0,6.273,7.76,0.0232,0.0,,,No,0.9533,0.9679,0.9922,No,Cruise
Environment_1,CM,42.761,0.517,38.21,0.042,2.515,-0.224,-0.468,0.745,0.996,6.271,7.138,0.0138,0.057,,,No,0.9359,0.9639,0.9766,No,Cruise
Environment_1,CM,42.937,0.517,38.383,0.044,2.489,-0.054,0.145,0.313,0.985,6.111,7.534,0.0703,0.0966,,,No,0.9371,0.9574,0.982,No,Cruise
Environment_1,CM,43.069,0.517,38.51,-0.052,2.489,0.094,0.175,-1.474,0.962,6.309,7.698,0.0046,0.0371,,,No,0.9525,0.9622,0.9773,No,Cruise
Environment_1,CM,43.201,0.517,38.644,-0.006,2.501,-0.298,0.107,1.12,1.017,6.27,7.596,0.0663,0.0137,,,No,0.9489,0.9584,0.9768,No,Cruise
Environment_1,CM,43.573,0.517,39.013,0.015,2.486,0.509,-0.165,-0.847,0.99,6.197,7.703,0.0684,0.049,,,No,0.934,0.9595,0.9928,No,Cruise
Environment_1,CM,43.574,0.517,39.014,0.02,2.502,0.407,0.021,-0.937,0.987,6.252,7.598,0.0165,0.0788,,,No,0.9463,0.9575,0.9854,No,Cruise
Environment_1,CM,43.812,0.517,39.256,0.07,2.516,-0.043,0.214,0.034,1.019,6.464,7.7,0.0401,0.0012,,,No,0.9515,0.9536,0.9781,No,Cruise
Environment_1,CM,43.875,0.517,39.319,0.046,2.523,-0.126,-0.22,0.284,0.995,6.179,7.461,0.0418,0.0531,,,No,0.9429,0.9576,0.983,No,Cruise
Environment_1,CM,43.877,0.517,39.321,0.053,2.523,0.558,0.235,2.25,1.026,5.984,7.586,0.1057,0.0162,,,No,0.9318,0.9491,0.9842,No,Cruise
Environment_1,CM,43.890,0.517,39.334,-0.095,2.502,-0.029,0.106,-0.021,0.987,6.26,7.869,0.0058,0.0017,,,No,0.9526,0.974,0.9765,No,Cruise
Environment_1,CM,43.942,0.517,39.386,0.068,2.513,0.177,-0.286,0.78,1.003,6.392,7.569,0.0521,0.0097,,,No,0.9582,0.9532,0.982,No,Cruise
Environment_1,CM,44.023,0.517,39.467,0.142,2.483,0.438,0.27,1.459,1.003,5.905,7.66,0.1064,0.0564,,,No,0.9304,0.9509,0.983,No,Cruise
Environment_1,CM,44.093,0.517,39.536,-0.007,2.522,0.18,0.055,-0.452,0.986,6.252,7.736,0.0151,0.0796,,,No,0.9576,0.9566,0.979,No,Cruise
Environment_1,CM,44.166,0.517,39.608,0.035,2.476,0.066,0.096,1.038,0.985,6.284,7.571,0.0436,0.0903,,,No,0.9463,0.953,0.9835,No,Cruise
Environment_1,CM,44.275,0.517,39.714,0.052,2.506,0.011,0.118,2.587,0.977,6.112,7.517,0.1063,0.032,,,No,0.9288,0.9568,0.9842,No,Cruise
Environment_1,CM,44.299,0.517,39.739,0.056,2.507,-0.027,0.018,0.695,1.001,6.26,7.788,0.0047,0.0538,,,No,0.9494,0.9601,0.9799,No,Cruise
Environment_1,CM,44.451,0.517,39.885,0.025,2.488,-0.189,0.053,0.753,0.966,6.129,7.649,0.0159,0.0616,,,No,0.9481,0.9647,0.9929,No,Cruise
Environment_1,CM,44.681,0.517,40.117,0.047,2.497,0.132,-0.016,0.75,1.008,6.217,7.383,0.0494,0.0627,,,No,0.9419,0.9589,0.9774,No,Cruise
Environment_1,CM,44.754,0.517,40.19,0.036,2.523,0.2,0.12,0.999,0.994,6.017,7.694,0.0543,0.0028,,,No,0.9442,0.9548,0.9893,No,Cruise
Environment_1,CM,45.057,0.517,40.505,0.046,2.496,0.943,-0.02,1.024,1.041,6.011,7.644,0.0378,0.038,,,No,0.961,0.9584,0.9844,No,Cruise
Environment_1,CM,45.112,0.517,40.561,0.067,2.513,0.384,0.024,1.509,1.012,6.156,7.661,0.0237,0.0001,,,No,0.9422,0.9581,0.9802,No,Cruise
Environment_1,CM,45.138,0.517,40.587,0.093,2.478,0.125,0.027,2.739,1.006,6.236,7.191,0.1048,0.0871,,,No,0.9531,0.9494,0.9708,No,Cruise
Environment_1,CM,45.215,0.517,40.664,0.1,2.498,0.15,0.054,1.604,1.005,6.261,7.531,0.0647,0.0513,,,No,0.9493,0.9622,0.9762,No,Cruise
Environment_1,CM,45.256,0.517,40.706,0.044,2.515,-0.267,0.081,0.662,1.009,6.055,7.339,0.0538,0.085,,,No,0.9399,0.9563,0.9837,No,Cruise
Environment_1,CM,45.304,0.517,40.753,0.051,2.493,0.621,-0.197,1.616,0.986,6.149,7.673,0.0429,0.0906,,,No,0.9599,0.9657,0.9735,No,Cruise
Environment_1,CM,45.432,0.517,40.881,0.091,2.505,0.125,-0.276,-0.253,1.001,6.033,7.317,0.0593,0.0978,,,No,0.9404,0.9612,0.9754,No,Cruise
Environment_1,CM,45.435,0.517,40.884,0.074,2.517,1.371,0.054,2.024,0.98,6.248,7.541,0.0495,0.116,,,No,0.9299,0.9473,1.0078,No,Cruise
Environment_1,CM,45.442,0.517,40.891,0.106,2.528,-0.47,-0.018,0.555,1.024,6.12,7.524,0.0567,0.0002,,,No,0.9588,0.9708,0.9762,No,Cruise
Environment_1,CM,45.469,0.517,40.919,0.068,2.488,0.661,0.497,0.738,1.008,6.035,7.472,0.123,0.1089,,,No,0.9488,0.9553,0.9836,No,Cruise
Environment_1,CM,45.501,0.517,40.951,0.112,2.477,0.242,-0.033,1.995,1.007,6.227,7.564,0.0551,0.0882,,,No,0.9501,0.9599,0.9762,No,Cruise
Environment_1,CM,45.522,0.517,40.971,0.053,2.505,0.713,-0.17,2.005,0.959,6.046,7.65,0.1002,0.0303,,,No,0.9416,0.9496,0.9891,No,Cruise
Environment_1,CM,45.766,0.517,41.217,0.087,2.488,0.579,-0.069,0.128,1.009,6.272,7.685,0.097,0.0527,,,No,0.954,0.9632,0.9753,No,Cruise
Environment_1,CM,45.766,0.517,41.217,0.076,2.493,1.045,0.016,0.917,1.022,5.995,7.734,0.1216,0.0812,,,No,0.9361,0.9496,0.9942,No,Cruise
Environment_1,CM,45.803,0.517,41.253,0.136,2.499,0.499,0.114,0.627,0.977,6.111,7.546,0.0816,0.0697,,,No,0.9445,0.951,0.9873,No,Cruise
Environment_1,CM,45.882,0.517,41.328,0.06,2.506,0.551,0.078,1.388,0.945,6.184,7.589,0.0564,0.0153,,,No,0.9588,0.9612,0.9753,No,Cruise
Environment_1,CM,46.089,0.517,41.534,0.097,2.504,1.094,0.24,0.421,0.995,5.949,7.568,0.0666,0.1004,,,No,0.9452,0.9521,0.9919,No,Cruise
Environment_1,CM,46.213,0.517,41.655,0.11,2.509,0.484,-0.054,0.888,0.978,6.094,7.49,0.0969,0.0858,,,No,0.9333,0.9424,0.9903,No,Cruise
Environment_1,CM,46.245,0.517,41.686,0.103,2.466,0.555,-0.328,-0.204,0.971,6.111,7.495,0.0375,0.1161,,,No,0.9463,0.9605,0.9572,No,Cruise
Environment_1,CM,46.248,0.517,41.689,0.057,2.541,0.887,0.067,1.549,1.013,6.078,7.269,0.0859,0.1384,,,No,0.9267,0.9556,1.0032,No,Cruise
