Environment,Lighting,Timestamp_s,Wind_mps,Pos_X_m,Pos_Y_m,Altitude_m,Roll_deg,Pitch_deg,Yaw_deg,Velocity_mps,Depth_Min_m,Depth_Mean_m,Lateral_Error_m,Corridor_Center_Error_m,Obstacle_Type,Obstacle_Distance_m,AGSS_Activated,CAMR_Confidence,SACR_Score,Path_Clear_Probability,Collision,Mission_State
Environment_1,CM,0.0,0.517,3.092,0.073,2.502,0.211,-0.014,-0.315,0.999,6.181,7.639,0.0,0.0,,,No,0.9523,0.9739,0.9885,No,Cruise
Environment_1,CM,0.0,0.517,1.185,0.051,2.504,0.186,0.176,0.688,1.006,6.165,7.912,0.0,0.0,,,No,0.9601,0.9844,0.9928,No,Cruise
Environment_1,CM,1.642,0.517,0.824,0.007,2.497,0.31,-0.118,-0.055,1.002,6.28,7.858,0.0,0.0049,,,No,0.9655,0.9826,0.9851,No,Cruise
Environment_1,CM,2.826,0.517,3.369,0.003,2.49,-0.245,-0.205,0.506,1.017,6.243,7.971,0.0,0.0393,,,No,0.9684,0.9725,0.9916,No,Cruise
Environment_1,CM,0.868,0.517,2.294,0.006,2.519,0.122,0.198,0.699,0.94,6.17,8.013,0.0,0.0566,,,No,0.961,0.975,0.9848,No,Cruise
Environment_1,CM,1.698,0.517,4.45,-0.01,2.501,0.116,0.171,0.998,1.007,6.298,8.0,0.0188,0.0292,,,No,0.9707,0.9668,0.9826,No,Cruise
Environment_1,CM,2.182,0.517,4.239,-0.041,2.478,0.212,-0.451,-0.54,1.039,6.226,7.754,0.0061,0.0502,,,No,0.9621,0.9697,0.979,No,Cruise
Environment_1,CM,0.0,0.517,5.588,-0.021,2.511,0.39,0.162,0.427,0.994,6.189,7.632,0.0186,0.0913,,,No,0.9637,0.9785,0.9804,No,Cruise
Environment_1,CM,0.0,0.517,7.813,0.059,2.511,-0.574,0.172,0.512,1.008,6.168,7.681,0.0324,0.0644,,,No,0.9595,0.9804,0.9886,No,Cruise
Environment_1,CM,0.648,0.517,2.701,0.096,2.502,0.052,0.042,0.467,0.984,6.259,7.646,0.0506,0.0754,,,No,0.9588,0.9741,0.9846,No,Cruise
Environment_1,CM,1.759,0.517,3.02,0.078,2.486,0.042,-0.075,0.258,0.962,6.207,7.735,0.0,0.0602,,,No,0.951,0.9658,0.9929,No,Cruise
Environment_1,CM,2.707,0.517,3.755,0.045,2.517,0.108,0.209,0.432,0.953,6.198,7.76,0.0384,0.0766,,,No,0.947,0.9622,0.9957,No,Cruise
Environment_1,CM,3.88,0.517,2.347,0.089,2.497,0.409,-0.179,1.896,1.023,6.05,7.602,0.0637,0.0588,,,No,0.9499,0.9507,0.9911,No,Cruise
Environment_1,CM,6.2,0.517,3.05,0.076,2.486,0.628,0.142,1.484,1.014,6.207,7.642,0.0686,0.0437,,,No,0.9555,0.9594,0.9932,No,Cruise
Environment_1,CM,4.487,0.517,0.402,0.051,2.49,0.589,0.105,0.489,0.973,6.17,7.703,0.0683,0.0543,,,No,0.9479,0.9703,0.9875,No,Cruise
Environment_1,CM,3.059,0.517,-0.476,0.034,2.482,-0.116,0.084,1.619,1.044,6.177,7.836,0.0693,0.0089,,,No,0.95,0.9682,0.9969,No,Cruise
Environment_1,CM,3.393,0.517,-0.538,0.018,2.518,0.498,0.071,0.365,0.997,6.235,7.75,0.0415,0.0,,,No,0.9493,0.978,0.988,No,Cruise
Environment_1,CM,1.931,0.517,0.838,0.056,2.511,0.241,0.325,-0.844,1.003,6.055,7.675,0.0866,0.0142,,,No,0.9573,0.9706,0.9856,No,Cruise
Environment_1,CM,4.619,0.517,2.828,0.055,2.507,0.275,-0.397,1.251,1.019,6.378,7.723,0.0637,0.0388,,,No,0.9482,0.9752,0.9778,No,Cruise
Environment_1,CM,0.27,0.517,4.082,0.083,2.521,-0.057,-0.072,0.627,0.985,6.232,7.624,0.075,0.0175,,,No,0.9501,0.9751,0.9863,No,Cruise
Environment_1,CM,1.678,0.517,3.592,0.036,2.502,0.474,0.158,1.48,1.008,6.167,7.52,0.0612,0.0475,,,No,0.9476,0.9663,0.9918,No,Cruise
Environment_1,CM,4.168,0.517,3.017,0.039,2.502,0.429,0.07,-0.098,0.998,6.356,7.754,0.0786,0.0285,,,No,0.9443,0.973,0.9954,No,Cruise
Environment_1,CM,5.256,0.517,2.301,-0.003,2.498,0.027,-0.067,-0.989,0.987,6.254,7.597,0.0699,0.0617,,,No,0.9414,0.9749,0.9911,No,Cruise
Environment_1,CM,3.102,0.517,-0.07,0.028,2.528,0.342,0.257,0.242,0.988,6.185,7.547,0.0657,0.055,,,No,0.9499,0.9701,0.9888,No,Cruise
Environment_1,CM,3.692,0.517,-0.015,0.006,2.508,-0.182,-0.339,0.61,0.999,6.196,7.699,0.0796,0.0634,,,No,0.9542,0.9731,0.9944,No,Cruise
Environment_1,CM,5.286,0.517,2.05,0.014,2.514,-0.271,-0.036,1.556,1.001,6.202,7.476,0.0868,0.0617,,,No,0.9605,0.9749,0.9973,No,Cruise
Environment_1,CM,6.714,0.517,1.064,0.066,2.511,0.379,0.358,1.79,0.993,6.281,7.634,0.0587,0.0721,,,No,0.9675,0.9801,0.9934,No,Cruise
Environment_1,CM,4.528,0.517,3.092,0.063,2.506,0.081,-0.048,-0.044,1.011,6.069,7.775,0.0267,0.0245,,,No,0.9697,0.9808,0.9831,No,Cruise
Environment_1,CM,5.214,0.517,3.512,0.107,2.495,0.331,0.005,0.951,0.973,6.046,7.682,0.074,0.0488,,,No,0.9682,0.9689,0.9703,No,Cruise
Environment_1,CM,2.595,0.517,2.406,0.083,2.496,0.679,0.105,-0.134,0.994,6.338,7.797,0.0317,0.0791,,,No,0.9738,0.9711,0.9576,No,Cruise
Environment_1,CM,1.248,0.517,2.047,0.105,2.527,0.575,0.129,2.559,0.994,6.16,7.523,0.0599,0.1493,,,No,0.9608,0.9772,0.9797,No,Cruise
Environment_1,CM,3.079,0.517,1.016,0.126,2.502,-0.381,-0.127,1.168,1.018,6.038,7.291,0.0497,0.1023,,,No,0.9587,0.9622,0.9992,No,Cruise
Environment_1,CM,2.567,0.517,1.777,0.064,2.467,-0.235,0.298,0.399,0.993,6.066,7.41,0.0391,0.0873,,,No,0.9546,0.9744,0.9903,No,Cruise
Environment_1,CM,0.746,0.517,3.015,0.068,2.5,0.251,0.101,0.133,0.981,6.242,7.397,0.0472,0.0935,,,No,0.9645,0.9764,0.9943,No,Cruise
Environment_1,CM,0.832,0.517,3.969,0.055,2.49,0.164,-0.229,-0.105,1.009,6.191,7.681,0.0397,0.1116,,,No,0.9595,0.9759,0.9823,No,Cruise
Environment_1,CM,4.877,0.517,3.106,0.078,2.5,0.457,0.044,0.428,0.962,6.141,7.492,0.058,0.0986,,,No,0.9616,0.9849,0.9675,No,Cruise
Environment_1,CM,6.994,0.517,4.366,0.032,2.505,0.146,0.591,1.696,0.956,6.13,7.312,0.0598,0.0893,,,No,0.9722,0.964,0.9808,No,Cruise
Environment_1,CM,6.791,0.517,4.52,-0.008,2.517,0.603,-0.27,0.229,0.973,5.912,7.419,0.0335,0.0352,,,No,0.9636,0.9639,0.9726,No,Cruise
Environment_1,CM,3.722,0.517,5.593,0.057,2.504,0.811,-0.016,0.91,1.037,6.002,7.445,0.0926,0.1016,,,No,0.98,0.9672,0.9749,No,Cruise
Environment_1,CM,2.716,0.517,3.961,0.042,2.537,0.667,0.176,1.803,0.981,6.117,7.386,0.0837,0.0953,,,No,0.9541,0.9716,0.9877,No,Cruise
Environment_1,CM,3.752,0.517,5.785,-0.003,2.508,0.749,-0.123,0.512,1.012,5.964,7.17,0.0723,0.0754,,,No,0.9601,0.9604,1.005,No,Cruise
Environment_1,CM,4.11,0.517,3.037,0.022,2.523,0.601,0.256,-0.215,0.994,6.067,7.185,0.0768,0.0898,,,No,0.9576,0.9659,0.9957,No,Cruise
Environment_1,CM,6.774,0.517,3.161,0.036,2.513,-0.016,-0.088,1.489,1.007,6.191,7.501,0.0702,0.0977,,,No,0.9607,0.97,0.9833,No,Cruise
Environment_1,CM,2.45,0.517,6.127,0.088,2.497,0.035,0.045,1.707,1.002,6.16,7.35,0.0689,0.0805,,,No,0.9623,0.9669,0.9838,No,Cruise
Environment_1,CM,6.649,0.517,5.747,0.061,2.488,0.779,-0.163,1.791,1.016,6.09,7.485,0.1052,0.0887,,,No,0.9707,0.9683,0.9757,No,Cruise
Environment_1,CM,8.907,0.517,7.724,0.077,2.494,1.011,-0.041,1.838,0.995,6.048,7.577,0.112,0.1057,,,No,0.971,0.9744,0.9798,No,Cruise
Environment_1,CM,11.4,0.517,7.147,0.088,2.505,0.367,-0.12,1.132,1.02,6.055,7.479,0.1227,0.1148,,,No,0.9579,0.9762,0.9923,No,Cruise
Environment_1,CM,8.543,0.517,4.511,0.129,2.509,0.765,0.082,2.002,0.983,5.966,7.469,0.1143,0.1065,,,No,0.9555,0.9737,0.9875,No,Cruise
Environment_1,CM,7.19,0.517,2.953,0.063,2.498,0.203,0.148,1.398,0.988,6.002,7.389,0.0693,0.1252,,,No,0.9605,0.9781,1.0025,No,Cruise
Environment_1,CM,10.308,0.517,6.111,0.132,2.522,0.506,0.05,1.519,1.04,6.083,7.697,0.0911,0.1536,,,No,0.9624,0.9754,1.0006,No,Cruise
Environment_1,CM,9.451,0.517,5.736,0.095,2.505,0.514,-0.22,0.813,0.991,6.271,7.596,0.1153,0.1126,,,No,0.9707,0.9651,0.9848,No,Cruise
Environment_1,CM,9.334,0.517,3.86,0.09,2.525,0.726,-0.208,1.546,0.998,6.069,7.454,0.1228,0.0951,,,No,0.9712,0.9686,0.992,No,Cruise
Environment_1,CM,6.216,0.517,5.881,0.107,2.496,0.111,-0.042,1.213,0.97,5.877,7.405,0.1122,0.0945,,,No,0.9589,0.9689,1.006,No,Cruise
Environment_1,CM,5.956,0.517,7.21,0.123,2.5,0.864,0.105,1.954,0.998,5.903,7.514,0.1191,0.1284,,,No,0.9621,0.9645,1.0082,No,Cruise
Environment_1,CM,5.745,0.517,5.241,0.107,2.511,0.371,0.142,0.745,0.991,6.009,7.71,0.1322,0.1151,,,No,0.9793,0.972,0.9984,No,Cruise
Environment_1,CM,4.894,0.517,6.921,0.117,2.519,0.544,0.056,3.009,1.014,5.888,7.695,0.121,0.0892,,,No,0.9715,0.9621,0.9999,No,Cruise
Environment_1,CM,2.604,0.517,5.322,0.146,2.51,0.762,-0.134,2.217,0.996,6.016,7.496,0.0828,0.0667,,,No,0.975,0.9672,1.0086,No,Cruise
Environment_1,CM,4.718,0.517,10.191,0.14,2.522,0.485,0.04,2.113,0.971,6.059,7.623,0.0919,0.074,,,No,0.9757,0.9595,1.0021,No,Cruise
Environment_1,CM,6.27,0.517,6.669,0.158,2.489,-0.052,-0.004,1.922,1.011,6.092,7.509,0.0926,0.096,,,No,0.9788,0.962,0.9904,No,Cruise
Environment_1,CM,3.553,0.517,7.31,0.194,2.489,0.744,0.122,1.854,0.984,6.041,7.569,0.1188,0.0764,,,No,0.9743,0.9695,0.9925,No,Cruise
Environment_1,CM,5.315,0.517,7.452,0.161,2.517,0.55,-0.158,1.714,1.034,6.091,7.59,0.105,0.1078,,,No,0.9744,0.9629,0.9834,No,Cruise
Environment_1,CM,6.526,0.517,4.502,0.13,2.501,0.874,-0.182,2.013,0.988,6.209,7.503,0.0939,0.1113,,,No,0.9671,0.958,0.9787,No,Cruise
Environment_1,CM,9.26,0.517,4.02,0.106,2.502,0.008,0.357,2.087,1.02,6.101,7.488,0.0891,0.1274,,,No,0.9748,0.9561,0.9751,No,Cruise
Environment_1,CM,8.371,0.517,2.975,0.126,2.505,0.618,-0.225,1.469,0.972,6.169,7.411,0.0826,0.1181,,,No,0.9767,0.9798,0.9761,No,Cruise
Environment_1,CM,8.397,0.517,4.696,0.105,2.511,0.386,0.102,2.668,1.027,6.161,7.259,0.1084,0.12,,,No,0.9657,0.9586,0.9856,No,Cruise
Environment_1,CM,8.626,0.517,6.722,0.115,2.493,0.781,-0.188,2.363,0.983,6.281,7.528,0.0992,0.1019,,,No,0.9566,0.9626,0.9846,No,Cruise
Environment_1,CM,7.536,0.517,6.686,0.111,2.489,1.01,0.055,1.816,1.01,6.131,7.409,0.0992,0.1203,,,No,0.9652,0.9595,0.9788,No,Cruise
Environment_1,CM,7.046,0.517,9.399,0.095,2.516,0.868,-0.092,1.623,0.985,6.082,7.627,0.0857,0.1127,,,No,0.9668,0.966,0.9779,No,Cruise
Environment_1,CM,7.469,0.517,8.189,0.105,2.495,0.248,0.09,2.473,0.966,6.142,7.614,0.1351,0.1404,,,No,0.9691,0.9725,0.9923,No,Cruise
Environment_1,CM,8.694,0.517,8.971,0.151,2.501,0.948,0.325,1.852,0.992,6.164,7.644,0.0936,0.1185,,,No,0.9759,0.9601,0.9822,No,Cruise
Environment_1,CM,9.427,0.517,8.506,0.13,2.527,0.693,0.418,1.217,1.0,6.17,7.646,0.1173,0.0937,,,No,0.9607,0.9591,0.9907,No,Cruise
Environment_1,CM,8.979,0.517,7.775,0.178,2.495,0.562,-0.012,0.382,1.023,6.013,7.617,0.1405,0.1147,,,No,0.9707,0.9617,0.9875,No,Cruise
Environment_1,CM,10.692,0.517,7.805,0.134,2.505,0.904,0.154,1.538,0.984,6.062,7.508,0.104,0.0667,,,No,0.9601,0.9698,0.9973,No,Cruise
Environment_1,CM,11.544,0.517,3.879,0.125,2.489,0.7,-0.209,1.864,0.979,5.871,7.492,0.0964,0.0949,,,No,0.9638,0.9685,0.9925,No,Cruise
Environment_1,CM,8.376,0.517,4.426,0.113,2.511,0.314,-0.003,0.875,0.978,6.093,7.589,0.0992,0.0801,,,No,0.9495,0.9679,0.9928,No,Cruise
Environment_1,CM,5.833,0.517,6.387,0.144,2.506,0.831,-0.069,2.672,1.01,6.141,7.308,0.1067,0.0675,,,No,0.9618,0.9664,0.9952,No,Cruise
Environment_1,CM,10.673,0.517,6.055,0.129,2.521,0.212,-0.053,0.933,0.989,6.083,7.442,0.1069,0.0539,,,No,0.9466,0.9748,1.0024,No,Cruise
Environment_1,CM,8.616,0.517,5.089,0.146,2.515,0.073,-0.072,-0.077,1.003,6.211,7.527,0.1437,0.1079,,,No,0.9605,0.9668,1.0008,No,Cruise
Environment_1,CM,7.172,0.517,4.678,0.146,2.488,0.771,0.084,0.746,1.016,6.162,7.508,0.1109,0.0884,,,No,0.9537,0.9727,0.9955,No,Cruise
Environment_1,CM,10.137,0.517,5.201,0.171,2.457,0.866,-0.095,1.795,0.979,5.973,7.619,0.1565,0.0757,,,No,0.9588,0.9708,1.0022,No,Cruise
Environment_1,CM,8.911,0.517,5.597,0.168,2.503,1.128,-0.351,0.191,1.009,5.982,7.526,0.1682,0.0429,,,No,0.9569,0.966,0.9972,No,Cruise
Environment_1,CM,9.481,0.517,7.256,0.212,2.499,1.018,0.045,2.634,1.024,6.008,7.483,0.1539,0.0474,,,No,0.9489,0.9716,0.9947,No,Cruise
Environment_1,CM,5.117,0.517,7.728,0.175,2.489,0.458,0.132,3.15,0.998,5.862,7.451,0.1391,0.0652,,,No,0.9719,0.9747,0.9893,No,Cruise
Environment_1,CM,7.688,0.517,9.291,0.168,2.525,0.622,-0.067,2.772,1.002,5.769,7.388,0.1063,0.0833,,,No,0.9658,0.9712,0.9781,No,Cruise
Environment_1,CM,9.003,0.517,6.366,0.085,2.492,0.508,-0.235,2.375,0.987,5.813,7.495,0.1201,0.0701,,,No,0.9656,0.9682,0.9847,No,Cruise
Environment_1,CM,7.204,0.517,9.302,0.078,2.488,0.926,0.112,1.511,1.017,5.876,7.348,0.1253,0.0739,,,No,0.9589,0.9628,0.9818,No,Cruise
Environment_1,CM,6.797,0.517,11.045,0.101,2.52,0.35,-0.068,2.934,1.0,5.922,7.341,0.1229,0.0869,,,No,0.97,0.9677,0.9788,No,Cruise
Environment_1,CM,8.432,0.517,14.464,0.135,2.507,0.254,0.169,3.793,1.017,6.049,7.386,0.1633,0.1144,,,No,0.9733,0.957,0.9942,No,Cruise
Environment_1,CM,8.875,0.517,9.82,0.171,2.515,0.813,0.03,3.764,1.01,6.025,7.378,0.1744,0.1126,,,No,0.9721,0.9624,0.9885,No,Cruise
Environment_1,CM,10.156,0.517,10.501,0.123,2.464,1.037,0.011,3.375,0.98,5.978,7.425,0.1465,0.1383,,,No,0.9668,0.9643,0.9859,No,Cruise
Environment_1,CM,12.241,0.517,8.912,0.123,2.494,0.963,0.302,0.893,0.964,6.189,7.514,0.1289,0.1084,,,No,0.9556,0.9652,0.9913,No,Cruise
Environment_1,CM,9.877,0.517,8.837,0.105,2.503,0.567,-0.162,2.15,1.026,6.095,7.557,0.1379,0.0955,,,No,0.9587,0.9743,0.9884,No,Cruise
Environment_1,CM,11.255,0.517,5.1,0.107,2.493,0.854,0.025,1.774,0.979,6.251,7.544,0.1182,0.1176,,,No,0.9677,0.9683,0.9826,No,Cruise
Environment_1,CM,12.37,0.517,6.759,0.113,2.516,0.762,0.103,2.27,1.026,6.267,7.756,0.115,0.0926,,,No,0.9583,0.97,0.9855,No,Cruise
Environment_1,CM,10.849,0.517,6.39,0.108,2.494,0.881,-0.053,1.832,1.005,6.347,7.69,0.1171,0.0761,,,No,0.9618,0.9551,0.9904,No,Cruise
Environment_1,CM,10.776,0.517,7.931,0.105,2.516,0.461,0.023,0.78,1.006,6.109,7.633,0.111,0.084,,,No,0.965,0.9563,0.9884,No,Cruise
Environment_1,CM,7.537,0.517,7.492,0.138,2.489,0.872,-0.4,1.219,0.992,6.208,7.781,0.147,0.1104,,,No,0.9615,0.9616,0.9992,No,Cruise
Environment_1,CM,8.079,0.517,7.43,0.137,2.495,0.814,-0.057,2.345,1.027,6.209,7.722,0.1287,0.1096,,,No,0.968,0.963,1.0031,No,Cruise
Environment_1,CM,10.704,0.517,8.023,0.143,2.483,0.385,-0.091,2.514,1.028,5.83,7.314,0.1494,0.1115,,,No,0.9624,0.9627,0.9979,No,Cruise
Environment_1,CM,15.862,0.517,8.883,0.128,2.526,0.644,-0.15,1.175,0.986,5.995,7.466,0.1316,0.1369,,,No,0.955,0.9649,0.9994,No,Cruise
Environment_1,CM,10.558,0.517,12.18,0.132,2.509,0.282,-0.105,1.623,1.003,5.936,7.483,0.155,0.1351,,,No,0.9604,0.9617,0.9966,No,Cruise
Environment_1,CM,11.51,0.517,10.692,0.17,2.51,0.459,-0.047,2.119,1.0,5.99,7.388,0.1281,0.0977,,,No,0.9613,0.9584,0.9985,No,Cruise
Environment_1,CM,10.4,0.517,7.393,0.128,2.525,0.506,0.095,2.201,0.979,6.032,7.497,0.1339,0.1117,,,No,0.9587,0.9675,0.9929,No,Cruise
Environment_1,CM,7.516,0.517,10.225,0.127,2.494,1.033,-0.282,2.707,1.008,6.12,7.605,0.1473,0.1294,,,No,0.9652,0.9594,0.9903,No,Cruise
Environment_1,CM,8.88,0.517,10.186,0.13,2.531,0.468,0.213,1.126,1.0,6.215,7.54,0.1506,0.1553,,,No,0.9577,0.9596,0.993,No,Cruise
Environment_1,CM,7.009,0.517,9.563,0.113,2.53,0.828,-0.147,1.27,1.006,6.23,7.66,0.1173,0.1217,,,No,0.9699,0.9552,0.9914,No,Cruise
Environment_1,CM,6.365,0.517,7.992,0.149,2.497,1.351,0.003,2.077,1.0,6.169,7.375,0.1598,0.131,,,No,0.9691,0.9495,0.9989,No,Cruise
Environment_1,CM,6.542,0.517,10.077,0.15,2.486,0.636,0.196,1.994,0.96,5.982,7.361,0.1427,0.1531,,,No,0.962,0.9612,1.0049,No,Cruise
Environment_1,CM,7.887,0.517,7.895,0.128,2.51,1.059,-0.049,0.669,0.973,6.039,7.702,0.1068,0.1728,,,No,0.9493,0.9489,0.9873,No,Cruise
Environment_1,CM,10.582,0.517,10.636,0.154,2.509,1.037,-0.221,1.036,0.986,6.096,7.723,0.1095,0.1551,,,No,0.9487,0.9552,0.9787,No,Cruise
Environment_1,CM,8.78,0.517,11.756,0.148,2.509,1.132,-0.061,0.698,1.006,6.221,7.581,0.0994,0.102,,,No,0.9585,0.9514,0.9767,No,Cruise
Environment_1,CM,14.45,0.517,9.234,0.155,2.488,1.103,0.288,0.514,1.004,5.962,7.565,0.0852,0.083,,,No,0.9485,0.9466,0.9845,No,Cruise
Environment_1,CM,11.162,0.517,11.044,0.146,2.507,0.781,0.262,1.948,1.021,5.907,7.48,0.1099,0.0828,,,No,0.9594,0.9467,0.9934,No,Cruise
Environment_1,CM,11.405,0.517,12.258,0.147,2.517,0.564,0.374,1.093,0.988,6.198,7.407,0.0968,0.0485,,,No,0.9499,0.9608,0.9907,No,Cruise
Environment_1,CM,14.526,0.517,10.46,0.118,2.49,0.787,0.086,0.696,0.986,6.035,7.334,0.0963,0.0394,,,No,0.9689,0.9654,0.9822,No,Cruise
Environment_1,CM,12.318,0.517,10.479,0.154,2.506,0.537,0.032,2.353,1.0,6.065,7.588,0.0967,0.0639,,,No,0.9662,0.961,0.9861,No,Cruise
Environment_1,CM,10.349,0.517,13.709,0.168,2.486,0.813,0.08,2.128,1.005,6.057,7.676,0.0855,0.1027,,,No,0.9579,0.9501,0.9886,No,Cruise
Environment_1,CM,12.674,0.517,11.428,0.124,2.487,0.662,0.111,1.114,0.984,6.006,7.623,0.0865,0.1187,,,No,0.9482,0.9461,0.9917,No,Cruise
Environment_1,CM,15.279,0.517,12.55,0.078,2.509,0.572,-0.097,2.106,1.026,6.211,7.659,0.1002,0.1168,,,No,0.9507,0.9618,0.9789,No,Cruise
Environment_1,CM,12.072,0.517,12.227,0.102,2.515,0.672,0.03,1.677,0.993,6.04,7.507,0.0682,0.1232,,,No,0.9569,0.9528,0.9788,No,Cruise
Environment_1,CM,14.2,0.517,14.152,0.12,2.51,0.846,0.197,1.277,1.005,5.923,7.614,0.0689,0.0954,,,No,0.9576,0.9504,0.9869,No,Cruise
Environment_1,CM,14.304,0.517,12.351,0.117,2.505,0.342,-0.097,1.505,0.998,6.22,7.577,0.0933,0.0827,,,No,0.9445,0.9576,0.9999,No,Cruise
Environment_1,CM,13.132,0.517,9.504,0.133,2.519,0.21,-0.075,1.59,0.971,5.938,7.495,0.136,0.1313,,,No,0.9576,0.9586,1.0051,No,Cruise
Environment_1,CM,14.838,0.517,12.547,0.141,2.508,0.672,0.099,2.28,0.994,5.85,7.72,0.1013,0.0934,,,No,0.963,0.951,1.005,No,Cruise
Environment_1,CM,15.633,0.517,9.5,0.085,2.507,0.316,-0.237,1.895,0.975,5.84,7.427,0.085,0.1448,,,No,0.9567,0.9562,0.9913,No,Cruise
Environment_1,CM,13.786,0.517,6.35,0.068,2.508,0.36,0.012,1.339,1.043,6.034,7.272,0.0997,0.1105,,,No,0.9585,0.9554,0.9967,No,Cruise
Environment_1,CM,11.596,0.517,7.994,0.048,2.49,0.449,0.138,0.934,0.994,6.388,7.428,0.0943,0.1262,,,No,0.9571,0.9663,0.9942,No,Cruise
Environment_1,CM,11.078,0.517,13.095,0.061,2.505,0.238,0.376,0.933,0.978,6.184,7.345,0.1049,0.1126,,,No,0.9538,0.9626,0.9919,No,Cruise
Environment_1,CM,13.766,0.517,12.286,0.101,2.527,0.367,0.259,1.203,0.968,6.188,7.426,0.1204,0.1191,,,No,0.946,0.9643,0.9901,No,Cruise
Environment_1,CM,16.029,0.517,11.987,0.05,2.491,0.421,0.099,1.28,1.01,6.237,7.668,0.1123,0.1244,,,No,0.9491,0.9605,0.9946,No,Cruise
Environment_1,CM,13.933,0.517,8.45,0.088,2.484,1.015,-0.26,0.977,1.009,6.148,7.551,0.1199,0.1049,,,No,0.9565,0.9601,0.9947,No,Cruise
Environment_1,CM,12.814,0.517,12.981,0.095,2.485,0.391,-0.199,0.807,1.0,6.151,7.538,0.1174,0.038,,,No,0.9523,0.9539,0.988,No,Cruise
Environment_1,CM,10.06,0.517,11.662,0.086,2.472,0.387,-0.021,1.681,0.994,6.215,7.705,0.131,0.0528,,,No,0.9589,0.9593,0.9912,No,Cruise
Environment_1,CM,12.146,0.517,12.129,0.091,2.495,0.724,-0.369,1.654,0.973,6.085,7.619,0.1078,0.103,,,No,0.9602,0.9614,0.9891,No,Cruise
Environment_1,CM,13.55,0.517,12.516,0.089,2.487,0.798,-0.088,0.277,1.001,6.002,7.477,0.0817,0.0711,,,No,0.9616,0.9601,0.9821,No,Cruise
Environment_1,CM,12.334,0.517,13.904,0.078,2.501,0.456,0.158,0.095,1.007,6.043,7.538,0.0916,0.0531,,,No,0.966,0.956,0.9896,No,Cruise
Environment_1,CM,14.331,0.517,12.556,0.091,2.52,0.48,0.185,0.844,0.971,6.119,7.691,0.1136,0.0567,,,No,0.9591,0.9544,0.9884,No,Cruise
Environment_1,CM,13.365,0.517,14.667,0.115,2.491,0.677,0.237,1.574,1.018,6.081,7.319,0.1223,0.0777,,,No,0.961,0.9574,0.9903,No,Cruise
Environment_1,CM,14.246,0.517,12.598,0.158,2.529,0.643,0.037,0.3,1.013,6.028,7.679,0.0809,0.0736,,,No,0.9592,0.9502,0.9869,No,Cruise
Environment_1,CM,12.385,0.517,10.704,0.164,2.504,0.943,-0.021,0.485,0.995,6.17,7.77,0.0618,0.0835,,,No,0.9571,0.953,0.984,No,Cruise
Environment_1,CM,15.173,0.517,10.512,0.104,2.493,0.798,0.127,-0.58,1.007,6.231,7.794,0.0521,0.0708,,,No,0.9555,0.9653,0.9724,No,Cruise
Environment_1,CM,13.604,0.517,12.822,0.066,2.48,0.353,-0.023,1.07,1.005,6.255,7.468,0.0685,0.1072,,,No,0.9512,0.9527,0.9724,No,Cruise
Environment_1,CM,13.707,0.517,13.036,0.066,2.5,0.81,0.193,2.142,1.021,6.038,7.51,0.0699,0.0748,,,No,0.964,0.9617,0.9784,No,Cruise
Environment_1,CM,13.524,0.517,13.826,0.092,2.5,0.004,-0.257,-0.254,1.004,5.951,7.538,0.0583,0.0772,,,No,0.9512,0.9581,0.9723,No,Cruise
Environment_1,CM,17.308,0.517,13.592,0.094,2.508,1.079,0.087,0.176,0.967,6.072,7.534,0.1085,0.0509,,,No,0.9468,0.9592,0.9964,No,Cruise
Environment_1,CM,17.779,0.517,16.775,0.068,2.483,1.013,-0.127,1.332,0.997,6.119,7.623,0.1138,0.0666,,,No,0.9621,0.958,0.9953,No,Cruise
Environment_1,CM,17.247,0.517,17.598,0.124,2.513,0.566,0.209,1.965,0.999,6.357,7.621,0.1203,0.0474,,,No,0.952,0.9534,0.9897,No,Cruise
Environment_1,CM,13.506,0.517,19.586,0.107,2.488,0.713,-0.381,1.845,1.0,6.228,7.785,0.0915,0.0538,,,No,0.9531,0.9515,0.9894,No,Cruise
Environment_1,CM,15.146,0.517,18.548,0.062,2.495,0.88,0.221,0.719,0.989,6.296,7.584,0.1095,0.0845,,,No,0.9472,0.9521,0.9756,No,Cruise
Environment_1,CM,15.141,0.517,19.908,0.084,2.488,0.768,0.121,1.827,0.981,6.099,7.635,0.1032,0.0832,,,No,0.9431,0.9566,0.9798,No,Cruise
Environment_1,CM,18.029,0.517,15.357,0.054,2.508,-0.085,0.403,0.735,1.008,6.148,7.486,0.0839,0.0575,,,No,0.9555,0.9618,0.9902,No,Cruise
Environment_1,CM,17.099,0.517,16.068,0.089,2.483,0.172,-0.058,0.552,0.999,6.121,7.669,0.0973,0.0222,,,No,0.96,0.9604,0.9998,No,Cruise
Environment_1,CM,15.693,0.517,17.154,0.096,2.507,0.995,0.435,1.718,1.001,6.161,7.56,0.0878,0.0,,,No,0.9566,0.9541,0.9785,No,Cruise
Environment_1,CM,15.767,0.517,16.429,0.074,2.484,-0.077,0.253,1.937,0.994,6.002,7.439,0.1239,0.0146,,,No,0.9603,0.9511,0.9844,No,Cruise
Environment_1,CM,15.233,0.517,12.795,0.073,2.487,0.494,-0.168,2.164,1.027,5.972,7.53,0.1155,0.0115,,,No,0.9531,0.9506,0.991,No,Cruise
Environment_1,CM,15.167,0.517,14.706,0.047,2.504,0.392,-0.43,1.217,1.004,6.06,7.331,0.104,0.037,,,No,0.957,0.9539,0.9924,No,Cruise
Environment_1,CM,17.137,0.517,15.09,0.023,2.514,-0.035,-0.037,0.366,1.012,6.131,7.538,0.0925,0.0508,,,No,0.9599,0.9459,0.9984,No,Cruise
Environment_1,CM,15.784,0.517,15.375,0.022,2.49,0.851,-0.084,0.109,0.96,6.178,7.512,0.088,0.0952,,,No,0.9555,0.9547,1.0007,No,Cruise
Environment_1,CM,17.772,0.517,17.664,0.056,2.497,0.435,0.109,0.313,1.001,6.278,7.745,0.0635,0.0832,,,No,0.9569,0.9513,0.9923,No,Cruise
Environment_1,CM,16.401,0.517,18.08,0.042,2.477,-0.176,0.294,-0.201,0.951,6.188,7.618,0.053,0.0114,,,No,0.9538,0.9524,0.9953,No,Cruise
Environment_1,CM,17.016,0.517,17.643,0.083,2.512,0.097,-0.122,1.558,1.02,6.301,7.68,0.0927,0.0297,,,No,0.9543,0.9539,0.992,No,Cruise
Environment_1,CM,21.497,0.517,18.437,0.087,2.484,0.015,0.378,1.015,0.985,6.386,7.702,0.0652,0.0,,,No,0.9477,0.9475,0.9937,No,Cruise
Environment_1,CM,18.805,0.517,15.641,0.067,2.497,0.649,-0.187,0.505,0.992,6.31,7.549,0.0673,0.0206,,,No,0.9505,0.9597,0.99,No,Cruise
Environment_1,CM,16.744,0.517,15.361,0.047,2.486,0.023,0.078,2.063,0.979,6.433,7.728,0.0845,0.033,,,No,0.9382,0.9582,0.9964,No,Cruise
Environment_1,CM,17.29,0.517,17.611,0.039,2.498,0.52,-0.034,0.955,0.983,6.372,7.865,0.0786,0.0949,,,No,0.9384,0.9552,0.9913,No,Cruise
Environment_1,CM,19.352,0.517,18.727,0.036,2.492,0.197,-0.032,0.477,1.004,6.38,7.782,0.0596,0.0766,,,No,0.9292,0.9574,0.9799,No,Cruise
Environment_1,CM,18.655,0.517,20.926,0.025,2.516,0.112,-0.242,0.409,1.025,6.358,7.612,0.0272,0.0491,,,No,0.9434,0.9382,0.9819,No,Cruise
Environment_1,CM,16.718,0.517,15.728,0.042,2.511,0.939,0.069,0.344,0.987,6.409,7.886,0.0631,0.0618,,,No,0.9577,0.9424,0.9849,No,Cruise
Environment_1,CM,15.28,0.517,14.414,0.039,2.499,0.614,-0.104,-1.389,1.0,6.402,7.815,0.0361,0.0736,,,No,0.9399,0.9463,0.9868,No,Cruise
Environment_1,CM,14.252,0.517,16.398,0.045,2.499,-0.171,0.091,-0.457,0.998,6.498,7.787,0.033,0.0439,,,No,0.9303,0.9487,0.9924,No,Cruise
Environment_1,CM,14.091,0.517,15.188,0.067,2.517,0.178,0.052,-0.565,0.981,6.365,7.639,0.0115,0.0335,,,No,0.9354,0.9507,0.9905,No,Cruise
Environment_1,CM,14.502,0.517,14.212,0.042,2.476,0.188,0.295,0.597,1.001,6.467,7.815,0.011,0.0612,,,No,0.9385,0.9505,0.9895,No,Cruise
Environment_1,CM,15.787,0.517,14.206,0.041,2.523,-0.114,-0.023,0.376,0.998,6.481,7.631,0.0139,0.0434,,,No,0.9332,0.9589,0.9796,No,Cruise
Environment_1,CM,16.794,0.517,18.025,0.044,2.485,-0.293,-0.058,0.959,1.022,6.531,7.767,0.0138,0.0081,,,No,0.9256,0.9671,0.9857,No,Cruise
Environment_1,CM,18.828,0.517,19.292,0.015,2.518,-0.334,0.08,0.891,1.019,6.393,7.61,0.0505,0.0333,,,No,0.9418,0.9534,0.9795,No,Cruise
Environment_1,CM,16.633,0.517,16.456,0.042,2.493,0.355,-0.034,-0.663,0.991,6.269,7.647,0.0557,0.0371,,,No,0.9425,0.9476,0.9696,No,Cruise
Environment_1,CM,16.413,0.517,18.04,0.063,2.482,-0.36,-0.015,1.099,1.014,6.307,7.726,0.0362,0.0372,,,No,0.9462,0.9499,0.9686,No,Cruise
Environment_1,CM,17.095,0.517,17.996,0.042,2.474,-0.08,0.071,0.248,1.02,6.143,7.539,0.0349,0.0,,,No,0.9466,0.9601,0.9738,No,Cruise
Environment_1,CM,17.665,0.517,22.654,0.026,2.501,0.269,0.005,0.359,0.998,6.253,7.471,0.0373,0.0728,,,No,0.9508,0.9613,0.9769,No,Cruise
Environment_1,CM,15.613,0.517,18.109,-0.006,2.505,0.207,0.265,1.476,0.99,6.269,7.52,0.0264,0.0405,,,No,0.9543,0.9504,0.9818,No,Cruise
Environment_1,CM,18.504,0.517,17.163,0.061,2.493,-0.124,0.141,1.635,1.026,6.398,7.75,0.0202,0.0,,,No,0.9485,0.9464,0.9813,No,Cruise
Environment_1,CM,16.812,0.517,16.938,0.067,2.503,0.222,-0.396,0.822,0.982,6.321,7.463,0.0508,0.0,,,No,0.9344,0.9278,0.9558,No,Cruise
Environment_1,CM,20.501,0.517,15.121,0.042,2.507,-0.141,0.068,0.213,0.966,6.161,7.247,0.0522,0.053,,,No,0.9274,0.9358,0.9506,No,Cruise
Environment_1,CM,19.446,0.517,12.976,0.064,2.478,0.585,-0.306,0.954,1.013,5.897,7.132,0.0816,0.0216,,,No,0.9243,0.9285,0.9419,No,Cruise
Environment_1,CM,18.814,0.517,15.549,0.077,2.473,0.215,-0.034,1.873,1.014,5.654,7.037,0.0706,0.0313,,,No,0.925,0.9276,0.9436,No,Cruise
Environment_1,CM,19.016,0.517,15.864,0.072,2.498,0.544,-0.046,1.026,1.014,5.74,7.238,0.1078,0.0539,,,No,0.9268,0.935,0.9446,No,Cruise
Environment_1,CM,16.154,0.517,16.644,0.138,2.531,1.162,0.441,1.096,1.004,5.817,7.179,0.1071,0.0511,,,No,0.9317,0.933,0.9426,No,Cruise
Environment_1,CM,17.225,0.517,17.305,0.175,2.48,0.917,0.174,1.002,0.975,5.613,7.014,0.1153,0.0666,,,No,0.9299,0.9317,0.9332,No,Cruise
Environment_1,CM,18.24,0.517,18.341,0.199,2.524,1.092,-0.118,2.9,0.967,5.576,7.006,0.1408,0.0771,,,No,0.9212,0.9375,0.9353,No,Cruise
Environment_1,CM,21.708,0.517,19.508,0.201,2.525,0.987,0.043,1.588,1.008,5.344,6.866,0.1429,0.1271,,,No,0.9064,0.9116,0.9154,No,Cruise
Environment_1,CM,20.828,0.517,16.246,0.197,2.543,0.714,-0.05,2.654,1.027,5.147,6.711,0.1558,0.1871,,,No,0.8962,0.9031,0.9082,No,Cruise
Environment_1,CM,16.862,0.517,17.533,0.215,2.507,1.585,0.173,3.142,1.0,4.835,6.333,0.1733,0.173,,,No,0.8883,0.895,0.8614,No,Cruise
Environment_1,CM,16.408,0.517,17.324,0.284,2.498,1.444,-0.172,3.726,1.016,4.965,6.252,0.2269,0.1726,,,No,0.8976,0.8946,0.8594,No,Cruise
Environment_1,CM,19.319,0.517,15.985,0.255,2.525,1.094,0.179,2.68,0.969,4.797,6.148,0.2648,0.2155,,,No,0.9043,0.9117,0.8629,No,Cruise
Environment_1,CM,17.909,0.517,15.441,0.306,2.491,1.209,0.018,4.689,0.991,4.564,6.068,0.2906,0.2408,,,No,0.8985,0.8902,0.8742,No,Cruise
Environment_1,CM,19.096,0.517,18.662,0.335,2.494,1.371,-0.025,5.196,1.037,4.687,6.196,0.3216,0.2706,,,No,0.888,0.8993,0.8653,No,Cruise
Environment_1,CM,21.875,0.517,18.486,0.373,2.508,1.786,0.19,5.204,1.004,4.225,5.779,0.339,0.2721,Human,,Yes,0.8681,0.8953,0.8077,No,Avoidance
Environment_1,CM,20.566,0.517,20.083,0.438,2.494,2.274,0.061,5.82,0.973,4.096,5.467,0.4318,0.3057,Human,,Yes,0.8555,0.8931,0.8095,No,Avoidance
Environment_1,CM,25.199,0.517,18.711,0.482,2.517,2.362,0.373,6.312,0.993,3.74,5.264,0.4643,0.3346,Human,,Yes,0.8486,0.8952,0.8347,No,Avoidance
Environment_1,CM,23.554,0.517,17.427,0.528,2.485,2.596,0.072,6.033,0.978,3.986,5.407,0.5301,0.3777,Human,,Yes,0.8493,0.895,0.7964,No,Avoidance
Environment_1,CM,25.619,0.517,16.761,0.516,2.507,2.15,0.051,7.95,0.993,3.95,5.363,0.5013,0.3723,Human,,Yes,0.8526,0.8856,0.8068,No,Avoidance
Environment_1,CM,23.011,0.517,18.799,0.527,2.48,3.07,0.152,6.746,0.992,3.708,5.441,0.5377,0.3892,Human,,Yes,0.8445,0.8917,0.8129,No,Avoidance
Environment_1,CM,20.015,0.517,19.716,0.548,2.484,3.404,0.312,7.671,1.007,3.61,5.236,0.5533,0.4616,Human,,Yes,0.853,0.9119,0.8041,No,Avoidance
Environment_1,CM,21.747,0.517,23.762,0.552,2.52,3.242,0.102,7.718,1.031,3.617,5.189,0.6062,0.4305,Human,,Yes,0.8361,0.9102,0.839,No,Avoidance
Environment_1,CM,18.727,0.517,19.3,0.615,2.498,3.058,0.098,8.695,1.006,3.582,5.135,0.618,0.4604,Human,,Yes,0.8378,0.9081,0.8163,No,Avoidance
Environment_1,CM,18.669,0.517,20.403,0.621,2.533,2.651,0.206,7.49,1.015,3.544,5.214,0.6055,0.4399,Human,,Yes,0.8249,0.9237,0.8421,No,Avoidance
Environment_1,CM,21.441,0.517,22.353,0.634,2.51,3.458,-0.075,7.932,0.979,3.648,5.087,0.5953,0.506,Human,,Yes,0.8092,0.9021,0.8256,No,Avoidance
Environment_1,CM,23.26,0.517,19.369,0.684,2.522,3.547,0.206,8.801,0.974,3.526,4.911,0.6717,0.5209,Human,,Yes,0.8163,0.9141,0.8262,No,Avoidance
Environment_1,CM,22.638,0.517,18.954,0.704,2.457,3.875,0.422,8.285,0.997,3.621,5.047,0.6624,0.5039,Human,,Yes,0.812,0.9056,0.83,No,Avoidance
Environment_1,CM,21.308,0.517,18.704,0.7,2.489,3.068,0.389,6.31,0.986,3.488,4.895,0.6662,0.5287,Human,,Yes,0.8057,0.8943,0.8286,No,Avoidance
Environment_1,CM,18.004,0.517,19.574,0.658,2.51,3.45,-0.186,7.947,0.997,3.636,5.193,0.6533,0.4747,Human,,Yes,0.7917,0.9082,0.8517,No,Avoidance
Environment_1,CM,20.91,0.517,21.168,0.686,2.516,3.492,-0.178,8.092,0.992,3.475,5.041,0.6589,0.5204,Human,,Yes,0.8023,0.9058,0.8528,No,Avoidance
Environment_1,CM,22.339,0.517,19.814,0.71,2.531,3.51,0.126,8.691,0.984,3.64,5.131,0.6641,0.4849,Human,,Yes,0.8045,0.9088,0.8718,No,Avoidance
Environment_1,CM,23.114,0.517,24.354,0.679,2.501,3.268,0.295,8.589,0.996,3.503,4.969,0.6647,0.4884,Human,,Yes,0.7805,0.8938,0.8334,No,Avoidance
Environment_1,CM,23.149,0.517,24.834,0.621,2.49,3.574,-0.295,11.308,1.018,3.789,5.199,0.5996,0.4144,Human,,Yes,0.7907,0.8925,0.8177,No,Avoidance
Environment_1,CM,21.188,0.517,23.42,0.585,2.51,3.774,-0.169,8.606,1.012,3.603,5.04,0.5836,0.4911,Human,,Yes,0.7866,0.8882,0.8303,No,Avoidance
Environment_1,CM,22.946,0.517,22.408,0.611,2.498,2.782,0.21,8.09,1.024,3.861,4.973,0.5695,0.4838,Human,,Yes,0.7987,0.87,0.7962,No,Avoidance
Environment_1,CM,20.599,0.517,26.182,0.584,2.514,3.083,-0.089,6.572,0.993,3.953,5.137,0.5438,0.4431,Human,,Yes,0.7992,0.8717,0.8191,No,Avoidance
Environment_1,CM,19.975,0.517,25.553,0.545,2.498,2.448,-0.376,6.783,1.018,3.858,5.234,0.5235,0.4633,Human,,Yes,0.8066,0.8632,0.8334,No,Avoidance
Environment_1,CM,20.211,0.517,23.617,0.495,2.467,2.378,0.129,6.014,0.977,3.902,5.302,0.4773,0.3701,Human,,Yes,0.7928,0.8698,0.8154,No,Avoidance
Environment_1,CM,19.292,0.517,24.062,0.461,2.484,2.186,-0.099,7.274,0.997,4.134,5.464,0.4785,0.4091,Human,,Yes,0.8239,0.8788,0.8423,No,Avoidance
Environment_1,CM,19.224,0.517,24.609,0.414,2.516,2.701,-0.21,4.516,1.013,3.971,5.433,0.4508,0.3592,Human,,Yes,0.8207,0.8831,0.8497,No,Avoidance
Environment_1,CM,18.696,0.517,23.813,0.394,2.512,2.056,0.365,4.793,1.006,4.23,5.777,0.3941,0.3537,Human,,Yes,0.8046,0.8713,0.8186,No,Avoidance
Environment_1,CM,23.423,0.517,24.148,0.343,2.48,1.724,-0.431,5.218,1.011,4.253,5.53,0.3599,0.2713,Human,,Yes,0.8097,0.85,0.8575,No,Avoidance
Environment_1,CM,22.701,0.517,23.102,0.326,2.495,1.57,-0.065,3.54,1.007,4.462,5.76,0.3197,0.2337,Human,,Yes,0.8125,0.8528,0.845,No,Avoidance
Environment_1,CM,21.812,0.517,23.912,0.28,2.5,1.737,-0.262,3.578,1.021,4.684,6.016,0.2879,0.2286,Human,,Yes,0.8147,0.8593,0.8525,No,Avoidance
Environment_1,CM,22.261,0.517,25.248,0.251,2.518,1.464,0.139,3.593,0.998,4.601,6.028,0.2638,0.1926,Human,,Yes,0.8193,0.8581,0.8644,No,Avoidance
Environment_1,CM,23.474,0.517,25.882,0.225,2.504,0.87,0.056,2.51,0.978,4.789,6.139,0.2066,0.1938,Human,,Yes,0.8292,0.8644,0.8356,No,Avoidance
Environment_1,CM,23.423,0.517,25.544,0.195,2.498,0.553,-0.253,1.933,1.009,5.221,6.54,0.1722,0.142,Human,,Yes,0.8438,0.8727,0.871,No,Avoidance
Environment_1,CM,25.096,0.517,23.75,0.136,2.514,0.401,-0.12,-0.355,0.979,5.033,6.712,0.1473,0.1415,Human,,Yes,0.8355,0.8647,0.8697,No,Avoidance
Environment_1,CM,24.583,0.517,23.537,0.099,2.496,0.185,0.073,2.144,0.958,4.941,6.665,0.1257,0.0984,Human,,Yes,0.8644,0.8896,0.9035,No,Avoidance
Environment_1,CM,25.515,0.517,24.06,0.075,2.477,-0.456,0.321,0.267,0.998,5.189,6.924,0.089,0.1052,Human,,Yes,0.8596,0.9044,0.9093,No,Avoidance
Environment_1,CM,23.745,0.517,25.594,0.01,2.502,-0.4,0.06,1.324,0.996,5.17,6.755,0.0975,0.0936,Human,,Yes,0.8673,0.8968,0.9212,No,Avoidance
Environment_1,CM,27.286,0.517,25.693,-0.033,2.508,-0.334,-0.068,0.173,0.997,5.496,6.983,0.0623,0.0423,Human,,Yes,0.8977,0.9069,0.9388,No,Avoidance
Environment_1,CM,25.663,0.517,25.577,-0.056,2.49,-0.632,0.02,-0.77,0.985,5.704,7.043,0.0736,0.0781,Human,,Yes,0.9118,0.936,0.9291,No,Avoidance
Environment_1,CM,24.518,0.517,25.295,-0.099,2.511,-0.746,-0.291,-0.843,0.979,5.966,7.323,0.0972,0.0469,,,No,0.9272,0.9516,0.9501,No,Cruise
Environment_1,CM,25.915,0.517,20.809,-0.101,2.497,-0.298,0.204,-1.192,0.989,5.899,7.417,0.1004,0.1097,,,No,0.9269,0.9495,0.9654,No,Cruise
Environment_1,CM,25.578,0.517,22.44,-0.05,2.485,-0.439,-0.051,-0.846,1.003,6.137,7.453,0.0895,0.0692,,,No,0.9418,0.9624,0.9919,No,Cruise
Environment_1,CM,25.138,0.517,23.321,-0.032,2.472,-0.007,-0.285,-1.22,1.006,6.075,7.518,0.0729,0.0895,,,No,0.9464,0.9585,0.9982,No,Cruise
Environment_1,CM,25.706,0.517,23.253,-0.064,2.504,-0.107,-0.089,-0.545,1.012,6.237,7.554,0.1061,0.0898,,,No,0.944,0.9607,0.9921,No,Cruise
Environment_1,CM,26.457,0.517,23.905,-0.069,2.485,-0.41,-0.184,-1.207,1.045,6.115,7.648,0.1064,0.0792,,,No,0.9523,0.96,0.9878,No,Cruise
Environment_1,CM,23.58,0.517,24.763,-0.099,2.517,-0.887,0.025,-0.822,1.017,6.067,7.471,0.1264,0.0808,,,No,0.9487,0.9768,0.9929,No,Cruise
Environment_1,CM,24.724,0.517,26.638,-0.106,2.488,-0.516,0.125,-0.705,1.038,6.07,7.381,0.1327,0.0628,,,No,0.9487,0.9764,0.9882,No,Cruise
Environment_1,CM,22.44,0.517,26.609,-0.106,2.506,-0.125,0.069,-1.285,1.024,6.18,7.573,0.1035,0.0801,,,No,0.9541,0.9658,0.9949,No,Cruise
Environment_1,CM,23.945,0.517,22.587,-0.107,2.498,-0.251,-0.295,-2.211,0.987,6.197,7.829,0.1097,0.063,,,No,0.9501,0.9677,0.9995,No,Cruise
Environment_1,CM,24.645,0.517,25.587,-0.134,2.511,-0.254,0.174,-2.052,1.007,6.001,7.666,0.075,0.0542,,,No,0.9533,0.9627,0.9984,No,Cruise
Environment_1,CM,26.041,0.517,24.908,-0.116,2.505,-0.07,0.395,-2.325,0.992,6.001,7.568,0.1109,0.0281,,,No,0.9614,0.9658,0.9879,No,Cruise
Environment_1,CM,26.224,0.517,26.543,-0.119,2.515,-0.329,-0.063,0.026,1.001,6.129,7.588,0.118,0.0267,,,No,0.9589,0.9636,0.9887,No,Cruise
Environment_1,CM,24.665,0.517,25.187,-0.107,2.476,-0.552,0.382,-1.395,1.048,6.104,7.393,0.1041,0.0726,,,No,0.9612,0.9564,0.9945,No,Cruise
Environment_1,CM,24.711,0.517,26.622,-0.072,2.512,-0.666,0.096,-2.444,1.032,5.941,7.429,0.1131,0.0448,,,No,0.9549,0.9667,0.9931,No,Cruise
Environment_1,CM,23.962,0.517,25.781,-0.063,2.519,-0.485,-0.197,-2.034,0.999,6.08,7.634,0.1267,0.0381,,,No,0.9653,0.9696,0.9944,No,Cruise
Environment_1,CM,26.613,0.517,26.824,-0.086,2.522,-0.439,-0.069,-0.764,0.994,6.18,7.483,0.1199,0.0497,,,No,0.96,0.9753,0.9931,No,Cruise
Environment_1,CM,26.782,0.517,25.927,-0.086,2.531,-0.535,0.08,-1.809,0.988,6.341,7.587,0.1175,0.0961,,,No,0.9442,0.9799,0.9827,No,Cruise
Environment_1,CM,25.576,0.517,23.976,-0.095,2.49,-0.546,0.081,-0.174,1.011,6.326,7.737,0.1219,0.0983,,,No,0.9531,0.9683,0.9892,No,Cruise
Environment_1,CM,27.759,0.517,23.863,-0.07,2.483,-0.246,-0.004,-0.429,0.997,6.39,7.525,0.1279,0.1152,,,No,0.9508,0.9771,1.0036,No,Cruise
Environment_1,CM,30.036,0.517,25.036,-0.071,2.48,-0.183,-0.399,-1.357,1.013,6.177,7.489,0.1528,0.1117,,,No,0.9638,0.9762,0.9936,No,Cruise
Environment_1,CM,26.399,0.517,26.708,-0.094,2.471,-0.585,-0.079,-1.755,0.995,6.14,7.465,0.114,0.0626,,,No,0.9616,0.9625,0.9906,No,Cruise
Environment_1,CM,25.756,0.517,26.941,-0.082,2.488,-0.32,0.165,-1.699,1.027,6.031,7.733,0.1139,0.1286,,,No,0.9693,0.9714,1.0046,No,Cruise
Environment_1,CM,23.127,0.517,24.083,-0.062,2.479,0.351,-0.03,-2.501,0.997,5.945,7.584,0.0909,0.1698,,,No,0.9542,0.9638,0.9961,No,Cruise
Environment_1,CM,26.148,0.517,24.176,-0.074,2.5,-0.696,0.011,-0.309,1.002,6.066,7.679,0.097,0.1385,,,No,0.9516,0.9647,0.9975,No,Cruise
Environment_1,CM,27.647,0.517,24.672,-0.087,2.533,-0.326,0.124,-1.041,0.993,6.16,7.548,0.0919,0.0958,,,No,0.9543,0.9648,0.9979,No,Cruise
Environment_1,CM,25.262,0.517,27.115,-0.095,2.514,-0.288,0.038,-2.634,0.996,6.182,7.617,0.0828,0.1187,,,No,0.9502,0.9613,0.9947,No,Cruise
Environment_1,CM,24.291,0.517,26.37,-0.089,2.499,-0.006,0.25,-1.964,0.996,6.156,7.518,0.1036,0.0779,,,No,0.9474,0.9595,0.9821,No,Cruise
Environment_1,CM,24.557,0.517,25.262,-0.09,2.515,-0.543,0.162,-1.217,1.022,6.15,7.488,0.13,0.0464,,,No,0.9563,0.9615,0.9894,No,Cruise
Environment_1,CM,23.887,0.517,22.904,-0.072,2.499,-1.135,0.268,-1.913,0.977,5.997,7.38,0.109,0.0767,,,No,0.9386,0.9638,0.9872,No,Cruise
Environment_1,CM,23.644,0.517,24.729,-0.095,2.485,-0.233,-0.174,-0.951,1.033,6.012,7.496,0.0942,0.1339,,,No,0.9287,0.9628,0.9948,No,Cruise
Environment_1,CM,27.149,0.517,24.567,-0.112,2.486,-0.964,0.018,-0.973,0.98,6.116,7.513,0.1097,0.1355,,,No,0.9446,0.9563,0.9919,No,Cruise
Environment_1,CM,23.317,0.517,26.468,-0.087,2.485,-0.713,0.079,-2.358,1.018,6.395,7.755,0.098,0.1286,,,No,0.9441,0.9603,0.9992,No,Cruise
Environment_1,CM,26.714,0.517,28.353,-0.062,2.506,-0.146,0.083,-1.625,1.027,6.132,7.616,0.0665,0.1129,,,No,0.9405,0.9654,0.9874,No,Cruise
Environment_1,CM,28.267,0.517,26.496,-0.116,2.495,-0.833,0.018,-1.954,1.023,6.209,7.779,0.0769,0.0979,,,No,0.9588,0.9594,0.9942,No,Cruise
Environment_1,CM,29.368,0.517,25.951,-0.087,2.487,-0.235,-0.272,-2.987,0.994,6.254,7.695,0.0755,0.1352,,,No,0.952,0.9557,0.9917,No,Cruise
Environment_1,CM,27.87,0.517,27.959,-0.13,2.492,-0.212,0.281,-1.318,0.988,5.803,7.461,0.0932,0.123,,,No,0.9498,0.97,0.9939,No,Cruise
Environment_1,CM,29.513,0.517,24.99,-0.094,2.49,-0.511,0.063,-2.003,1.041,5.96,7.5,0.0785,0.1366,,,No,0.9434,0.9659,1.0004,No,Cruise
Environment_1,CM,29.267,0.517,24.535,-0.086,2.503,-0.899,0.15,-2.212,0.991,6.177,7.469,0.0467,0.1129,,,No,0.964,0.969,0.9954,No,Cruise
Environment_1,CM,27.894,0.517,28.386,-0.136,2.52,-0.691,0.074,-3.497,0.98,6.082,7.324,0.0734,0.1427,,,No,0.9633,0.9763,0.9988,No,Cruise
Environment_1,CM,27.473,0.517,28.312,-0.128,2.518,-0.501,-0.33,-1.614,1.006,6.162,7.543,0.107,0.1164,,,No,0.9613,0.9772,1.0,No,Cruise
Environment_1,CM,28.314,0.517,30.474,-0.162,2.496,-0.84,-0.168,-1.084,0.982,6.184,7.471,0.1152,0.081,,,No,0.9605,0.9834,0.9939,No,Cruise
Environment_1,CM,30.358,0.517,32.358,-0.113,2.491,-0.599,0.076,-0.19,1.0,6.386,7.576,0.1356,0.0775,,,No,0.9612,0.9803,0.9855,No,Cruise
Environment_1,CM,28.562,0.517,32.476,-0.146,2.501,-1.024,-0.073,-0.724,0.992,6.147,7.541,0.0873,0.1033,,,No,0.9621,0.9795,0.9799,No,Cruise
Environment_1,CM,30.653,0.517,32.444,-0.128,2.513,-0.25,-0.145,-1.251,0.992,6.118,7.499,0.1341,0.1206,,,No,0.9495,0.9634,0.9826,No,Cruise
Environment_1,CM,31.109,0.517,32.757,-0.127,2.516,-0.585,-0.102,-2.135,1.001,6.198,7.62,0.0878,0.0875,,,No,0.9639,0.96,0.9863,No,Cruise
Environment_1,CM,30.454,0.517,29.769,-0.165,2.49,-0.61,0.002,-0.867,0.987,6.334,7.568,0.1135,0.1016,,,No,0.9702,0.966,0.9862,No,Cruise
Environment_1,CM,30.466,0.517,29.903,-0.182,2.5,-0.753,-0.352,-1.013,0.958,6.358,7.647,0.141,0.0978,,,No,0.9596,0.9678,0.9889,No,Cruise
Environment_1,CM,29.033,0.517,31.808,-0.168,2.52,-0.461,-0.115,-2.378,1.009,6.221,7.262,0.116,0.0547,,,No,0.9645,0.9775,0.9775,No,Cruise
Environment_1,CM,27.942,0.517,31.754,-0.128,2.467,-0.725,-0.211,-0.625,1.027,6.208,7.292,0.1096,0.0852,,,No,0.964,0.971,0.9843,No,Cruise
Environment_1,CM,27.537,0.517,32.769,-0.12,2.506,-0.28,0.24,-1.406,0.997,6.135,7.306,0.1002,0.0867,,,No,0.971,0.9728,0.9871,No,Cruise
Environment_1,CM,28.115,0.517,31.077,-0.111,2.471,-0.044,0.053,-1.309,0.977,5.929,7.284,0.13,0.1188,,,No,0.9521,0.9819,0.9885,No,Cruise
Environment_1,CM,28.919,0.517,27.904,-0.098,2.487,-0.589,-0.088,-1.399,0.998,5.768,7.325,0.1198,0.0785,,,No,0.9469,0.9699,0.9934,No,Cruise
Environment_1,CM,27.101,0.517,27.764,-0.109,2.499,-0.397,-0.14,-1.797,0.979,6.058,7.467,0.1509,0.1082,,,No,0.9511,0.9727,0.9954,No,Cruise
Environment_1,CM,28.618,0.517,30.572,-0.096,2.531,-0.052,0.195,-1.967,0.982,6.087,7.389,0.1403,0.0931,,,No,0.9622,0.9651,1.0014,No,Cruise
Environment_1,CM,27.374,0.517,28.546,-0.033,2.498,-0.857,-0.418,-1.963,1.027,6.017,7.317,0.1324,0.0689,,,No,0.9605,0.9627,0.9958,No,Cruise
Environment_1,CM,27.909,0.517,29.803,-0.058,2.5,-1.018,0.297,-2.0,0.987,6.07,7.397,0.1282,0.0622,,,No,0.9623,0.9626,0.9892,No,Cruise
Environment_1,CM,27.401,0.517,31.521,-0.065,2.508,0.01,0.249,-1.789,1.015,6.119,7.434,0.1247,0.0651,,,No,0.9607,0.9735,0.9899,No,Cruise
Environment_1,CM,27.517,0.517,30.255,-0.063,2.485,-0.757,0.079,-2.264,0.979,6.058,7.415,0.1115,0.0886,,,No,0.9695,0.9701,0.9813,No,Cruise
Environment_1,CM,27.871,0.517,30.183,-0.1,2.493,-0.808,-0.25,-1.958,1.027,6.116,7.685,0.1276,0.083,,,No,0.9598,0.9737,0.9831,No,Cruise
Environment_1,CM,28.511,0.517,30.883,-0.122,2.469,-0.636,-0.04,-1.257,0.998,6.124,7.291,0.1564,0.1208,,,No,0.9478,0.9769,0.9979,No,Cruise
Environment_1,CM,29.488,0.517,30.414,-0.106,2.509,-0.837,0.047,-1.85,1.024,6.093,7.294,0.1371,0.1219,,,No,0.9538,0.9735,1.0043,No,Cruise
Environment_1,CM,30.205,0.517,33.982,-0.128,2.506,-0.72,0.074,-1.424,0.984,5.988,7.235,0.1126,0.1642,,,No,0.9342,0.9571,0.9726,No,Cruise
Environment_1,CM,27.95,0.517,29.001,-0.128,2.509,-0.447,-0.039,-1.928,0.987,6.083,7.324,0.1141,0.1404,,,No,0.9444,0.951,0.9724,No,Cruise
Environment_1,CM,30.128,0.517,31.272,-0.113,2.51,-0.525,0.163,-1.596,1.002,5.907,7.364,0.1331,0.0749,,,No,0.9424,0.9567,0.9657,No,Cruise
Environment_1,CM,30.957,0.517,29.874,-0.095,2.484,-0.368,0.253,-1.315,0.966,5.747,7.11,0.1279,0.0547,,,No,0.924,0.9359,0.9449,No,Cruise
Environment_1,CM,29.886,0.517,31.898,-0.127,2.506,-0.696,-0.105,-2.305,0.991,5.74,7.143,0.1317,0.0555,,,No,0.9376,0.9377,0.9476,No,Cruise
Environment_1,CM,29.461,0.517,31.363,-0.112,2.514,-0.223,0.224,-1.266,1.008,5.626,7.174,0.1409,0.0588,,,No,0.9398,0.9217,0.9386,No,Cruise
Environment_1,CM,30.866,0.517,29.747,-0.132,2.506,-0.224,0.075,-1.346,1.008,5.621,7.218,0.1634,0.1032,,,No,0.9312,0.9213,0.9444,No,Cruise
Environment_1,CM,30.59,0.517,29.671,-0.175,2.502,-1.198,0.197,-2.539,1.007,5.436,6.785,0.2173,0.1792,,,No,0.9212,0.902,0.9081,No,Cruise
Environment_1,CM,31.06,0.517,32.077,-0.187,2.49,0.061,-0.341,-3.906,1.02,5.554,6.833,0.2135,0.1185,,,No,0.9099,0.9208,0.9158,No,Cruise
Environment_1,CM,31.288,0.517,30.291,-0.26,2.494,-0.981,0.182,-3.594,1.009,5.586,6.71,0.2372,0.167,,,No,0.9248,0.9155,0.9187,No,Cruise
Environment_1,CM,31.21,0.517,30.368,-0.257,2.497,-1.058,-0.166,-4.069,0.987,4.787,5.863,0.2263,0.1862,Palm_Trunk,,Yes,0.888,0.8727,0.8552,No,Avoidance
Environment_1,CM,33.749,0.517,30.11,-0.319,2.507,-1.217,-0.117,-3.703,0.989,4.543,5.838,0.2655,0.2462,Palm_Trunk,,Yes,0.8845,0.8674,0.8397,No,Avoidance
Environment_1,CM,34.164,0.517,29.196,-0.325,2.533,-1.184,-0.112,-2.159,1.012,4.335,5.479,0.2989,0.2519,Palm_Trunk,,Yes,0.8664,0.856,0.8353,No,Avoidance
Environment_1,CM,31.301,0.517,31.647,-0.324,2.493,-1.479,0.167,-5.671,1.006,4.119,5.457,0.3461,0.273,Palm_Trunk,,Yes,0.8799,0.8692,0.8503,No,Avoidance
Environment_1,CM,32.963,0.517,32.917,-0.346,2.494,-1.722,-0.18,-4.595,0.995,4.041,5.427,0.3843,0.3024,Palm_Trunk,,Yes,0.8746,0.862,0.8228,No,Avoidance
Environment_1,CM,31.177,0.517,33.06,-0.387,2.522,-2.088,0.137,-5.498,0.992,4.05,5.436,0.4171,0.3139,Palm_Trunk,,Yes,0.8879,0.8547,0.837,No,Avoidance
Environment_1,CM,31.741,0.517,34.958,-0.457,2.496,-1.959,0.031,-4.351,1.019,4.086,5.474,0.448,0.3404,Palm_Trunk,,Yes,0.8782,0.8558,0.8385,No,Avoidance
Environment_1,CM,34.234,0.517,35.33,-0.469,2.486,-2.372,0.388,-6.097,0.999,4.001,5.605,0.4956,0.3928,Palm_Trunk,,Yes,0.8877,0.866,0.8049,No,Avoidance
Environment_1,CM,28.573,0.517,31.833,-0.484,2.506,-2.183,-0.138,-6.582,0.985,3.875,5.256,0.5384,0.3867,Palm_Trunk,,Yes,0.8879,0.856,0.799,No,Avoidance
Environment_1,CM,33.036,0.517,33.776,-0.527,2.504,-1.984,0.201,-7.07,1.016,3.805,5.282,0.5612,0.3823,Palm_Trunk,,Yes,0.8764,0.867,0.8163,No,Avoidance
Environment_1,CM,33.93,0.517,31.861,-0.544,2.499,-2.598,0.032,-9.295,1.02,3.688,5.154,0.5623,0.3885,Palm_Trunk,,Yes,0.8668,0.8654,0.8361,No,Avoidance
Environment_1,CM,33.287,0.517,32.272,-0.589,2.509,-2.769,-0.017,-9.516,1.005,3.603,4.91,0.5804,0.426,Palm_Trunk,,Yes,0.8703,0.8735,0.8371,No,Avoidance
Environment_1,CM,31.785,0.517,35.474,-0.586,2.513,-3.03,-0.189,-8.902,1.002,3.736,5.149,0.6161,0.4191,Palm_Trunk,,Yes,0.8754,0.8869,0.803,No,Avoidance
Environment_1,CM,32.153,0.517,35.41,-0.602,2.486,-3.013,-0.087,-9.579,0.976,3.857,4.953,0.6199,0.4598,Palm_Trunk,,Yes,0.8678,0.8787,0.8119,No,Avoidance
Environment_1,CM,33.179,0.517,34.124,-0.57,2.505,-3.018,0.128,-8.341,1.012,3.973,5.051,0.6292,0.4422,Palm_Trunk,,Yes,0.8705,0.8815,0.8151,No,Avoidance
Environment_1,CM,37.113,0.517,34.644,-0.581,2.503,-2.865,-0.005,-7.474,0.946,3.775,5.027,0.6634,0.4412,Palm_Trunk,,Yes,0.8669,0.8931,0.8157,No,Avoidance
Environment_1,CM,35.197,0.517,35.241,-0.627,2.487,-3.173,-0.017,-8.481,1.004,3.595,5.016,0.6443,0.4257,Palm_Trunk,,Yes,0.8496,0.8942,0.7936,No,Avoidance
Environment_1,CM,32.454,0.517,35.009,-0.625,2.509,-2.537,0.32,-8.315,1.002,3.639,4.875,0.6152,0.4161,Palm_Trunk,,Yes,0.8419,0.8915,0.818,No,Avoidance
Environment_1,CM,30.199,0.517,32.425,-0.608,2.486,-2.711,-0.302,-8.158,1.007,3.604,4.857,0.644,0.4746,Palm_Trunk,,Yes,0.8565,0.8821,0.8199,No,Avoidance
Environment_1,CM,32.364,0.517,33.668,-0.626,2.499,-2.73,-0.031,-9.211,0.999,3.7,5.192,0.6253,0.4117,Palm_Trunk,,Yes,0.8563,0.8876,0.8138,No,Avoidance
Environment_1,CM,31.255,0.517,31.522,-0.61,2.532,-2.953,0.111,-7.799,1.009,3.536,4.92,0.5964,0.4567,Palm_Trunk,,Yes,0.8597,0.9004,0.8227,No,Avoidance
Environment_1,CM,30.08,0.517,30.646,-0.621,2.464,-2.631,0.167,-7.339,1.008,3.523,4.974,0.5995,0.4555,Palm_Trunk,,Yes,0.843,0.8927,0.8306,No,Avoidance
Environment_1,CM,31.814,0.517,31.778,-0.583,2.493,-2.599,0.065,-8.943,0.995,3.588,5.235,0.5876,0.4538,Palm_Trunk,,Yes,0.833,0.9052,0.8386,No,Avoidance
Environment_1,CM,30.346,0.517,33.212,-0.553,2.497,-2.973,0.264,-7.328,0.994,3.348,5.12,0.5719,0.4635,Palm_Trunk,,Yes,0.834,0.9143,0.8167,No,Avoidance
Environment_1,CM,29.506,0.517,32.748,-0.545,2.49,-3.478,0.07,-9.771,0.973,3.736,5.259,0.5559,0.4229,Palm_Trunk,,Yes,0.8159,0.9108,0.8051,No,Avoidance
Environment_1,CM,30.831,0.517,34.422,-0.536,2.509,-2.647,-0.007,-9.007,1.004,3.85,5.368,0.5072,0.3759,Palm_Trunk,,Yes,0.8141,0.8985,0.8109,No,Avoidance
Environment_1,CM,28.659,0.517,33.752,-0.509,2.522,-2.517,0.098,-7.282,0.982,3.966,5.365,0.4838,0.3293,Palm_Trunk,,Yes,0.8202,0.8979,0.8085,No,Avoidance
Environment_1,CM,29.508,0.517,33.797,-0.44,2.503,-2.015,-0.17,-6.978,1.004,3.927,5.398,0.4376,0.3479,Palm_Trunk,,Yes,0.8175,0.8982,0.8202,No,Avoidance
Environment_1,CM,31.498,0.517,35.128,-0.399,2.476,-2.439,0.137,-5.984,1.027,3.677,5.461,0.4677,0.3399,Palm_Trunk,,Yes,0.8141,0.8978,0.8423,No,Avoidance
Environment_1,CM,32.25,0.517,34.034,-0.397,2.492,-2.106,-0.255,-6.189,0.975,3.956,5.406,0.3939,0.3243,Palm_Trunk,,Yes,0.8099,0.8953,0.8119,No,Avoidance
Environment_1,CM,34.167,0.517,34.651,-0.344,2.515,-1.804,-0.296,-4.447,0.984,4.081,6.005,0.358,0.3171,Palm_Trunk,,Yes,0.8369,0.907,0.8333,No,Avoidance
Environment_1,CM,33.781,0.517,34.273,-0.307,2.496,-1.938,0.103,-4.419,1.006,4.195,6.013,0.3202,0.286,Palm_Trunk,,Yes,0.8327,0.8981,0.8321,No,Avoidance
Environment_1,CM,36.406,0.517,35.845,-0.329,2.511,-1.771,0.155,-3.867,0.992,4.337,5.854,0.2954,0.2606,Palm_Trunk,,Yes,0.8281,0.8995,0.8578,No,Avoidance
Environment_1,CM,37.737,0.517,35.798,-0.268,2.499,-1.536,0.276,-2.472,0.962,4.44,6.137,0.2525,0.2093,Palm_Trunk,,Yes,0.8248,0.9119,0.8224,No,Avoidance
Environment_1,CM,38.845,0.517,36.336,-0.232,2.519,-1.531,0.301,-3.165,0.995,4.406,6.072,0.2341,0.1975,Palm_Trunk,,Yes,0.8209,0.8928,0.8616,No,Avoidance
Environment_1,CM,35.051,0.517,38.544,-0.216,2.485,-0.936,0.434,-3.329,1.032,4.816,6.446,0.223,0.1808,Palm_Trunk,,Yes,0.8402,0.9086,0.8677,No,Avoidance
Environment_1,CM,37.748,0.517,37.655,-0.201,2.512,-1.341,0.111,-2.962,0.995,4.967,6.537,0.2062,0.1777,Palm_Trunk,,Yes,0.8554,0.9189,0.8838,No,Avoidance
Environment_1,CM,39.414,0.517,37.81,-0.153,2.49,-0.43,0.388,-2.504,1.022,5.077,6.496,0.1787,0.1549,Palm_Trunk,,Yes,0.8593,0.9112,0.8866,No,Avoidance
Environment_1,CM,41.265,0.517,38.055,-0.158,2.49,-0.522,0.102,-1.365,1.012,5.21,6.653,0.1812,0.1092,Palm_Trunk,,Yes,0.8895,0.9229,0.9186,No,Avoidance
Environment_1,CM,40.125,0.517,40.704,-0.157,2.491,-0.747,-0.154,-3.319,1.009,5.432,7.048,0.1647,0.0743,Palm_Trunk,,Yes,0.9116,0.9445,0.9443,No,Avoidance
Environment_1,CM,37.948,0.517,36.437,-0.123,2.529,-0.227,-0.13,-0.912,1.019,5.384,6.995,0.1218,0.0859,Palm_Trunk,,Yes,0.906,0.9494,0.9266,No,Avoidance
Environment_1,CM,37.999,0.517,36.129,-0.077,2.527,-1.268,0.103,-1.524,0.987,5.493,7.008,0.0945,0.0968,Palm_Trunk,,Yes,0.9129,0.9388,0.9387,No,Avoidance
Environment_1,CM,39.377,0.517,32.247,-0.081,2.518,-0.694,-0.044,-0.582,1.0,5.665,7.233,0.1219,0.089,Palm_Trunk,,Yes,0.9138,0.9349,0.9383,No,Avoidance
Environment_1,CM,37.816,0.517,33.574,-0.084,2.522,-0.257,0.255,-2.101,1.011,5.624,7.082,0.1349,0.0851,Palm_Trunk,,Yes,0.9272,0.9467,0.9345,No,Avoidance
Environment_1,CM,37.594,0.517,33.838,-0.089,2.507,-0.224,-0.212,-0.728,0.994,5.835,7.106,0.1173,0.0897,Palm_Trunk,,Yes,0.9305,0.9407,0.9507,No,Avoidance
Environment_1,CM,39.811,0.517,36.271,-0.06,2.481,-0.564,-0.205,-0.864,1.007,5.782,7.018,0.1076,0.084,Palm_Trunk,,Yes,0.9141,0.9476,0.9527,No,Avoidance
Environment_1,CM,39.386,0.517,34.677,-0.032,2.476,-0.221,0.122,-0.371,0.979,5.894,7.218,0.0522,0.0837,Palm_Trunk,,Yes,0.9285,0.9409,0.9501,No,Avoidance
Environment_1,CM,41.117,0.517,36.064,-0.041,2.514,-0.341,0.039,-0.388,0.995,6.075,7.362,0.0469,0.0559,,,No,0.9421,0.9505,0.9693,No,Cruise
Environment_1,CM,38.885,0.517,36.49,0.032,2.496,-0.151,0.418,-1.242,1.002,6.001,7.422,0.0286,0.031,,,No,0.9454,0.947,0.9858,No,Cruise
Environment_1,CM,42.7,0.517,38.06,-0.032,2.512,-0.3,0.245,-1.377,0.99,6.305,7.772,0.0476,0.0246,,,No,0.9704,0.9629,0.9944,No,Cruise
Environment_1,CM,40.32,0.517,38.973,-0.023,2.511,-0.552,-0.085,-0.944,1.032,6.164,7.768,0.0521,0.0504,,,No,0.9586,0.9649,0.9842,No,Cruise
Environment_1,CM,38.797,0.517,33.734,-0.001,2.506,-0.25,0.194,-0.316,1.018,6.399,7.783,0.0623,0.1018,,,No,0.9594,0.9543,1.002,No,Cruise
Environment_1,CM,36.743,0.517,34.215,0.027,2.51,0.179,-0.257,-0.0,0.984,6.239,7.794,0.0774,0.1107,,,No,0.9701,0.9639,0.9913,No,Cruise
Environment_1,CM,34.782,0.517,32.907,-0.043,2.494,-0.237,0.082,0.163,0.965,6.429,7.959,0.056,0.1316,,,No,0.9818,0.9604,0.9883,No,Cruise
Environment_1,CM,35.209,0.517,32.298,-0.039,2.52,0.033,0.032,-0.448,1.025,6.316,7.426,0.0341,0.1211,,,No,0.9689,0.9742,0.9884,No,Cruise
Environment_1,CM,32.803,0.517,35.906,-0.021,2.489,-0.279,-0.136,-0.525,0.973,6.286,7.521,0.0377,0.1087,,,No,0.9563,0.9579,0.9906,No,Cruise
Environment_1,CM,34.461,0.517,35.717,0.003,2.52,0.146,-0.02,-0.726,0.994,6.378,7.745,0.0238,0.1074,,,No,0.9542,0.9637,0.9884,No,Cruise
Environment_1,CM,34.427,0.517,35.386,0.014,2.477,0.172,0.119,0.286,1.004,6.294,7.56,0.0221,0.0559,,,No,0.9456,0.971,0.9866,No,Cruise
Environment_1,CM,35.151,0.517,34.061,-0.0,2.498,0.12,0.172,-0.366,0.982,6.133,7.606,0.0281,0.0466,,,No,0.9636,0.9554,0.9872,No,Cruise
Environment_1,CM,35.898,0.517,34.252,-0.001,2.53,-0.239,-0.145,-0.758,1.008,6.331,7.87,0.0332,0.0503,,,No,0.9461,0.9567,0.9845,No,Cruise
Environment_1,CM,38.023,0.517,38.719,-0.037,2.505,-0.066,-0.22,-0.038,0.97,6.204,7.963,0.0263,0.0336,,,No,0.9484,0.9567,0.9882,No,Cruise
Environment_1,CM,37.974,0.517,38.279,-0.001,2.488,-0.064,-0.037,-0.034,0.961,6.454,7.697,0.0633,0.0348,,,No,0.9555,0.9686,0.982,No,Cruise
Environment_1,CM,36.305,0.517,40.517,0.062,2.521,-0.052,0.143,-0.379,0.991,6.436,7.73,0.0695,0.0027,,,No,0.9541,0.9704,0.9924,No,Cruise
Environment_1,CM,37.447,0.517,40.416,0.068,2.501,0.139,0.143,-0.537,1.02,6.303,7.551,0.0514,0.0,,,No,0.95,0.977,1.0009,No,Cruise
Environment_1,CM,35.843,0.517,38.058,0.061,2.522,0.468,0.197,-0.587,1.021,6.312,7.535,0.0,0.0,,,No,0.9566,0.9695,1.0023,No,Cruise
Environment_1,CM,36.261,0.517,35.836,0.016,2.512,-0.16,-0.055,-0.464,1.016,6.275,7.605,0.0178,0.0,,,No,0.9557,0.9785,0.9884,No,Cruise
Environment_1,CM,40.75,0.517,33.709,0.013,2.519,0.178,0.08,-0.971,0.985,6.536,7.583,0.0428,0.0163,,,No,0.9531,0.98,0.9898,No,Cruise
Environment_1,CM,40.776,0.517,35.133,0.05,2.482,0.201,0.084,-0.267,0.998,6.556,7.552,0.0264,0.049,,,No,0.9517,0.9673,0.9727,No,Cruise
Environment_1,CM,42.147,0.517,34.187,0.029,2.482,0.089,-0.005,0.655,1.008,6.371,7.463,0.0126,0.0248,,,No,0.9449,0.9723,0.9731,No,Cruise
Environment_1,CM,43.362,0.517,37.375,0.037,2.482,-0.102,0.073,-0.419,0.988,6.548,7.649,0.0016,0.06,,,No,0.9366,0.9819,0.9708,No,Cruise
Environment_1,CM,42.866,0.517,37.429,0.074,2.508,-0.168,-0.167,-0.616,1.004,6.339,7.256,0.0188,0.0434,,,No,0.9461,0.9742,0.9828,No,Cruise
Environment_1,CM,40.889,0.517,35.739,0.041,2.503,0.178,0.102,-0.066,0.986,6.263,7.477,0.0028,0.0652,,,No,0.9471,0.973,0.984,No,Cruise
Environment_1,CM,41.443,0.517,37.56,0.024,2.491,-0.076,0.161,-1.427,0.957,6.238,7.567,0.0373,0.0741,,,No,0.939,0.9731,0.9873,No,Cruise
Environment_1,CM,41.166,0.517,36.849,0.05,2.525,-0.576,0.072,0.218,0.995,6.358,7.479,0.0489,0.0608,,,No,0.9507,0.9731,0.9881,No,Cruise
Environment_1,CM,44.282,0.517,37.128,0.054,2.502,0.087,0.246,-0.09,1.009,6.326,7.529,0.0,0.0682,,,No,0.9518,0.9685,0.9952,No,Cruise
Environment_1,CM,43.326,0.517,38.177,0.047,2.488,-0.199,-0.076,1.305,1.002,6.535,7.602,0.0,0.0656,,,No,0.9579,0.9643,0.9955,No,Cruise
Environment_1,CM,45.234,0.517,39.112,0.063,2.506,-0.623,0.603,0.471,0.961,6.527,7.692,0.0126,0.0624,,,No,0.9539,0.963,0.993,No,Cruise
Environment_1,CM,42.489,0.517,40.434,0.08,2.484,0.367,0.035,1.594,1.008,6.53,7.534,0.0347,0.0159,,,No,0.9409,0.9678,0.9893,No,Cruise
Environment_1,CM,42.601,0.517,39.583,0.024,2.482,0.045,-0.142,1.251,1.0,6.429,7.671,0.0204,0.0,,,No,0.9477,0.9751,0.9884,No,Cruise
Environment_1,CM,43.415,0.517,38.763,0.038,2.527,0.036,-0.099,0.737,1.023,6.467,7.705,0.0411,0.0315,,,No,0.9545,0.972,0.9893,No,Cruise
Environment_1,CM,40.205,0.517,40.585,0.028,2.502,-0.02,0.035,1.159,1.019,6.41,7.8,0.0554,0.0,,,No,0.9607,0.9666,0.9914,No,Cruise
Environment_1,CM,40.151,0.517,39.38,0.047,2.51,0.17,-0.265,0.654,1.003,6.357,7.529,0.0601,0.0037,,,No,0.9589,0.9616,0.9923,No,Cruise
Environment_1,CM,37.974,0.517,40.389,0.037,2.49,-0.121,-0.094,-0.059,0.996,6.026,7.553,0.074,0.0,,,No,0.9641,0.9609,1.0019,No,Cruise
Environment_1,CM,35.643,0.517,41.756,0.091,2.502,0.091,-0.053,1.171,1.006,6.193,7.799,0.0961,0.0,,,No,0.9627,0.9636,0.9851,No,Cruise
Environment_1,CM,40.348,0.517,39.657,0.095,2.515,-0.238,0.224,0.337,1.024,6.332,7.853,0.0817,0.0,,,No,0.9541,0.9595,0.9811,No,Cruise
Environment_1,CM,38.288,0.517,40.286,0.11,2.509,0.383,-0.267,1.019,1.008,6.149,7.828,0.0749,0.0144,,,No,0.9564,0.9528,0.9892,No,Cruise
Environment_1,CM,37.376,0.517,39.32,0.041,2.485,-0.214,-0.151,0.733,1.025,6.258,7.719,0.0568,0.0047,,,No,0.9455,0.9655,0.9767,No,Cruise
Environment_1,CM,36.21,0.517,38.685,0.024,2.49,0.337,-0.012,1.605,1.018,6.13,7.649,0.0667,0.0132,,,No,0.9438,0.9652,0.9822,No,Cruise
Environment_1,CM,35.271,0.517,38.826,0.039,2.517,0.127,-0.428,1.56,0.996,6.188,7.698,0.0837,0.008,,,No,0.9406,0.974,0.9792,No,Cruise
Environment_1,CM,39.397,0.517,40.505,0.042,2.514,0.225,-0.032,1.011,0.999,6.256,7.846,0.0592,0.0289,,,No,0.9478,0.9641,0.9772,No,Cruise
Environment_1,CM,37.565,0.517,41.741,0.08,2.523,0.156,-0.134,1.287,1.002,6.324,7.745,0.0627,0.0,,,No,0.9345,0.9671,0.9864,No,Cruise
Environment_1,CM,37.248,0.517,42.382,0.081,2.494,0.465,0.08,1.329,1.019,6.149,7.619,0.0309,0.006,,,No,0.9432,0.9706,0.9851,No,Cruise
Environment_1,CM,37.711,0.517,39.845,0.085,2.49,-0.0,0.023,0.525,0.978,6.299,7.825,0.0251,0.0463,,,No,0.9541,0.9613,0.9898,No,Cruise
Environment_1,CM,38.742,0.517,38.22,0.074,2.477,0.376,0.145,1.581,0.986,6.221,7.639,0.0406,0.1196,,,No,0.958,0.9629,0.9865,No,Cruise
Environment_1,CM,41.223,0.517,39.093,0.05,2.501,0.481,0.061,-1.463,0.988,6.208,7.547,0.0618,0.082,,,No,0.9704,0.9689,0.9747,No,Cruise
Environment_1,CM,39.142,0.517,37.13,0.042,2.507,0.206,0.013,0.848,1.003,6.265,7.642,0.0731,0.0764,,,No,0.9615,0.9669,0.9802,No,Cruise
Environment_1,CM,37.897,0.517,39.861,0.087,2.49,0.226,0.014,1.361,0.969,6.327,7.622,0.032,0.0694,,,No,0.9473,0.9634,0.9802,No,Cruise
Environment_1,CM,38.912,0.517,38.064,0.065,2.497,0.266,-0.001,0.416,0.952,6.156,7.608,0.0512,0.044,,,No,0.946,0.9495,0.9941,No,Cruise
Environment_1,CM,38.348,0.517,37.155,0.039,2.526,0.425,0.019,0.143,0.992,6.173,7.671,0.0612,0.0936,,,No,0.9447,0.9519,0.9898,No,Cruise
Environment_1,CM,42.23,0.517,39.495,0.035,2.508,0.461,0.158,-0.256,1.007,5.862,7.597,0.0676,0.1165,,,No,0.9451,0.9544,0.9846,No,Cruise
Environment_1,CM,43.816,0.517,38.355,0.063,2.505,0.623,-0.004,2.447,0.956,6.105,7.88,0.091,0.0953,,,No,0.9459,0.952,0.9983,No,Cruise
Environment_1,CM,46.506,0.517,36.815,0.092,2.499,0.662,-0.108,1.455,1.046,5.969,7.802,0.0562,0.0464,,,No,0.9487,0.9523,0.9949,No,Cruise
Environment_1,CM,43.571,0.517,36.998,0.089,2.532,0.661,-0.131,0.536,0.976,5.839,7.777,0.0703,0.0217,,,No,0.9401,0.9547,0.9897,No,Cruise
Environment_1,CM,41.805,0.517,40.825,0.082,2.529,-0.179,-0.04,1.074,1.024,5.854,7.43,0.07,0.0176,,,No,0.9548,0.9645,0.9772,No,Cruise
Environment_1,CM,41.759,0.517,41.894,0.075,2.467,0.523,-0.308,0.268,1.023,6.063,7.701,0.0815,0.0308,,,No,0.9392,0.9657,0.9811,No,Cruise
Environment_1,CM,43.955,0.517,43.096,0.079,2.514,0.549,0.054,1.261,1.013,5.986,7.664,0.0705,0.0148,,,No,0.9523,0.968,0.9869,No,Cruise
Environment_1,CM,42.669,0.517,44.542,0.079,2.524,0.417,0.122,0.768,0.999,5.986,7.562,0.0838,0.0643,,,No,0.9427,0.9719,0.9926,No,Cruise
Environment_1,CM,42.961,0.517,42.622,0.101,2.505,0.264,0.036,0.683,1.008,5.942,7.51,0.0918,0.093,,,No,0.9443,0.9752,0.9943,No,Cruise
Environment_1,CM,43.341,0.517,45.486,0.111,2.492,-0.143,0.223,1.025,0.989,6.036,7.579,0.0804,0.0606,,,No,0.959,0.972,0.9884,No,Cruise
Environment_1,CM,41.875,0.517,43.932,0.1,2.486,0.334,-0.164,-0.213,0.999,6.211,7.721,0.0714,0.0672,,,No,0.9413,0.9652,0.9845,No,Cruise
Environment_1,CM,45.25,0.517,41.96,0.13,2.512,-0.034,0.114,0.858,1.012,6.151,7.485,0.0402,0.0708,,,No,0.948,0.9633,0.9837,No,Cruise
Environment_1,CM,41.71,0.517,45.049,0.101,2.505,0.362,-0.25,0.329,1.01,6.322,7.786,0.0763,0.1228,,,No,0.9454,0.9697,0.99,No,Cruise
Environment_1,CM,41.101,0.517,47.287,0.05,2.469,0.702,-0.332,0.134,0.976,6.475,7.586,0.0925,0.168,,,No,0.9411,0.9603,0.9937,No,Cruise
Environment_1,CM,42.259,0.517,47.658,0.026,2.492,0.403,-0.143,-0.432,1.017,6.449,7.619,0.1031,0.1351,,,No,0.9457,0.9547,0.9967,No,Cruise
Environment_1,CM,42.445,0.517,45.691,0.07,2.498,0.583,-0.194,-0.094,0.984,6.389,7.678,0.088,0.056,,,No,0.9469,0.9624,0.9964,No,Cruise
Environment_1,CM,45.362,0.517,44.502,0.092,2.516,0.5,0.05,0.378,0.98,6.089,7.676,0.0975,0.0881,,,No,0.9493,0.9534,0.9862,No,Cruise
Environment_1,CM,46.063,0.517,45.0,0.082,2.48,0.206,0.053,0.73,1.004,6.246,7.599,0.1174,0.0654,,,No,0.9553,0.9523,0.9822,No,Cruise
Environment_1,CM,47.98,0.517,40.926,0.081,2.494,0.747,-0.049,-1.194,1.009,6.097,7.573,0.1216,0.1079,,,No,0.9644,0.9623,0.98,No,Cruise
Environment_1,CM,46.915,0.517,40.539,0.115,2.503,0.304,0.09,0.109,1.007,6.144,7.456,0.1339,0.0677,,,No,0.9439,0.9704,0.9768,No,Cruise
Environment_1,CM,46.837,0.517,39.855,0.122,2.492,0.028,-0.095,1.34,1.013,5.891,7.457,0.1119,0.0591,,,No,0.9618,0.9554,0.9769,No,Cruise
Environment_1,CM,46.021,0.517,39.699,0.114,2.489,0.911,0.398,0.205,1.022,6.049,7.485,0.1145,0.0716,,,No,0.9642,0.9709,0.9909,No,Cruise
Environment_1,CM,46.595,0.517,41.276,0.147,2.492,0.014,0.254,1.071,0.991,6.331,7.629,0.0975,0.0773,,,No,0.9535,0.9617,0.9853,No,Cruise
Environment_1,CM,45.111,0.517,38.787,0.128,2.479,0.4,0.312,0.955,1.027,6.032,7.411,0.1038,0.0153,,,No,0.9445,0.9659,0.9898,No,Cruise
Environment_1,CM,46.208,0.517,40.183,0.123,2.5,0.751,-0.171,0.963,0.963,6.203,7.501,0.0869,0.0695,,,No,0.9527,0.9555,0.991,No,Cruise
Environment_1,CM,41.69,0.517,44.239,0.124,2.504,0.16,0.097,1.588,0.981,5.939,7.422,0.1162,0.0653,,,No,0.9486,0.9672,0.9765,No,Cruise
Environment_1,CM,42.825,0.517,47.559,0.131,2.525,0.587,0.196,2.004,1.026,5.942,7.521,0.1332,0.1051,,,No,0.9512,0.9562,0.9785,No,Cruise
