Environment,Lighting,Timestamp_s,Wind_mps,Pos_X_m,Pos_Y_m,Altitude_m,Roll_deg,Pitch_deg,Yaw_deg,Velocity_mps,Depth_Min_m,Depth_Mean_m,Lateral_Error_m,Corridor_Center_Error_m,Obstacle_Type,Obstacle_Distance_m,AGSS_Activated,CAMR_Confidence,SACR_Score,Path_Clear_Probability,Collision,Mission_State
Environment_1,CM,0.997,0.517,1.004,-0.031,2.502,-0.216,-0.022,-0.857,0.986,6.209,7.777,0.0356,0.0,,,No,0.9459,0.9621,0.9798,No,Cruise
Environment_1,CM,1.021,0.517,0.835,-0.015,2.502,-0.087,0.111,0.747,0.994,6.03,7.642,0.0041,0.0,,,No,0.9562,0.9703,0.9824,No,Cruise
Environment_1,CM,1.873,0.517,3.081,-0.005,2.497,-0.038,-0.169,0.594,0.993,6.005,7.667,0.0119,0.0,,,No,0.9522,0.9737,0.9875,No,Cruise
Environment_1,CM,0.176,0.517,0.62,0.017,2.493,-0.588,-0.288,0.384,1.012,6.1,7.686,0.0053,0.0,,,No,0.9478,0.9656,0.9821,No,Cruise
Environment_1,CM,0.0,0.517,0.596,0.01,2.516,-0.171,0.115,-0.088,0.938,6.22,7.653,0.0105,0.0245,,,No,0.9345,0.9768,0.9887,No,Cruise
Environment_1,CM,0.294,0.517,4.791,-0.002,2.5,0.125,0.072,0.85,1.0,6.265,7.54,0.0,0.0596,,,No,0.9446,0.9696,0.9826,No,Cruise
Environment_1,CM,0.0,0.517,6.056,0.008,2.478,0.516,-0.605,0.016,1.035,6.107,7.597,0.0,0.0131,,,No,0.9364,0.9619,0.9778,No,Cruise
Environment_1,CM,0.0,0.517,0.915,0.0,2.51,0.417,0.027,0.734,0.985,6.058,7.45,0.0047,0.0,,,No,0.9464,0.9696,0.982,No,Cruise
Environment_1,CM,0.078,0.517,1.083,0.019,2.512,-0.354,0.119,0.673,1.005,5.934,7.422,0.0134,0.0,,,No,0.9537,0.9714,0.9896,No,Cruise
Environment_1,CM,0.0,0.517,0.677,0.061,2.501,0.265,-0.083,0.402,0.98,6.062,7.435,0.0405,0.0,,,No,0.9551,0.9664,0.9834,No,Cruise
Environment_1,CM,1.27,0.517,3.551,0.022,2.487,0.237,-0.123,-0.176,0.966,6.264,7.631,0.0303,0.0352,,,No,0.9527,0.9666,0.9853,No,Cruise
Environment_1,CM,0.733,0.517,2.891,0.012,2.519,0.115,0.122,-0.63,0.953,6.132,7.625,0.0084,0.0116,,,No,0.9513,0.9694,0.9857,No,Cruise
Environment_1,CM,1.536,0.517,2.187,0.031,2.498,0.307,-0.292,0.385,1.025,6.049,7.417,0.0,0.046,,,No,0.9516,0.9698,0.9869,No,Cruise
Environment_1,CM,0.0,0.517,4.694,0.015,2.492,0.465,0.082,0.283,1.009,6.086,7.508,0.019,0.0429,,,No,0.9587,0.9623,0.9864,No,Cruise
Environment_1,CM,0.0,0.517,3.439,-0.029,2.498,0.629,0.052,-0.462,0.972,6.33,7.328,0.0432,0.0015,,,No,0.9576,0.9677,0.9889,No,Cruise
Environment_1,CM,0.0,0.517,1.534,-0.025,2.489,-0.229,0.054,0.589,1.04,6.214,7.56,0.044,0.0267,,,No,0.9554,0.9649,0.9745,No,Cruise
Environment_1,CM,0.738,0.517,3.864,-0.019,2.521,0.212,0.026,0.29,0.992,6.207,7.485,0.0514,0.0162,,,No,0.9543,0.9674,0.9761,No,Cruise
Environment_1,CM,3.446,0.517,2.493,0.014,2.513,0.018,0.298,-1.339,1.002,6.104,7.326,0.0634,0.0209,,,No,0.961,0.9667,0.964,No,Cruise
Environment_1,CM,0.409,0.517,-3.57,0.032,2.512,0.338,-0.462,0.888,1.015,6.224,7.535,0.073,0.0387,,,No,0.9466,0.9652,0.9666,No,Cruise
Environment_1,CM,1.444,0.517,-1.939,0.053,2.525,-0.401,-0.112,0.333,0.982,6.201,7.473,0.0411,0.0612,,,No,0.9604,0.9733,0.9684,No,Cruise
Environment_1,CM,0.405,0.517,0.092,0.06,2.506,-0.224,0.119,0.703,1.001,6.06,7.377,0.0381,0.064,,,No,0.9497,0.9703,0.9668,No,Cruise
Environment_1,CM,0.0,0.517,-0.2,0.084,2.502,-0.257,0.042,-0.766,0.995,6.05,7.797,0.0432,0.0295,,,No,0.9473,0.9733,0.9691,No,Cruise
Environment_1,CM,0.0,0.517,0.954,0.011,2.497,-0.459,-0.089,-2.13,0.982,6.122,7.57,0.0465,0.0159,,,No,0.9359,0.9651,0.9754,No,Cruise
Environment_1,CM,0.0,0.517,4.597,0.008,2.524,0.151,0.226,-0.514,0.982,6.031,7.6,0.0544,0.0443,,,No,0.9425,0.9558,0.9884,No,Cruise
Environment_1,CM,1.166,0.517,2.299,0.013,2.507,-0.495,-0.343,-0.369,0.99,6.152,7.61,0.056,0.0669,,,No,0.9461,0.9511,0.9819,No,Cruise
Environment_1,CM,2.526,0.517,1.729,-0.005,2.518,-0.37,0.006,0.934,0.993,6.124,7.515,0.0519,0.048,,,No,0.9521,0.9618,0.9887,No,Cruise
Environment_1,CM,2.927,0.517,2.738,0.001,2.516,0.154,0.387,0.978,0.992,6.195,7.593,0.04,0.0,,,No,0.9536,0.9689,0.9997,No,Cruise
Environment_1,CM,2.29,0.517,2.848,-0.022,2.509,-0.038,-0.059,-0.17,1.01,6.195,7.606,0.0,0.0,,,No,0.9556,0.9688,0.9965,No,Cruise
Environment_1,CM,2.499,0.517,2.891,0.013,2.498,-0.183,-0.001,1.075,0.968,6.281,7.397,0.0336,0.0188,,,No,0.9679,0.9632,1.0005,No,Cruise
Environment_1,CM,0.0,0.517,4.194,0.032,2.496,0.106,0.059,0.429,0.986,6.258,7.369,0.0189,0.0,,,No,0.9721,0.9611,1.0003,No,Cruise
Environment_1,CM,1.399,0.517,4.381,0.057,2.524,0.261,0.111,1.632,0.989,6.137,7.339,0.0425,0.0272,,,No,0.9688,0.9566,0.9923,No,Cruise
Environment_1,CM,3.113,0.517,3.056,0.029,2.501,-0.457,-0.127,0.512,1.016,6.021,7.261,0.0677,0.0705,,,No,0.9677,0.9508,0.9972,No,Cruise
Environment_1,CM,2.562,0.517,3.876,0.008,2.473,-0.302,0.295,-0.529,0.989,5.963,7.28,0.0529,0.0619,,,No,0.9727,0.9617,0.9863,No,Cruise
Environment_1,CM,5.319,0.517,3.813,0.041,2.501,0.173,0.096,-0.979,0.978,6.056,7.469,0.0486,0.0543,,,No,0.9769,0.9611,0.9777,No,Cruise
Environment_1,CM,2.872,0.517,3.967,0.071,2.491,0.176,-0.258,-1.369,1.0,5.998,7.591,0.003,0.0874,,,No,0.9646,0.9613,0.9799,No,Cruise
Environment_1,CM,4.108,0.517,3.205,0.017,2.5,0.367,0.01,-0.543,0.955,5.867,7.406,0.0312,0.0543,,,No,0.9584,0.9772,0.9908,No,Cruise
Environment_1,CM,2.722,0.517,2.222,0.015,2.508,0.477,0.579,-0.059,0.949,5.951,7.47,0.0404,0.0646,,,No,0.9617,0.9578,0.9873,No,Cruise
Environment_1,CM,4.468,0.517,2.788,0.01,2.519,0.489,-0.299,-0.927,0.969,6.052,7.468,0.0375,0.0702,,,No,0.9555,0.9628,0.9946,No,Cruise
Environment_1,CM,0.967,0.517,3.702,0.04,2.507,0.665,-0.079,0.416,1.034,6.154,7.273,0.0612,0.1045,,,No,0.9552,0.9667,0.9858,No,Cruise
Environment_1,CM,4.714,0.517,4.402,0.054,2.54,0.553,0.113,1.568,0.976,6.366,7.374,0.0519,0.1047,,,No,0.9538,0.9688,0.9866,No,Cruise
Environment_1,CM,0.073,0.517,4.395,0.038,2.512,0.384,-0.096,1.025,1.001,6.026,7.255,0.0485,0.0755,,,No,0.9624,0.9566,0.9992,No,Cruise
Environment_1,CM,2.221,0.517,3.93,0.024,2.526,0.287,0.218,-0.329,0.989,5.955,7.444,0.0456,0.0893,,,No,0.9528,0.9602,0.9988,No,Cruise
Environment_1,CM,3.723,0.517,2.001,0.019,2.512,-0.266,-0.127,1.452,1.002,6.225,7.725,0.0546,0.0705,,,No,0.9526,0.961,0.9905,No,Cruise
Environment_1,CM,3.336,0.517,3.726,0.079,2.5,-0.065,0.014,1.18,0.998,5.967,7.563,0.0646,0.0865,,,No,0.9556,0.9611,0.9839,No,Cruise
Environment_1,CM,5.735,0.517,4.415,0.085,2.489,0.329,-0.172,1.399,1.011,5.929,7.454,0.0627,0.0899,,,No,0.961,0.9528,0.9867,No,Cruise
Environment_1,CM,4.535,0.517,4.305,0.089,2.491,0.721,-0.093,1.266,0.987,5.895,7.337,0.0653,0.0823,,,No,0.9673,0.9611,0.9804,No,Cruise
Environment_1,CM,7.356,0.517,9.307,0.076,2.501,0.099,-0.168,0.572,1.011,5.809,7.151,0.1042,0.0684,,,No,0.9527,0.9651,0.9797,No,Cruise
Environment_1,CM,4.95,0.517,8.938,0.074,2.501,0.347,0.049,1.442,0.975,5.815,7.447,0.105,0.0594,,,No,0.9466,0.9595,0.9799,No,Cruise
Environment_1,CM,4.704,0.517,6.35,0.07,2.491,0.17,0.093,0.891,0.981,5.948,7.512,0.0953,0.0414,,,No,0.9466,0.9684,0.9763,No,Cruise
Environment_1,CM,4.598,0.517,5.749,0.07,2.517,0.501,-0.036,0.613,1.036,6.06,7.619,0.0832,0.0744,,,No,0.9631,0.9671,0.9817,No,Cruise
Environment_1,CM,4.335,0.517,4.411,0.085,2.501,0.537,-0.225,-0.207,0.987,5.99,7.508,0.0593,0.0671,,,No,0.9601,0.9543,0.9846,No,Cruise
Environment_1,CM,5.067,0.517,7.757,0.106,2.527,0.7,-0.167,1.385,1.0,5.822,7.445,0.0783,0.0574,,,No,0.9613,0.9538,0.9742,No,Cruise
Environment_1,CM,4.911,0.517,7.424,0.099,2.496,0.095,-0.051,1.544,0.971,5.883,7.459,0.0971,0.0234,,,No,0.9675,0.9616,0.9649,No,Cruise
Environment_1,CM,3.499,0.517,6.328,0.082,2.504,0.722,0.121,2.613,0.997,6.152,7.577,0.0829,0.0555,,,No,0.9517,0.9567,0.9744,No,Cruise
Environment_1,CM,5.378,0.517,6.317,0.054,2.513,0.218,0.163,1.168,0.987,6.044,7.6,0.0697,0.0883,,,No,0.9683,0.9699,0.9734,No,Cruise
Environment_1,CM,5.319,0.517,2.514,0.094,2.519,0.473,0.015,2.707,1.016,5.991,7.525,0.0934,0.0853,,,No,0.9695,0.9608,0.9771,No,Cruise
Environment_1,CM,8.057,0.517,1.034,0.094,2.507,0.567,-0.15,2.206,0.996,5.95,7.403,0.0743,0.1114,,,No,0.9699,0.9693,0.9827,No,Cruise
Environment_1,CM,3.971,0.517,3.502,0.066,2.514,0.627,0.1,1.631,0.97,6.108,7.481,0.04,0.1186,,,No,0.9603,0.9643,0.9799,No,Cruise
Environment_1,CM,1.402,0.517,4.761,0.048,2.485,0.015,0.02,1.148,1.008,6.139,7.591,0.0284,0.0727,,,No,0.9634,0.9668,0.9865,No,Cruise
Environment_1,CM,3.627,0.517,4.495,0.106,2.489,0.815,0.141,1.092,0.98,6.07,7.542,0.0626,0.0722,,,No,0.9676,0.9669,0.9862,No,Cruise
Environment_1,CM,2.419,0.517,6.955,0.099,2.52,0.562,-0.108,0.998,1.03,6.23,7.471,0.0778,0.0477,,,No,0.9689,0.9558,0.9826,No,Cruise
Environment_1,CM,3.254,0.517,2.484,0.102,2.506,0.977,-0.168,1.255,0.987,6.168,7.455,0.0761,0.0581,,,No,0.9693,0.9543,0.9728,No,Cruise
Environment_1,CM,4.626,0.517,3.976,0.099,2.508,-0.085,0.394,2.219,1.019,6.024,7.48,0.1071,0.0605,,,No,0.9639,0.9624,0.9813,No,Cruise
Environment_1,CM,4.065,0.517,3.737,0.082,2.512,0.285,-0.184,1.805,0.969,6.085,7.528,0.104,0.0532,,,No,0.9615,0.9706,0.9742,No,Cruise
Environment_1,CM,8.043,0.517,3.801,0.07,2.515,0.244,0.096,3.52,1.023,6.053,7.269,0.0807,0.0654,,,No,0.958,0.9633,0.99,No,Cruise
Environment_1,CM,7.407,0.517,4.871,0.05,2.496,0.818,-0.177,2.082,0.975,6.082,7.38,0.0629,0.0875,,,No,0.9556,0.9717,0.9845,No,Cruise
Environment_1,CM,7.264,0.517,5.412,0.063,2.492,0.905,0.024,1.113,1.01,6.093,7.286,0.0743,0.1332,,,No,0.9627,0.9541,0.9901,No,Cruise
Environment_1,CM,6.236,0.517,4.984,0.052,2.513,0.819,-0.132,1.539,0.983,6.112,7.225,0.0861,0.0937,,,No,0.9665,0.958,0.9892,No,Cruise
Environment_1,CM,5.331,0.517,2.644,0.052,2.492,0.447,0.092,1.182,0.967,6.078,7.064,0.1211,0.131,,,No,0.948,0.9682,0.9943,No,Cruise
Environment_1,CM,3.05,0.517,5.366,0.058,2.501,1.004,0.256,1.838,0.992,6.037,7.339,0.1178,0.1035,,,No,0.9618,0.9678,0.9768,No,Cruise
Environment_1,CM,1.971,0.517,3.044,0.078,2.531,0.398,0.385,0.97,1.002,5.964,7.296,0.1052,0.0981,,,No,0.959,0.9598,0.9754,No,Cruise
Environment_1,CM,5.258,0.517,4.269,0.082,2.501,0.406,0.036,0.27,1.025,6.081,7.454,0.1312,0.0954,,,No,0.9676,0.952,0.9803,No,Cruise
Environment_1,CM,4.553,0.517,6.628,0.101,2.508,0.94,0.194,2.064,0.989,6.06,7.311,0.1509,0.0673,,,No,0.9576,0.9667,0.9763,No,Cruise
Environment_1,CM,5.623,0.517,7.869,0.121,2.493,0.984,-0.182,2.737,0.982,5.853,7.25,0.128,0.1067,,,No,0.9646,0.9653,0.973,No,Cruise
Environment_1,CM,7.131,0.517,5.063,0.091,2.511,0.685,-0.024,1.503,0.98,6.105,7.33,0.1158,0.1057,,,No,0.9526,0.959,0.9748,No,Cruise
Environment_1,CM,8.244,0.517,5.211,0.095,2.504,1.113,-0.081,4.279,1.012,6.112,7.238,0.1034,0.0957,,,No,0.9686,0.9621,0.9696,No,Cruise
Environment_1,CM,7.578,0.517,5.033,0.055,2.519,0.31,-0.019,1.73,0.99,5.905,7.529,0.1036,0.0884,,,No,0.9514,0.9567,0.9861,No,Cruise
Environment_1,CM,9.761,0.517,8.051,-0.001,2.515,0.2,-0.069,0.497,0.999,5.934,7.557,0.0923,0.1255,,,No,0.9517,0.9642,0.9938,No,Cruise
Environment_1,CM,9.091,0.517,8.681,0.016,2.493,0.834,0.062,1.361,1.011,5.918,7.474,0.065,0.1449,,,No,0.9576,0.9703,0.9975,No,Cruise
Environment_1,CM,7.977,0.517,7.442,0.072,2.458,0.976,-0.112,1.628,0.972,5.884,7.4,0.0801,0.1259,,,No,0.9701,0.9674,0.9827,No,Cruise
Environment_1,CM,4.716,0.517,5.659,0.063,2.506,0.816,-0.383,0.074,1.005,5.776,7.444,0.068,0.1139,,,No,0.9668,0.959,0.9834,No,Cruise
Environment_1,CM,6.235,0.517,6.309,0.094,2.498,0.574,0.05,1.507,1.017,5.653,7.344,0.1064,0.1241,,,No,0.9502,0.9538,0.9916,No,Cruise
Environment_1,CM,4.912,0.517,8.146,0.11,2.491,0.343,0.162,2.535,0.987,5.73,7.27,0.1006,0.0828,,,No,0.9564,0.9642,0.994,No,Cruise
Environment_1,CM,6.339,0.517,8.33,0.061,2.526,0.45,-0.038,2.315,1.0,5.74,7.284,0.0957,0.0726,,,No,0.959,0.9598,0.9738,No,Cruise
Environment_1,CM,7.059,0.517,7.622,0.096,2.488,0.595,-0.238,1.945,0.984,5.725,7.264,0.1032,0.0967,,,No,0.949,0.9468,0.9648,No,Cruise
Environment_1,CM,3.2,0.517,7.622,0.138,2.486,1.041,0.073,1.702,1.007,5.798,7.248,0.1294,0.1026,,,No,0.9491,0.9522,0.9749,No,Cruise
Environment_1,CM,5.533,0.517,8.116,0.11,2.518,0.518,-0.118,1.627,0.998,5.814,7.217,0.1459,0.1175,,,No,0.9538,0.9493,0.9794,No,Cruise
Environment_1,CM,11.102,0.517,6.646,0.145,2.505,0.167,0.139,2.721,1.012,5.841,7.397,0.1206,0.1151,,,No,0.9566,0.9496,0.971,No,Cruise
Environment_1,CM,9.297,0.517,8.098,0.14,2.512,0.601,0.029,2.623,1.004,5.797,7.315,0.1226,0.1151,,,No,0.9515,0.9568,0.9884,No,Cruise
Environment_1,CM,7.662,0.517,9.578,0.142,2.463,0.759,-0.019,2.471,0.977,5.902,7.325,0.1142,0.1111,,,No,0.9509,0.9564,0.9984,No,Cruise
Environment_1,CM,8.624,0.517,8.436,0.109,2.494,0.631,0.229,0.757,0.956,6.092,7.609,0.0967,0.1186,,,No,0.9534,0.9476,0.9858,No,Cruise
Environment_1,CM,9.972,0.517,8.764,0.087,2.505,0.103,-0.275,1.509,1.021,5.944,7.52,0.1031,0.1314,,,No,0.9512,0.9662,0.9736,No,Cruise
Environment_1,CM,7.93,0.517,4.382,0.11,2.49,0.718,-0.064,1.584,0.978,6.13,7.571,0.1026,0.1114,,,No,0.9509,0.9454,0.9824,No,Cruise
Environment_1,CM,9.041,0.517,6.413,0.123,2.513,0.453,0.108,2.111,1.028,6.272,7.545,0.077,0.1321,,,No,0.9524,0.949,0.987,No,Cruise
Environment_1,CM,9.69,0.517,7.405,0.126,2.491,0.459,-0.057,1.356,1.004,6.105,7.465,0.0912,0.1395,,,No,0.9548,0.9454,0.9905,No,Cruise
Environment_1,CM,7.503,0.517,7.792,0.066,2.51,0.203,-0.004,1.231,1.006,5.957,7.431,0.1093,0.0873,,,No,0.9668,0.9498,0.9854,No,Cruise
Environment_1,CM,9.117,0.517,4.947,0.119,2.482,0.281,-0.442,1.641,0.987,6.065,7.499,0.0913,0.0912,,,No,0.9705,0.9541,0.992,No,Cruise
Environment_1,CM,9.711,0.517,5.904,0.15,2.493,0.707,-0.107,2.26,1.021,5.995,7.417,0.1244,0.1152,,,No,0.967,0.9539,0.9928,No,Cruise
Environment_1,CM,10.608,0.517,6.157,0.128,2.48,0.424,-0.087,2.284,1.025,5.938,7.275,0.1474,0.1232,,,No,0.9621,0.96,0.9872,No,Cruise
Environment_1,CM,9.908,0.517,8.339,0.118,2.52,0.494,-0.178,1.444,0.977,5.943,7.326,0.1062,0.0967,,,No,0.9783,0.9524,0.9872,No,Cruise
Environment_1,CM,7.969,0.517,6.544,0.113,2.501,-0.013,-0.127,1.721,0.996,5.932,7.326,0.114,0.0696,,,No,0.9796,0.9441,0.9985,No,Cruise
Environment_1,CM,8.832,0.517,9.712,0.121,2.506,0.045,-0.036,2.396,0.994,5.736,7.367,0.1162,0.0926,,,No,0.9636,0.9557,0.9945,No,Cruise
Environment_1,CM,8.058,0.517,14.168,0.118,2.525,-0.165,0.124,2.138,0.973,5.78,7.526,0.0785,0.0694,,,No,0.9624,0.9626,0.9943,No,Cruise
Environment_1,CM,7.952,0.517,11.206,0.135,2.494,0.444,-0.202,2.64,1.005,5.902,7.457,0.0987,0.0662,,,No,0.9612,0.9516,0.9777,No,Cruise
Environment_1,CM,5.26,0.517,10.931,0.154,2.528,-0.039,0.236,0.948,0.997,6.095,7.502,0.1109,0.107,,,No,0.9632,0.9525,0.9831,No,Cruise
Environment_1,CM,7.313,0.517,10.348,0.129,2.528,0.483,-0.142,1.733,1.001,6.02,7.643,0.084,0.0746,,,No,0.9702,0.954,0.9759,No,Cruise
Environment_1,CM,7.943,0.517,10.874,0.124,2.496,1.012,0.047,1.723,1.003,5.911,7.458,0.1407,0.08,,,No,0.9591,0.9519,0.9742,No,Cruise
Environment_1,CM,9.928,0.517,11.676,0.053,2.484,0.247,0.196,2.315,0.962,6.066,7.445,0.0992,0.0459,,,No,0.9638,0.9462,0.983,No,Cruise
Environment_1,CM,8.883,0.517,12.485,0.092,2.513,0.67,-0.038,0.605,0.979,6.136,7.386,0.1021,0.0628,,,No,0.9507,0.9411,0.9785,No,Cruise
Environment_1,CM,9.177,0.517,13.41,0.048,2.511,0.433,-0.221,1.101,0.99,6.15,7.435,0.1026,0.111,,,No,0.9433,0.9476,0.977,No,Cruise
Environment_1,CM,10.664,0.517,13.538,0.051,2.509,0.502,-0.003,1.061,1.006,6.098,7.443,0.0895,0.1315,,,No,0.9586,0.9422,0.9828,No,Cruise
Environment_1,CM,9.775,0.517,12.798,0.076,2.489,0.72,0.343,0.408,0.999,5.935,7.227,0.1033,0.1293,,,No,0.9466,0.9487,0.9808,No,Cruise
Environment_1,CM,11.418,0.517,14.544,0.117,2.506,0.829,0.31,2.06,1.018,6.023,7.353,0.108,0.1324,,,No,0.9505,0.9485,0.9856,No,Cruise
Environment_1,CM,9.766,0.517,13.868,0.131,2.518,0.304,0.336,0.221,0.987,6.184,7.161,0.1334,0.1338,,,No,0.9453,0.944,0.9802,No,Cruise
Environment_1,CM,11.65,0.517,10.31,0.119,2.488,0.237,0.102,0.188,0.984,5.973,7.09,0.1033,0.1826,,,No,0.9511,0.9585,0.9885,No,Cruise
Environment_1,CM,11.646,0.517,7.883,0.124,2.505,0.11,0.06,1.429,0.993,5.827,7.244,0.1403,0.1793,,,No,0.948,0.9577,0.9931,No,Cruise
Environment_1,CM,12.806,0.517,11.153,0.118,2.485,0.34,0.085,1.525,0.996,5.98,7.263,0.1414,0.1331,,,No,0.958,0.9563,0.9753,No,Cruise
Environment_1,CM,11.665,0.517,10.976,0.067,2.488,0.039,0.158,0.851,0.974,5.961,7.165,0.1366,0.1003,,,No,0.9499,0.9585,0.9677,No,Cruise
Environment_1,CM,7.482,0.517,11.374,0.096,2.512,0.182,-0.11,1.758,1.018,6.139,7.431,0.1168,0.0529,,,No,0.9505,0.965,0.9742,No,Cruise
Environment_1,CM,10.326,0.517,11.772,0.087,2.514,0.142,0.004,1.007,0.989,6.142,7.268,0.0987,0.0682,,,No,0.9443,0.9453,0.9854,No,Cruise
Environment_1,CM,12.869,0.517,11.057,0.094,2.508,0.33,0.185,1.327,0.998,5.764,7.369,0.098,0.067,,,No,0.9545,0.9389,0.9809,No,Cruise
Environment_1,CM,12.37,0.517,11.862,0.094,2.503,0.055,-0.107,0.408,0.992,5.928,7.56,0.0879,0.0823,,,No,0.9429,0.9466,0.9819,No,Cruise
Environment_1,CM,12.361,0.517,12.132,0.113,2.518,0.202,-0.119,0.802,0.969,5.992,7.358,0.1083,0.1122,,,No,0.9624,0.9559,0.9766,No,Cruise
Environment_1,CM,12.809,0.517,12.342,0.075,2.506,0.59,0.096,1.548,0.991,5.879,7.361,0.0948,0.0975,,,No,0.9544,0.9483,0.988,No,Cruise
Environment_1,CM,9.015,0.517,9.776,0.074,2.508,0.16,-0.255,1.222,0.97,6.026,7.323,0.1147,0.1032,,,No,0.9543,0.9505,1.0027,No,Cruise
Environment_1,CM,6.117,0.517,11.349,0.051,2.509,0.329,0.007,1.262,1.041,6.112,7.298,0.0878,0.0565,,,No,0.9434,0.9513,0.9948,No,Cruise
Environment_1,CM,12.615,0.517,10.377,0.045,2.491,0.596,0.074,0.342,0.993,6.277,7.562,0.0752,0.0525,,,No,0.9568,0.9532,1.0028,No,Cruise
Environment_1,CM,13.542,0.517,12.701,0.057,2.507,0.166,0.273,0.779,0.975,5.906,7.47,0.0827,0.0747,,,No,0.9565,0.9484,0.9947,No,Cruise
Environment_1,CM,13.171,0.517,12.08,0.016,2.527,0.341,0.168,0.859,0.964,5.881,7.528,0.0871,0.0459,,,No,0.9398,0.9439,0.9922,No,Cruise
Environment_1,CM,17.55,0.517,12.489,0.018,2.49,0.381,0.016,1.424,1.008,5.892,7.63,0.0797,0.071,,,No,0.9432,0.9444,0.9991,No,Cruise
Environment_1,CM,16.172,0.517,13.087,0.022,2.486,0.71,-0.294,1.04,1.009,5.959,7.571,0.0638,0.0753,,,No,0.9457,0.9517,0.9956,No,Cruise
Environment_1,CM,11.084,0.517,11.843,0.053,2.489,0.18,-0.246,0.593,0.996,5.978,7.417,0.0697,0.118,,,No,0.941,0.9543,0.9942,No,Cruise
Environment_1,CM,12.48,0.517,16.267,0.077,2.474,0.221,-0.043,1.54,0.996,5.927,7.579,0.0727,0.0855,,,No,0.9429,0.9537,0.9834,No,Cruise
Environment_1,CM,13.393,0.517,15.632,0.065,2.496,0.762,-0.4,1.596,0.967,5.853,7.605,0.0925,0.0861,,,No,0.942,0.9556,0.9787,No,Cruise
Environment_1,CM,12.782,0.517,13.342,0.035,2.489,0.743,-0.137,0.807,0.999,5.746,7.383,0.101,0.08,,,No,0.9426,0.9543,0.9786,No,Cruise
Environment_1,CM,12.685,0.517,13.461,0.089,2.501,0.124,0.142,0.192,1.002,6.083,7.506,0.0746,0.0782,,,No,0.9423,0.9511,0.9868,No,Cruise
Environment_1,CM,14.661,0.517,11.3,0.059,2.521,-0.022,0.173,0.941,0.967,6.148,7.575,0.0586,0.0508,,,No,0.9455,0.9555,0.9767,No,Cruise
Environment_1,CM,17.927,0.517,12.497,0.055,2.494,0.479,0.215,1.608,1.016,5.926,7.391,0.0594,0.0716,,,No,0.9513,0.95,0.976,No,Cruise
Environment_1,CM,15.481,0.517,15.404,0.057,2.529,0.022,0.005,-0.002,1.009,6.073,7.417,0.0449,0.0514,,,No,0.9458,0.9476,0.975,No,Cruise
Environment_1,CM,13.505,0.517,16.242,0.054,2.507,0.277,-0.045,0.532,0.988,6.236,7.412,0.0889,0.0276,,,No,0.9451,0.9568,0.9701,No,Cruise
Environment_1,CM,17.362,0.517,12.264,0.061,2.494,0.365,0.09,0.311,1.0,6.318,7.619,0.0594,0.0875,,,No,0.9533,0.9607,0.974,No,Cruise
Environment_1,CM,16.045,0.517,13.317,0.109,2.481,-0.089,-0.073,1.238,0.993,6.085,7.415,0.1082,0.0865,,,No,0.9476,0.9491,0.9788,No,Cruise
Environment_1,CM,15.001,0.517,13.72,0.106,2.499,0.361,0.201,1.64,1.008,6.168,7.476,0.0984,0.0791,,,No,0.9579,0.9649,0.9865,No,Cruise
Environment_1,CM,15.145,0.517,15.606,0.133,2.505,-0.232,-0.192,-0.592,0.999,6.085,7.458,0.059,0.0541,,,No,0.9544,0.9644,0.9722,No,Cruise
Environment_1,CM,14.977,0.517,18.789,0.107,2.514,0.37,0.117,-0.37,0.968,5.914,7.349,0.0636,0.0527,,,No,0.9441,0.955,0.979,No,Cruise
Environment_1,CM,14.437,0.517,18.166,0.066,2.487,0.472,-0.111,1.143,0.99,5.812,7.36,0.0791,0.07,,,No,0.9616,0.9592,0.9791,No,Cruise
Environment_1,CM,10.116,0.517,18.983,0.033,2.512,-0.116,0.181,1.194,0.994,6.025,7.385,0.0494,0.0697,,,No,0.9447,0.9575,0.9909,No,Cruise
Environment_1,CM,11.408,0.517,12.778,0.087,2.488,0.255,-0.446,0.781,0.995,6.082,7.541,0.0866,0.0778,,,No,0.9491,0.9454,0.9801,No,Cruise
Environment_1,CM,9.47,0.517,12.052,0.104,2.494,0.412,0.212,-0.603,0.986,6.021,7.412,0.0818,0.0374,,,No,0.9474,0.9379,0.9841,No,Cruise
Environment_1,CM,11.465,0.517,11.94,0.086,2.485,0.351,0.117,1.069,0.979,6.123,7.48,0.0817,0.0231,,,No,0.9387,0.9457,0.9852,No,Cruise
Environment_1,CM,11.462,0.517,12.669,0.059,2.506,-0.38,0.368,0.287,1.004,6.173,7.435,0.0612,0.0043,,,No,0.9393,0.9453,0.9797,No,Cruise
Environment_1,CM,14.874,0.517,12.982,0.091,2.485,0.013,-0.12,1.033,0.996,6.264,7.465,0.0843,0.0484,,,No,0.9449,0.9467,0.982,No,Cruise
Environment_1,CM,13.817,0.517,13.146,0.102,2.51,0.767,0.399,1.09,0.996,6.252,7.583,0.0808,0.0826,,,No,0.9352,0.9514,0.9842,No,Cruise
Environment_1,CM,15.335,0.517,11.323,0.074,2.484,-0.296,0.195,0.899,0.99,6.07,7.553,0.0819,0.1238,,,No,0.9476,0.9379,0.9844,No,Cruise
Environment_1,CM,11.658,0.517,13.542,0.057,2.487,0.314,-0.17,1.026,1.022,6.072,7.622,0.0872,0.1292,,,No,0.9426,0.9427,0.9804,No,Cruise
Environment_1,CM,10.63,0.517,14.9,0.066,2.503,0.059,-0.425,0.631,0.997,6.084,7.46,0.0753,0.094,,,No,0.935,0.9418,0.9824,No,Cruise
Environment_1,CM,13.462,0.517,16.733,0.05,2.513,-0.015,-0.037,0.205,1.004,6.165,7.549,0.0832,0.0432,,,No,0.9333,0.9354,0.9831,No,Cruise
Environment_1,CM,16.818,0.517,14.83,0.035,2.489,0.828,-0.104,0.475,0.955,6.283,7.49,0.0674,0.0466,,,No,0.9416,0.94,0.9917,No,Cruise
Environment_1,CM,16.762,0.517,14.873,0.024,2.493,0.202,0.046,0.737,0.996,6.093,7.564,0.0528,0.0398,,,No,0.9418,0.9481,0.99,No,Cruise
Environment_1,CM,15.093,0.517,15.435,0.048,2.475,-0.333,0.249,-0.062,0.953,6.109,7.643,0.0335,0.0,,,No,0.9389,0.9455,0.9849,No,Cruise
Environment_1,CM,15.86,0.517,18.568,0.059,2.514,-0.161,-0.191,0.645,1.02,6.153,7.58,0.0246,0.0,,,No,0.9404,0.9464,0.9931,No,Cruise
Environment_1,CM,18.577,0.517,17.507,0.006,2.483,0.164,0.341,0.723,0.987,6.24,7.616,0.0211,0.0243,,,No,0.946,0.9368,0.9953,No,Cruise
Environment_1,CM,18.45,0.517,18.788,0.025,2.497,0.563,-0.239,-0.074,0.992,6.213,7.428,0.0239,0.0221,,,No,0.9459,0.9432,0.9996,No,Cruise
Environment_1,CM,17.058,0.517,16.574,0.052,2.484,-0.103,0.076,0.675,0.976,6.274,7.592,0.0265,0.0661,,,No,0.9343,0.9471,0.9905,No,Cruise
Environment_1,CM,15.429,0.517,12.802,0.049,2.495,0.398,-0.036,0.639,0.975,6.294,7.572,0.0045,0.0604,,,No,0.9339,0.9494,0.9763,No,Cruise
Environment_1,CM,14.441,0.517,15.006,0.076,2.486,-0.121,-0.09,-0.11,0.998,6.411,7.636,0.0136,0.0884,,,No,0.9343,0.9507,0.9843,No,Cruise
Environment_1,CM,17.573,0.517,16.975,0.087,2.51,-0.286,-0.351,0.197,1.021,6.436,7.481,0.0531,0.0091,,,No,0.9396,0.9454,0.9794,No,Cruise
Environment_1,CM,16.8,0.517,14.862,0.081,2.504,0.492,-0.043,0.612,0.982,6.302,7.572,0.0542,0.0262,,,No,0.9422,0.9528,0.9762,No,Cruise
Environment_1,CM,17.742,0.517,19.259,0.082,2.494,0.033,-0.157,-0.09,0.998,6.126,7.457,0.0673,0.0,,,No,0.9434,0.9545,0.981,No,Cruise
Environment_1,CM,16.98,0.517,16.307,0.063,2.495,-0.518,0.041,0.365,0.999,6.208,7.427,0.0171,0.0,,,No,0.9272,0.9533,0.9867,No,Cruise
Environment_1,CM,16.396,0.517,15.941,0.097,2.514,0.207,0.023,-0.694,0.978,6.15,7.461,0.0663,0.0,,,No,0.9383,0.9505,0.9848,No,Cruise
Environment_1,CM,14.532,0.517,16.443,0.07,2.472,0.238,0.247,-0.279,0.995,6.334,7.506,0.0472,0.0,,,No,0.9555,0.9465,0.976,No,Cruise
Environment_1,CM,13.619,0.517,19.613,0.095,2.518,-0.003,-0.051,0.003,0.988,6.245,7.329,0.0126,0.0,,,No,0.9456,0.9467,0.9852,No,Cruise
Environment_1,CM,13.326,0.517,19.589,0.055,2.481,-0.138,-0.079,1.143,1.018,6.441,7.87,0.0372,0.0,,,No,0.9298,0.9609,1.0016,No,Cruise
Environment_1,CM,13.948,0.517,21.404,0.099,2.516,-0.227,0.051,0.047,1.018,6.265,7.777,0.0211,0.0035,,,No,0.9396,0.9527,1.0078,No,Cruise
Environment_1,CM,13.171,0.517,17.546,0.042,2.494,0.272,-0.064,-0.65,0.987,6.262,7.446,0.0419,0.0522,,,No,0.9311,0.9462,0.9854,No,Cruise
Environment_1,CM,16.062,0.517,15.801,-0.002,2.48,-0.436,-0.026,0.586,1.013,6.347,7.509,0.0,0.0623,,,No,0.9382,0.9418,0.9977,No,Cruise
Environment_1,CM,14.788,0.517,14.856,0.001,2.467,-0.377,0.043,-0.887,1.018,6.094,7.392,0.0107,0.0811,,,No,0.9466,0.9445,0.9862,No,Cruise
Environment_1,CM,16.252,0.517,15.2,-0.006,2.495,-0.112,0.01,-1.098,1.002,6.041,7.272,0.0,0.0458,,,No,0.9308,0.958,0.9766,No,Cruise
Environment_1,CM,14.001,0.517,17.563,0.035,2.501,-0.068,0.291,0.015,0.992,5.915,7.565,0.0,0.0211,,,No,0.9376,0.9518,0.9853,No,Cruise
Environment_1,CM,13.381,0.517,17.88,0.056,2.49,-0.394,0.109,0.2,1.03,6.204,7.537,0.0,0.016,,,No,0.9531,0.9487,0.9933,No,Cruise
Environment_1,CM,18.409,0.517,16.411,0.057,2.496,0.031,-0.378,-0.714,0.982,6.019,7.427,0.006,0.0146,,,No,0.9408,0.9301,0.9678,No,Cruise
Environment_1,CM,20.642,0.517,14.063,0.045,2.505,-0.308,0.113,-0.669,0.966,5.912,7.075,0.0285,0.0234,,,No,0.934,0.9267,0.9553,No,Cruise
Environment_1,CM,20.32,0.517,15.024,0.061,2.475,0.618,-0.271,0.148,1.011,5.819,7.108,0.0331,0.043,,,No,0.9235,0.9227,0.9332,No,Cruise
Environment_1,CM,19.181,0.517,12.502,0.073,2.475,0.066,-0.038,1.815,1.01,5.62,6.952,0.0644,0.0609,,,No,0.9345,0.9215,0.9176,No,Cruise
Environment_1,CM,20.344,0.517,14.073,0.043,2.496,0.301,-0.051,1.397,1.009,5.661,7.094,0.1042,0.0637,,,No,0.922,0.9304,0.9339,No,Cruise
Environment_1,CM,22.195,0.517,15.286,0.082,2.531,0.788,0.349,0.469,1.001,5.596,7.144,0.0934,0.0913,,,No,0.9294,0.9223,0.9474,No,Cruise
Environment_1,CM,20.757,0.517,17.002,0.064,2.478,0.505,0.09,-0.299,0.974,5.601,7.111,0.0756,0.0842,,,No,0.9346,0.9238,0.9293,No,Cruise
Environment_1,CM,22.317,0.517,18.496,0.097,2.522,0.91,-0.16,0.691,0.967,5.601,6.981,0.0852,0.1082,,,No,0.9143,0.9317,0.913,No,Cruise
Environment_1,CM,21.773,0.517,21.107,0.099,2.52,0.828,-0.005,-0.656,1.002,5.29,6.885,0.0909,0.0577,,,No,0.9086,0.9167,0.9048,No,Cruise
Environment_1,CM,17.999,0.517,23.377,0.155,2.539,0.579,-0.142,2.03,1.027,5.169,6.799,0.0929,0.0598,,,No,0.8911,0.8966,0.8916,No,Cruise
Environment_1,CM,21.088,0.517,21.082,0.221,2.507,1.394,0.117,2.789,0.998,4.911,6.351,0.1599,0.07,,,No,0.8746,0.8878,0.8732,No,Cruise
Environment_1,CM,17.749,0.517,21.008,0.237,2.496,1.291,-0.265,3.27,1.011,4.793,6.258,0.1836,0.1452,,,No,0.8823,0.8961,0.8629,No,Cruise
Environment_1,CM,18.344,0.517,15.452,0.216,2.521,1.151,0.11,2.224,0.967,4.775,6.189,0.2451,0.1251,,,No,0.8879,0.9074,0.857,No,Cruise
Environment_1,CM,19.754,0.517,17.193,0.263,2.492,1.016,-0.006,4.358,0.988,4.491,5.918,0.2919,0.1672,,,No,0.8773,0.8925,0.8689,No,Cruise
Environment_1,CM,18.928,0.517,19.009,0.256,2.494,1.251,-0.053,3.845,1.037,4.561,6.232,0.328,0.1854,,,No,0.8701,0.8933,0.8625,No,Cruise
Environment_1,CM,19.475,0.517,18.25,0.312,2.504,1.674,0.133,4.831,1.002,4.198,5.689,0.3462,0.2275,Human,,Yes,0.8592,0.8966,0.7995,No,Avoidance
Environment_1,CM,18.641,0.517,18.182,0.364,2.487,2.704,0.011,5.853,0.975,4.154,5.362,0.4045,0.2633,Human,,Yes,0.8629,0.8888,0.8026,No,Avoidance
Environment_1,CM,21.269,0.517,15.955,0.345,2.509,2.514,0.34,6.521,0.985,3.791,5.15,0.3921,0.3054,Human,,Yes,0.8497,0.8882,0.8224,No,Avoidance
Environment_1,CM,20.228,0.517,16.391,0.424,2.48,2.708,-0.006,4.898,0.974,3.807,5.371,0.44,0.3464,Human,,Yes,0.8483,0.8974,0.792,No,Avoidance
Environment_1,CM,18.731,0.517,17.675,0.461,2.501,2.2,-0.032,7.224,0.989,3.763,5.1,0.4625,0.4002,Human,,Yes,0.8435,0.8898,0.8027,No,Avoidance
Environment_1,CM,18.538,0.517,18.557,0.51,2.48,3.35,0.061,5.383,0.987,3.587,5.049,0.4964,0.4313,Human,,Yes,0.8349,0.8886,0.8152,No,Avoidance
Environment_1,CM,15.686,0.517,20.673,0.557,2.48,3.411,0.253,6.288,1.005,3.539,5.009,0.5568,0.4163,Human,,Yes,0.8466,0.9108,0.8097,No,Avoidance
Environment_1,CM,18.592,0.517,20.022,0.565,2.519,2.91,0.028,6.806,1.029,3.723,4.959,0.5922,0.4154,Human,,Yes,0.8368,0.9013,0.8342,No,Avoidance
Environment_1,CM,21.106,0.517,18.221,0.62,2.499,3.046,0.101,8.392,1.004,3.589,4.873,0.5912,0.4482,Human,,Yes,0.8307,0.8941,0.8249,No,Avoidance
Environment_1,CM,22.403,0.517,20.587,0.603,2.532,2.746,0.198,7.321,1.016,3.617,4.926,0.5849,0.4571,Human,,Yes,0.8159,0.9095,0.8328,No,Avoidance
Environment_1,CM,19.785,0.517,18.455,0.588,2.513,3.372,-0.063,7.207,0.976,3.463,5.101,0.5966,0.4773,Human,,Yes,0.8111,0.8874,0.8239,No,Avoidance
Environment_1,CM,19.651,0.517,18.622,0.654,2.519,3.249,0.173,8.857,0.97,3.437,5.099,0.6257,0.5142,Human,,Yes,0.8102,0.906,0.8135,No,Avoidance
Environment_1,CM,19.224,0.517,18.651,0.614,2.456,3.543,0.374,8.424,0.995,3.446,5.122,0.6304,0.5051,Human,,Yes,0.8051,0.9031,0.8053,No,Avoidance
Environment_1,CM,21.22,0.517,21.664,0.559,2.487,2.89,0.315,6.555,0.99,3.454,5.003,0.636,0.5437,Human,,Yes,0.7986,0.8921,0.7996,No,Avoidance
Environment_1,CM,20.056,0.517,21.575,0.629,2.51,3.207,-0.248,8.058,0.995,3.557,5.024,0.6245,0.5578,Human,,Yes,0.802,0.9033,0.8243,No,Avoidance
Environment_1,CM,18.895,0.517,21.375,0.601,2.519,3.22,-0.252,7.89,0.992,3.358,4.78,0.626,0.5368,Human,,Yes,0.8021,0.9097,0.832,No,Avoidance
Environment_1,CM,16.995,0.517,18.46,0.581,2.53,3.419,0.066,8.837,0.98,3.363,4.771,0.5983,0.509,Human,,Yes,0.7974,0.9033,0.859,No,Avoidance
Environment_1,CM,15.368,0.517,20.519,0.597,2.502,3.116,0.281,9.35,0.992,3.182,4.756,0.6078,0.5079,Human,,Yes,0.789,0.8813,0.818,No,Avoidance
Environment_1,CM,17.142,0.517,20.671,0.615,2.491,3.151,-0.299,11.664,1.016,3.547,5.198,0.5985,0.4794,Human,,Yes,0.7889,0.885,0.7968,No,Avoidance
Environment_1,CM,16.401,0.517,19.81,0.569,2.508,3.536,-0.168,8.882,1.002,3.38,5.173,0.5653,0.4048,Human,,Yes,0.7718,0.8814,0.8175,No,Avoidance
Environment_1,CM,17.972,0.517,19.793,0.574,2.495,2.704,0.203,8.735,1.015,3.542,5.12,0.5867,0.4235,Human,,Yes,0.7798,0.8733,0.7962,No,Avoidance
Environment_1,CM,19.233,0.517,21.696,0.584,2.51,3.161,-0.093,7.194,0.979,3.454,5.249,0.5749,0.3553,Human,,Yes,0.7709,0.8619,0.8224,No,Avoidance
Environment_1,CM,19.375,0.517,20.893,0.548,2.498,2.406,-0.405,6.689,1.009,3.424,5.294,0.5505,0.368,Human,,Yes,0.7815,0.8557,0.8364,No,Avoidance
Environment_1,CM,20.683,0.517,21.161,0.473,2.468,2.227,0.208,6.307,0.965,3.57,5.376,0.4834,0.3391,Human,,Yes,0.7903,0.8641,0.8179,No,Avoidance
Environment_1,CM,19.995,0.517,19.089,0.44,2.484,1.609,-0.1,7.288,0.99,3.85,5.554,0.4567,0.331,Human,,Yes,0.8194,0.8748,0.8317,No,Avoidance
Environment_1,CM,19.926,0.517,17.579,0.368,2.515,2.254,-0.251,4.997,1.012,3.938,5.464,0.405,0.3208,Human,,Yes,0.8122,0.8838,0.8367,No,Avoidance
Environment_1,CM,18.541,0.517,21.536,0.338,2.511,1.878,0.34,5.224,1.0,4.282,5.706,0.4037,0.2746,Human,,Yes,0.8066,0.8668,0.8217,No,Avoidance
Environment_1,CM,18.04,0.517,22.779,0.331,2.476,1.619,-0.427,6.118,1.004,4.184,5.649,0.367,0.2181,Human,,Yes,0.8134,0.8549,0.8449,No,Avoidance
Environment_1,CM,16.974,0.517,22.358,0.286,2.494,1.393,-0.031,2.694,1.0,4.528,5.744,0.3253,0.1861,Human,,Yes,0.8077,0.8583,0.8229,No,Avoidance
Environment_1,CM,18.464,0.517,21.35,0.249,2.495,1.629,-0.251,2.671,1.013,4.609,5.91,0.2906,0.1496,Human,,Yes,0.8056,0.8554,0.8293,No,Avoidance
Environment_1,CM,19.911,0.517,26.318,0.25,2.515,1.212,0.149,2.954,0.995,4.545,6.069,0.2506,0.1288,Human,,Yes,0.8129,0.8587,0.8583,No,Avoidance
Environment_1,CM,20.829,0.517,25.994,0.179,2.505,0.591,0.047,2.073,0.972,4.589,6.031,0.2098,0.1247,Human,,Yes,0.8123,0.8608,0.8262,No,Avoidance
Environment_1,CM,22.133,0.517,22.205,0.154,2.498,0.289,-0.317,1.545,1.004,4.838,6.456,0.1831,0.0906,Human,,Yes,0.83,0.8703,0.8531,No,Avoidance
Environment_1,CM,20.789,0.517,19.334,0.125,2.511,0.29,-0.137,-0.579,0.971,4.704,6.531,0.182,0.1394,Human,,Yes,0.8333,0.8554,0.8626,No,Avoidance
Environment_1,CM,19.08,0.517,20.585,0.075,2.49,0.515,-0.009,1.474,0.954,5.072,6.571,0.1306,0.0847,Human,,Yes,0.8677,0.8842,0.8812,No,Avoidance
Environment_1,CM,20.741,0.517,18.815,0.025,2.472,-0.215,0.29,0.011,0.998,5.209,6.704,0.1165,0.1057,Human,,Yes,0.8598,0.8938,0.8834,No,Avoidance
Environment_1,CM,20.442,0.517,21.335,-0.022,2.504,-0.321,0.067,0.357,0.998,5.067,6.47,0.1028,0.1031,Human,,Yes,0.8602,0.8854,0.8982,No,Avoidance
Environment_1,CM,19.322,0.517,23.959,-0.039,2.509,-0.352,-0.054,-0.96,1.001,5.345,6.643,0.0687,0.1101,Human,,Yes,0.8893,0.9004,0.9321,No,Avoidance
Environment_1,CM,22.261,0.517,25.471,-0.072,2.491,-0.939,0.011,-1.304,0.993,5.614,6.814,0.0837,0.0547,Human,,Yes,0.9094,0.9126,0.9371,No,Avoidance
Environment_1,CM,25.227,0.517,23.743,-0.087,2.514,-0.783,-0.321,-0.635,0.978,5.76,7.112,0.0647,0.0818,,,No,0.9279,0.9364,0.96,No,Cruise
Environment_1,CM,25.75,0.517,22.347,-0.121,2.5,-0.316,0.177,-0.452,0.985,5.811,7.189,0.0571,0.0636,,,No,0.9284,0.9412,0.9695,No,Cruise
Environment_1,CM,23.048,0.517,22.927,-0.105,2.487,-0.763,-0.081,-0.189,1.002,6.135,7.419,0.0688,0.0601,,,No,0.9468,0.9554,0.9829,No,Cruise
Environment_1,CM,22.091,0.517,24.716,-0.092,2.473,-0.135,-0.323,-0.297,1.0,6.197,7.552,0.0795,0.067,,,No,0.9411,0.9477,0.9782,No,Cruise
Environment_1,CM,24.087,0.517,22.824,-0.123,2.504,0.023,-0.12,-0.29,1.009,6.109,7.377,0.0683,0.0706,,,No,0.9476,0.9517,0.9886,No,Cruise
Environment_1,CM,23.524,0.517,24.437,-0.134,2.482,-0.333,-0.196,-1.128,1.044,6.236,7.378,0.1208,0.0059,,,No,0.9508,0.9534,0.9874,No,Cruise
Environment_1,CM,23.93,0.517,22.887,-0.121,2.514,-0.941,0.012,-1.569,1.019,6.243,7.457,0.1239,0.0418,,,No,0.9411,0.9655,0.9758,No,Cruise
Environment_1,CM,25.975,0.517,22.07,-0.084,2.482,-0.913,0.104,-2.012,1.036,6.039,7.228,0.1266,0.0749,,,No,0.9371,0.9619,0.9767,No,Cruise
Environment_1,CM,25.354,0.517,21.568,-0.113,2.506,-0.47,0.063,-2.629,1.021,5.957,7.39,0.1204,0.0699,,,No,0.9407,0.9503,0.9776,No,Cruise
Environment_1,CM,23.839,0.517,20.948,-0.116,2.498,-0.638,-0.357,-2.852,0.983,6.104,7.464,0.1296,0.0579,,,No,0.9425,0.9521,0.9767,No,Cruise
Environment_1,CM,23.514,0.517,22.861,-0.1,2.509,-0.641,0.097,-2.288,1.007,5.913,7.415,0.1119,0.0604,,,No,0.9492,0.9652,0.9933,No,Cruise
Environment_1,CM,22.106,0.517,23.832,-0.118,2.504,-0.153,0.359,-2.0,0.992,5.79,7.559,0.1021,0.0723,,,No,0.9514,0.9558,0.9944,No,Cruise
Environment_1,CM,24.309,0.517,26.131,-0.121,2.515,-0.328,-0.081,0.188,1.0,5.92,7.637,0.1091,0.0462,,,No,0.953,0.9603,0.9844,No,Cruise
Environment_1,CM,21.833,0.517,25.819,-0.139,2.476,-0.697,0.363,-1.084,1.043,6.035,7.548,0.11,0.0852,,,No,0.9633,0.9624,0.9685,No,Cruise
Environment_1,CM,25.312,0.517,25.404,-0.175,2.511,-0.91,0.084,-1.487,1.031,6.069,7.46,0.11,0.0936,,,No,0.9635,0.9679,0.9697,No,Cruise
Environment_1,CM,24.91,0.517,24.948,-0.13,2.515,-0.482,-0.218,-1.066,1.002,6.313,7.736,0.1105,0.0836,,,No,0.952,0.9742,0.9693,No,Cruise
Environment_1,CM,25.912,0.517,22.532,-0.155,2.518,-0.367,-0.076,0.022,0.991,6.375,7.619,0.1276,0.0777,,,No,0.9544,0.9714,0.9681,No,Cruise
Environment_1,CM,24.984,0.517,19.644,-0.154,2.524,-0.531,0.083,-0.329,0.984,6.196,7.684,0.1206,0.0755,,,No,0.9464,0.9599,0.9843,No,Cruise
Environment_1,CM,23.216,0.517,21.874,-0.177,2.488,-0.676,0.09,0.517,1.005,6.128,7.636,0.132,0.0397,,,No,0.953,0.9555,0.9887,No,Cruise
Environment_1,CM,28.028,0.517,25.474,-0.151,2.482,-0.404,-0.048,-0.416,0.997,6.321,7.578,0.1057,0.0414,,,No,0.9557,0.9568,0.9835,No,Cruise
Environment_1,CM,27.874,0.517,27.84,-0.149,2.478,-0.307,-0.46,-1.615,1.013,6.244,7.35,0.0752,0.0298,,,No,0.9572,0.963,0.9801,No,Cruise
Environment_1,CM,28.867,0.517,26.962,-0.091,2.472,-0.762,-0.104,-1.937,0.994,6.284,7.253,0.0483,0.0,,,No,0.9589,0.9612,0.9865,No,Cruise
Environment_1,CM,28.245,0.517,26.83,-0.122,2.495,-0.303,0.12,-1.231,1.021,5.986,7.302,0.0955,0.0164,,,No,0.9635,0.9667,0.9964,No,Cruise
Environment_1,CM,27.357,0.517,25.841,-0.127,2.482,0.07,-0.073,-1.696,0.995,6.09,7.325,0.116,0.0528,,,No,0.9542,0.9544,0.9943,No,Cruise
Environment_1,CM,29.067,0.517,26.324,-0.094,2.501,-0.622,-0.039,0.045,1.0,6.135,7.312,0.1097,0.0019,,,No,0.945,0.9581,0.9825,No,Cruise
Environment_1,CM,30.248,0.517,25.461,-0.125,2.53,-0.381,0.089,-0.841,0.992,5.821,7.238,0.1048,0.0505,,,No,0.9722,0.9569,0.9775,No,Cruise
Environment_1,CM,26.297,0.517,28.456,-0.146,2.511,-0.135,0.017,-2.456,0.999,5.8,7.422,0.0903,0.055,,,No,0.9687,0.9571,0.974,No,Cruise
Environment_1,CM,25.382,0.517,26.734,-0.14,2.498,0.393,0.235,-2.186,0.99,5.884,7.478,0.1044,0.0878,,,No,0.9623,0.9592,0.9689,No,Cruise
Environment_1,CM,25.452,0.517,25.73,-0.124,2.513,0.003,0.144,-1.773,1.019,6.004,7.415,0.1185,0.104,,,No,0.9556,0.9606,0.9668,No,Cruise
Environment_1,CM,24.838,0.517,27.404,-0.118,2.502,-1.068,0.259,-2.163,0.972,6.102,7.423,0.103,0.1065,,,No,0.9565,0.9591,0.9737,No,Cruise
Environment_1,CM,28.241,0.517,27.945,-0.176,2.49,-0.458,-0.184,-0.919,1.025,5.906,7.354,0.0938,0.1263,,,No,0.9535,0.9581,0.9893,No,Cruise
Environment_1,CM,29.243,0.517,23.044,-0.155,2.489,-1.067,0.02,-1.647,0.975,6.027,7.207,0.1092,0.1034,,,No,0.9583,0.9663,0.9971,No,Cruise
Environment_1,CM,29.131,0.517,25.126,-0.135,2.489,-0.93,0.055,-2.599,1.013,6.151,7.336,0.0937,0.0983,,,No,0.9429,0.9654,0.9807,No,Cruise
Environment_1,CM,27.97,0.517,21.769,-0.118,2.512,-0.623,0.016,-0.611,1.015,6.126,7.272,0.0677,0.0871,,,No,0.94,0.9596,0.9856,No,Cruise
Environment_1,CM,28.756,0.517,28.816,-0.129,2.497,-1.251,-0.066,-1.656,1.013,6.176,7.51,0.0752,0.0817,,,No,0.9423,0.9583,0.9829,No,Cruise
Environment_1,CM,28.465,0.517,29.06,-0.11,2.484,-0.394,-0.339,-2.976,0.984,6.034,7.532,0.1099,0.1282,,,No,0.9461,0.9644,0.9838,No,Cruise
Environment_1,CM,27.893,0.517,29.694,-0.135,2.492,-0.163,0.25,-1.153,0.982,5.923,7.452,0.1194,0.0583,,,No,0.96,0.9677,0.9809,No,Cruise
Environment_1,CM,28.708,0.517,28.692,-0.142,2.489,-0.603,0.058,-1.636,1.036,6.0,7.362,0.1103,0.0456,,,No,0.9579,0.9755,0.9694,No,Cruise
Environment_1,CM,26.427,0.517,27.886,-0.127,2.499,-0.788,0.159,-1.846,0.988,6.033,7.242,0.0542,0.0429,,,No,0.9617,0.9867,0.9694,No,Cruise
Environment_1,CM,28.877,0.517,26.939,-0.132,2.516,-0.678,0.065,-2.619,0.978,5.769,7.291,0.0744,0.0158,,,No,0.9561,0.979,0.9766,No,Cruise
Environment_1,CM,26.306,0.517,25.492,-0.118,2.51,-0.266,-0.357,-2.357,1.001,5.955,7.355,0.107,0.0474,,,No,0.9481,0.9767,0.9803,No,Cruise
Environment_1,CM,25.852,0.517,26.0,-0.107,2.49,-0.672,-0.236,-2.248,0.974,5.659,7.276,0.0783,0.0455,,,No,0.9469,0.9742,0.9789,No,Cruise
Environment_1,CM,23.869,0.517,25.143,-0.111,2.487,-0.609,0.034,-1.574,0.995,6.031,7.61,0.1272,0.0459,,,No,0.9579,0.9655,0.9729,No,Cruise
Environment_1,CM,24.142,0.517,26.705,-0.11,2.493,-1.063,-0.121,-0.804,0.985,5.945,7.384,0.123,0.0467,,,No,0.9625,0.9676,0.9761,No,Cruise
Environment_1,CM,24.381,0.517,25.082,-0.124,2.506,-0.441,-0.132,-1.27,0.994,6.021,7.584,0.132,0.0557,,,No,0.9583,0.9622,0.9827,No,Cruise
Environment_1,CM,25.943,0.517,25.924,-0.1,2.514,-1.14,-0.121,-2.713,1.0,6.037,7.44,0.1125,0.0731,,,No,0.9648,0.9592,0.9872,No,Cruise
Environment_1,CM,26.308,0.517,28.396,-0.098,2.49,-1.053,-0.036,-1.519,0.984,6.138,7.552,0.097,0.1141,,,No,0.9577,0.9707,0.9823,No,Cruise
Environment_1,CM,24.73,0.517,27.791,-0.155,2.503,-0.932,-0.469,-2.288,0.954,6.285,7.475,0.1134,0.1483,,,No,0.9553,0.9621,0.9808,No,Cruise
Environment_1,CM,23.73,0.517,26.64,-0.147,2.522,-0.808,-0.125,-3.408,1.009,6.276,7.053,0.142,0.1173,,,No,0.9649,0.9685,0.9887,No,Cruise
Environment_1,CM,24.281,0.517,28.227,-0.133,2.468,-1.14,-0.25,-1.161,1.03,6.122,7.37,0.0895,0.0887,,,No,0.9633,0.9674,0.9882,No,Cruise
Environment_1,CM,26.026,0.517,27.82,-0.164,2.504,-0.586,0.234,-1.695,0.994,6.08,7.537,0.0795,0.0413,,,No,0.9762,0.973,0.9938,No,Cruise
Environment_1,CM,25.276,0.517,28.671,-0.185,2.471,-0.45,0.05,-1.899,0.98,5.831,7.593,0.1174,0.0423,,,No,0.9604,0.977,0.9786,No,Cruise
Environment_1,CM,27.651,0.517,29.771,-0.143,2.485,-0.977,-0.064,-2.065,0.999,6.069,7.395,0.0779,0.0157,,,No,0.9595,0.9699,0.988,No,Cruise
Environment_1,CM,28.482,0.517,28.782,-0.123,2.494,-0.728,-0.136,-1.597,0.978,5.944,7.624,0.0921,0.053,,,No,0.9648,0.9747,0.9864,No,Cruise
Environment_1,CM,27.632,0.517,29.48,-0.155,2.527,-0.217,0.168,-0.392,0.981,6.021,7.468,0.0828,0.0992,,,No,0.9589,0.9668,0.9799,No,Cruise
Environment_1,CM,29.231,0.517,32.351,-0.166,2.492,-0.781,-0.456,-1.519,1.025,5.842,7.449,0.1039,0.0736,,,No,0.9665,0.9631,0.9808,No,Cruise
Environment_1,CM,29.896,0.517,28.75,-0.184,2.496,-1.03,0.294,-2.387,0.988,5.927,7.475,0.1219,0.1005,,,No,0.9663,0.9742,0.991,No,Cruise
Environment_1,CM,31.586,0.517,27.963,-0.172,2.5,0.12,0.194,-2.752,1.011,5.765,7.188,0.1187,0.0966,,,No,0.9588,0.973,0.9845,No,Cruise
Environment_1,CM,29.577,0.517,28.389,-0.113,2.482,-0.873,0.065,-2.313,0.974,5.83,7.182,0.0748,0.0667,,,No,0.9668,0.9628,0.982,No,Cruise
Environment_1,CM,28.996,0.517,28.609,-0.132,2.494,-1.042,-0.303,-2.241,1.023,5.982,7.523,0.0727,0.0822,,,No,0.9653,0.9623,0.9954,No,Cruise
Environment_1,CM,29.417,0.517,29.228,-0.118,2.468,-0.982,-0.082,-1.288,0.995,6.067,7.432,0.0798,0.1021,,,No,0.9572,0.9706,0.9839,No,Cruise
Environment_1,CM,32.704,0.517,29.085,-0.114,2.504,-1.147,-0.029,-1.842,1.023,5.762,7.386,0.089,0.0917,,,No,0.9639,0.9566,0.9892,No,Cruise
Environment_1,CM,34.335,0.517,26.225,-0.112,2.503,-0.879,0.044,-1.441,0.985,5.755,7.327,0.1134,0.0857,,,No,0.9485,0.9438,0.9591,No,Cruise
Environment_1,CM,32.186,0.517,27.518,-0.114,2.506,-0.41,-0.059,-2.606,0.992,5.805,7.176,0.1105,0.0817,,,No,0.9457,0.9363,0.9689,No,Cruise
Environment_1,CM,30.645,0.517,28.6,-0.159,2.51,-0.812,0.105,-2.592,1.002,5.935,7.164,0.1142,0.139,,,No,0.9409,0.9491,0.9643,No,Cruise
Environment_1,CM,30.114,0.517,27.758,-0.17,2.483,-0.889,0.165,-2.416,0.966,5.634,6.904,0.1258,0.1602,,,No,0.9305,0.9308,0.9236,No,Cruise
Environment_1,CM,29.445,0.517,31.279,-0.211,2.508,-1.212,-0.181,-3.372,0.986,5.59,6.935,0.1414,0.147,,,No,0.9362,0.9314,0.9401,No,Cruise
Environment_1,CM,30.475,0.517,29.347,-0.195,2.512,-1.063,0.17,-1.984,1.006,5.437,6.793,0.1631,0.1229,,,No,0.9288,0.9182,0.9362,No,Cruise
Environment_1,CM,29.808,0.517,32.356,-0.217,2.505,-0.772,0.057,-2.257,1.005,5.491,6.954,0.1464,0.1027,,,No,0.9318,0.9158,0.9442,No,Cruise
Environment_1,CM,30.605,0.517,33.188,-0.236,2.504,-1.688,0.199,-3.01,1.004,5.139,6.621,0.1503,0.1562,,,No,0.9183,0.8966,0.8998,No,Cruise
Environment_1,CM,32.068,0.517,32.633,-0.227,2.488,-0.502,-0.358,-3.641,1.014,5.261,6.772,0.1763,0.1339,,,No,0.9225,0.9058,0.8985,No,Cruise
Environment_1,CM,27.496,0.517,32.025,-0.251,2.496,-0.968,0.165,-4.013,1.003,5.279,6.602,0.219,0.1277,,,No,0.9274,0.9082,0.9235,No,Cruise
Environment_1,CM,30.333,0.517,30.632,-0.27,2.5,-1.083,-0.239,-3.489,0.978,4.548,5.767,0.2484,0.1869,Palm_Trunk,,Yes,0.896,0.8582,0.8635,No,Avoidance
Environment_1,CM,31.935,0.517,29.554,-0.314,2.507,-1.196,-0.152,-4.257,0.981,4.511,5.812,0.2965,0.2116,Palm_Trunk,,Yes,0.8987,0.8436,0.8306,No,Avoidance
Environment_1,CM,29.477,0.517,31.708,-0.31,2.528,-1.462,-0.155,-2.086,1.009,4.251,5.407,0.259,0.2229,Palm_Trunk,,Yes,0.8867,0.8425,0.8061,No,Avoidance
Environment_1,CM,31.913,0.517,32.657,-0.332,2.494,-1.698,0.168,-5.587,1.003,4.155,5.364,0.3361,0.28,Palm_Trunk,,Yes,0.8812,0.8576,0.8207,No,Avoidance
Environment_1,CM,34.346,0.517,30.701,-0.397,2.496,-2.105,-0.199,-4.784,0.993,4.087,5.32,0.3631,0.27,Palm_Trunk,,Yes,0.8649,0.8503,0.7943,No,Avoidance
Environment_1,CM,33.064,0.517,31.541,-0.404,2.521,-2.59,0.056,-6.153,0.992,4.031,5.439,0.3805,0.3177,Palm_Trunk,,Yes,0.8764,0.8347,0.8174,No,Avoidance
Environment_1,CM,33.246,0.517,30.885,-0.472,2.493,-2.389,0.006,-5.543,1.02,3.86,5.239,0.4554,0.3611,Palm_Trunk,,Yes,0.8648,0.8418,0.8103,No,Avoidance
Environment_1,CM,31.144,0.517,31.5,-0.478,2.483,-2.831,0.323,-6.713,0.994,3.838,5.256,0.4537,0.3764,Palm_Trunk,,Yes,0.8858,0.8435,0.7708,No,Avoidance
Environment_1,CM,30.163,0.517,29.799,-0.48,2.5,-2.534,-0.22,-7.475,0.982,3.977,4.904,0.5043,0.4075,Palm_Trunk,,Yes,0.8845,0.8379,0.7899,No,Avoidance
Environment_1,CM,29.064,0.517,30.497,-0.501,2.5,-2.22,0.124,-7.413,1.015,3.849,5.089,0.5366,0.3959,Palm_Trunk,,Yes,0.8746,0.8559,0.812,No,Avoidance
Environment_1,CM,29.788,0.517,34.17,-0.489,2.498,-2.956,-0.073,-9.589,1.02,3.747,4.852,0.5209,0.3745,Palm_Trunk,,Yes,0.8721,0.8589,0.8261,No,Avoidance
Environment_1,CM,28.154,0.517,33.731,-0.592,2.509,-2.997,-0.064,-8.611,1.011,3.427,4.671,0.5546,0.4376,Palm_Trunk,,Yes,0.8686,0.8617,0.8238,No,Avoidance
Environment_1,CM,28.405,0.517,35.118,-0.556,2.514,-3.229,-0.229,-8.855,1.003,3.421,5.03,0.566,0.4481,Palm_Trunk,,Yes,0.8814,0.8739,0.8089,No,Avoidance
Environment_1,CM,28.262,0.517,34.22,-0.578,2.489,-3.242,-0.137,-9.344,0.976,3.484,4.999,0.5741,0.4468,Palm_Trunk,,Yes,0.8742,0.8717,0.8139,No,Avoidance
Environment_1,CM,26.328,0.517,34.008,-0.573,2.51,-3.54,0.076,-8.74,1.014,3.675,5.182,0.5887,0.4277,Palm_Trunk,,Yes,0.8727,0.8828,0.8102,No,Avoidance
Environment_1,CM,27.501,0.517,35.809,-0.596,2.506,-3.546,-0.051,-8.442,0.946,3.462,5.025,0.6473,0.4214,Palm_Trunk,,Yes,0.8674,0.902,0.8275,No,Avoidance
Environment_1,CM,29.849,0.517,36.932,-0.625,2.49,-3.757,-0.072,-8.537,1.003,3.403,4.887,0.6416,0.43,Palm_Trunk,,Yes,0.8564,0.8988,0.8036,No,Avoidance
Environment_1,CM,30.967,0.517,34.149,-0.622,2.507,-3.456,0.276,-8.897,0.994,3.573,4.871,0.6319,0.4535,Palm_Trunk,,Yes,0.8609,0.899,0.8192,No,Avoidance
Environment_1,CM,31.337,0.517,31.393,-0.606,2.489,-3.254,-0.357,-8.786,0.996,3.492,4.729,0.6166,0.4528,Palm_Trunk,,Yes,0.87,0.8948,0.8186,No,Avoidance
Environment_1,CM,33.228,0.517,30.261,-0.593,2.504,-3.067,-0.084,-9.978,0.989,3.791,5.171,0.5868,0.506,Palm_Trunk,,Yes,0.8566,0.8911,0.8053,No,Avoidance
Environment_1,CM,31.413,0.517,33.174,-0.623,2.532,-3.105,0.066,-8.224,1.002,3.611,4.669,0.5761,0.4713,Palm_Trunk,,Yes,0.8603,0.8864,0.8028,No,Avoidance
Environment_1,CM,32.94,0.517,34.251,-0.645,2.464,-2.825,0.108,-7.542,1.005,3.65,4.654,0.5722,0.4195,Palm_Trunk,,Yes,0.8434,0.8859,0.8173,No,Avoidance
Environment_1,CM,34.176,0.517,34.301,-0.599,2.49,-2.408,0.026,-8.899,0.992,3.81,4.918,0.5587,0.4187,Palm_Trunk,,Yes,0.8397,0.8943,0.8248,No,Avoidance
Environment_1,CM,32.471,0.517,36.525,-0.62,2.495,-2.744,0.243,-7.721,0.999,3.602,4.701,0.5738,0.473,Palm_Trunk,,Yes,0.8431,0.8937,0.8086,No,Avoidance
Environment_1,CM,33.237,0.517,37.487,-0.621,2.489,-3.082,0.043,-10.311,0.971,3.812,5.012,0.5578,0.4493,Palm_Trunk,,Yes,0.8389,0.8982,0.8005,No,Avoidance
Environment_1,CM,30.511,0.517,35.489,-0.525,2.507,-2.492,-0.043,-9.966,0.999,3.852,5.097,0.5378,0.4122,Palm_Trunk,,Yes,0.831,0.8935,0.8053,No,Avoidance
Environment_1,CM,34.5,0.517,32.465,-0.536,2.519,-2.419,0.038,-8.198,0.98,3.734,5.077,0.4832,0.4008,Palm_Trunk,,Yes,0.8346,0.8935,0.8147,No,Avoidance
Environment_1,CM,33.378,0.517,32.668,-0.462,2.499,-2.118,-0.259,-7.501,1.0,3.743,5.288,0.4214,0.3292,Palm_Trunk,,Yes,0.8252,0.8938,0.8051,No,Avoidance
Environment_1,CM,31.327,0.517,31.369,-0.462,2.473,-2.73,0.127,-6.009,1.019,3.829,5.293,0.3963,0.3,Palm_Trunk,,Yes,0.8164,0.8888,0.8262,No,Avoidance
Environment_1,CM,30.748,0.517,32.353,-0.456,2.488,-2.425,-0.244,-6.779,0.974,3.918,5.367,0.3533,0.3263,Palm_Trunk,,Yes,0.8065,0.8884,0.8087,No,Avoidance
Environment_1,CM,30.471,0.517,34.048,-0.435,2.512,-2.198,-0.311,-5.512,0.982,4.431,5.559,0.321,0.3293,Palm_Trunk,,Yes,0.8251,0.9048,0.8354,No,Avoidance
Environment_1,CM,33.165,0.517,35.365,-0.41,2.495,-2.07,0.068,-5.943,0.998,4.404,5.658,0.3137,0.2625,Palm_Trunk,,Yes,0.8143,0.9017,0.8263,No,Avoidance
Environment_1,CM,33.391,0.517,33.342,-0.38,2.51,-1.566,0.043,-4.794,0.987,4.44,5.708,0.2626,0.2676,Palm_Trunk,,Yes,0.8123,0.8977,0.8686,No,Avoidance
Environment_1,CM,32.585,0.517,32.985,-0.34,2.499,-1.295,0.178,-3.255,0.956,4.504,5.824,0.2654,0.2244,Palm_Trunk,,Yes,0.809,0.908,0.8264,No,Avoidance
Environment_1,CM,31.085,0.517,34.641,-0.298,2.516,-1.474,0.204,-3.632,0.992,4.583,5.754,0.2485,0.1899,Palm_Trunk,,Yes,0.8159,0.8908,0.8445,No,Avoidance
Environment_1,CM,32.118,0.517,34.709,-0.266,2.481,-0.811,0.367,-4.446,1.03,4.998,6.028,0.211,0.1511,Palm_Trunk,,Yes,0.8313,0.9089,0.8721,No,Avoidance
Environment_1,CM,31.328,0.517,34.911,-0.219,2.51,-1.464,0.101,-3.344,0.999,5.055,6.15,0.1805,0.1827,Palm_Trunk,,Yes,0.8605,0.9155,0.8867,No,Avoidance
Environment_1,CM,35.032,0.517,35.868,-0.193,2.487,-0.703,0.371,-2.96,1.025,4.909,6.399,0.1678,0.1701,Palm_Trunk,,Yes,0.8519,0.9053,0.8812,No,Avoidance
Environment_1,CM,33.557,0.517,35.184,-0.228,2.49,-0.75,0.126,-1.432,1.014,5.148,6.167,0.129,0.1246,Palm_Trunk,,Yes,0.8851,0.9155,0.9151,No,Avoidance
Environment_1,CM,32.984,0.517,32.779,-0.224,2.491,-1.204,-0.15,-3.003,1.004,5.346,6.656,0.1298,0.059,Palm_Trunk,,Yes,0.9002,0.9409,0.9195,No,Avoidance
Environment_1,CM,33.327,0.517,33.266,-0.184,2.529,-0.298,-0.093,-1.113,1.013,5.244,6.826,0.1083,0.1342,Palm_Trunk,,Yes,0.9074,0.9443,0.9186,No,Avoidance
Environment_1,CM,34.123,0.517,36.344,-0.156,2.525,-1.173,0.105,-1.469,0.982,5.508,7.055,0.103,0.0807,Palm_Trunk,,Yes,0.9037,0.9434,0.9209,No,Avoidance
Environment_1,CM,32.687,0.517,37.453,-0.106,2.514,-0.969,-0.056,-0.985,1.0,5.625,7.122,0.1,0.112,Palm_Trunk,,Yes,0.9015,0.9327,0.9288,No,Avoidance
Environment_1,CM,33.144,0.517,34.782,-0.111,2.516,-0.551,0.17,-1.915,1.005,5.39,6.881,0.0972,0.0623,Palm_Trunk,,Yes,0.8989,0.9388,0.9487,No,Avoidance
Environment_1,CM,32.214,0.517,34.332,-0.108,2.503,-0.264,-0.276,-0.513,0.988,5.615,7.121,0.0951,0.0741,Palm_Trunk,,Yes,0.9032,0.934,0.9527,No,Avoidance
Environment_1,CM,31.781,0.517,33.58,-0.113,2.483,-0.769,-0.242,-1.305,1.002,5.797,7.039,0.1142,0.0631,Palm_Trunk,,Yes,0.8905,0.9381,0.9463,No,Avoidance
Environment_1,CM,33.755,0.517,33.344,-0.082,2.473,-0.317,0.106,-0.381,0.979,5.76,7.064,0.0811,0.0478,Palm_Trunk,,Yes,0.9104,0.9323,0.9427,No,Avoidance
Environment_1,CM,36.315,0.517,34.451,-0.033,2.51,-0.117,-0.011,-0.273,0.99,5.79,7.305,0.0587,0.0312,,,No,0.924,0.9474,0.9722,No,Cruise
Environment_1,CM,33.822,0.517,33.12,-0.034,2.491,0.125,0.352,-0.61,0.995,5.806,7.11,0.0392,0.0,,,No,0.9242,0.9557,0.9669,No,Cruise
Environment_1,CM,35.143,0.517,31.384,-0.092,2.505,-0.123,0.173,-1.144,0.983,6.155,7.374,0.0435,0.0258,,,No,0.9535,0.9676,0.9748,No,Cruise
Environment_1,CM,33.457,0.517,31.936,-0.081,2.506,-0.35,-0.133,-1.22,1.025,6.109,7.501,0.0137,0.0327,,,No,0.9396,0.9784,0.9858,No,Cruise
Environment_1,CM,37.55,0.517,32.787,-0.051,2.503,-0.089,0.169,0.016,1.008,6.174,7.449,0.0226,0.0475,,,No,0.9475,0.9598,0.988,No,Cruise
Environment_1,CM,34.781,0.517,34.253,-0.037,2.505,0.078,-0.268,-0.031,0.979,6.083,7.645,0.0093,0.072,,,No,0.9542,0.9642,0.9815,No,Cruise
Environment_1,CM,33.512,0.517,34.629,-0.099,2.49,-0.488,0.07,0.582,0.96,6.101,7.679,0.0,0.0375,,,No,0.9596,0.9635,0.9711,No,Cruise
Environment_1,CM,32.553,0.517,32.986,-0.075,2.515,-0.211,-0.033,0.13,1.016,6.134,7.502,0.0049,0.0401,,,No,0.9619,0.9648,0.9871,No,Cruise
Environment_1,CM,32.356,0.517,31.349,-0.038,2.485,-0.425,-0.196,-0.086,0.961,6.015,7.401,0.0344,0.0452,,,No,0.9559,0.9545,0.9873,No,Cruise
Environment_1,CM,35.789,0.517,35.544,-0.056,2.521,0.247,-0.072,-0.746,0.988,6.261,7.65,0.0196,0.0514,,,No,0.951,0.957,0.9923,No,Cruise
Environment_1,CM,34.955,0.517,37.89,-0.038,2.479,-0.152,0.109,0.118,1.001,6.252,7.574,0.0271,0.0617,,,No,0.9473,0.9618,0.9935,No,Cruise
Environment_1,CM,35.87,0.517,36.301,-0.014,2.495,0.002,0.132,-1.579,0.98,6.203,7.435,0.0146,0.0325,,,No,0.945,0.9551,0.9943,No,Cruise
Environment_1,CM,33.998,0.517,38.889,-0.068,2.53,-0.287,-0.134,-1.246,1.003,6.293,7.534,0.0163,0.0375,,,No,0.9491,0.9625,0.9815,No,Cruise
Environment_1,CM,32.336,0.517,40.016,-0.029,2.506,-0.219,-0.196,0.319,0.967,6.253,7.54,0.0149,0.0319,,,No,0.9432,0.9648,0.9865,No,Cruise
Environment_1,CM,33.997,0.517,42.303,-0.02,2.487,-0.285,-0.031,-0.997,0.96,6.3,7.6,0.0404,0.0137,,,No,0.949,0.9687,0.9818,No,Cruise
Environment_1,CM,31.977,0.517,38.458,0.017,2.521,-0.425,0.101,-0.916,0.986,6.489,7.737,0.0048,0.0253,,,No,0.9451,0.9612,0.9807,No,Cruise
Environment_1,CM,34.842,0.517,36.26,-0.033,2.497,-0.384,0.106,-0.984,1.016,6.269,7.835,0.0187,0.0518,,,No,0.9385,0.9613,0.9724,No,Cruise
Environment_1,CM,35.678,0.517,36.898,-0.031,2.52,0.35,0.146,-1.525,1.016,6.25,7.769,0.0208,0.0523,,,No,0.9489,0.9601,0.9911,No,Cruise
Environment_1,CM,35.471,0.517,38.597,-0.025,2.512,-0.367,-0.137,-0.954,1.008,6.11,7.871,0.0063,0.0367,,,No,0.9438,0.9598,0.9946,No,Cruise
Environment_1,CM,38.642,0.517,39.508,0.004,2.518,-0.123,0.013,-0.886,0.974,6.312,7.647,0.0098,0.0385,,,No,0.9565,0.9619,0.9948,No,Cruise
Environment_1,CM,35.616,0.517,37.731,0.026,2.479,0.139,0.042,-0.206,0.991,6.293,7.745,0.0522,0.0576,,,No,0.9557,0.9567,0.9977,No,Cruise
Environment_1,CM,38.913,0.517,36.228,-0.003,2.477,0.191,0.0,1.038,1.005,6.172,7.347,0.0291,0.0412,,,No,0.9497,0.9636,0.9937,No,Cruise
Environment_1,CM,37.93,0.517,35.716,-0.003,2.477,-0.18,0.092,-0.402,0.991,6.067,7.481,0.0059,0.0327,,,No,0.9408,0.9714,0.9826,No,Cruise
Environment_1,CM,37.137,0.517,36.268,0.029,2.505,-0.36,-0.159,-0.361,0.999,6.053,7.475,0.0176,0.0202,,,No,0.9465,0.9694,0.9839,No,Cruise
Environment_1,CM,38.209,0.517,39.415,-0.016,2.503,-0.378,0.128,0.11,0.983,6.063,7.651,0.013,0.0243,,,No,0.9359,0.959,0.9872,No,Cruise
Environment_1,CM,37.035,0.517,41.395,-0.013,2.486,-0.026,0.185,-1.395,0.955,6.062,7.688,0.0122,0.0229,,,No,0.9526,0.9561,0.9923,No,Cruise
Environment_1,CM,39.239,0.517,40.647,-0.04,2.518,-0.506,0.014,0.526,0.993,6.12,7.775,0.0129,0.0,,,No,0.9464,0.9539,0.9866,No,Cruise
Environment_1,CM,37.331,0.517,39.693,-0.016,2.496,0.225,0.253,0.194,1.004,6.051,7.889,0.0046,0.0077,,,No,0.9462,0.9497,0.9894,No,Cruise
Environment_1,CM,34.613,0.517,36.946,0.017,2.487,-0.135,-0.048,1.766,0.993,6.147,7.872,0.0,0.0181,,,No,0.9433,0.9607,0.9843,No,Cruise
Environment_1,CM,35.794,0.517,37.529,-0.005,2.505,-0.619,0.593,-0.137,0.955,6.167,7.66,0.0045,0.0061,,,No,0.9552,0.9571,1.0028,No,Cruise
Environment_1,CM,35.781,0.517,38.474,-0.011,2.486,-0.016,0.009,0.446,1.006,6.056,7.542,0.0,0.0,,,No,0.9474,0.9515,0.9878,No,Cruise
Environment_1,CM,37.179,0.517,39.533,-0.048,2.48,-0.149,-0.175,0.305,0.997,6.15,7.611,0.0,0.0,,,No,0.9536,0.9631,0.9996,No,Cruise
Environment_1,CM,36.165,0.517,40.459,-0.007,2.524,-0.018,-0.142,0.841,1.023,6.117,7.565,0.0,0.0,,,No,0.9656,0.9592,1.0019,No,Cruise
Environment_1,CM,37.358,0.517,38.452,-0.028,2.5,-0.281,0.005,1.187,1.017,6.26,7.548,0.0149,0.0138,,,No,0.9467,0.9606,0.995,No,Cruise
Environment_1,CM,38.768,0.517,36.136,0.034,2.515,0.136,-0.238,0.901,1.004,6.053,7.618,0.0314,0.0583,,,No,0.9427,0.9681,0.9884,No,Cruise
Environment_1,CM,37.921,0.517,37.662,0.028,2.489,0.03,-0.091,-0.566,0.997,6.12,7.488,0.0301,0.0498,,,No,0.9593,0.9639,0.9827,No,Cruise
Environment_1,CM,36.379,0.517,39.337,-0.002,2.498,0.412,-0.095,0.096,1.007,6.1,7.771,0.0371,0.0185,,,No,0.9451,0.9687,0.9778,No,Cruise
Environment_1,CM,37.675,0.517,42.464,0.037,2.511,0.051,0.205,-0.871,1.018,6.033,7.66,0.0206,0.0167,,,No,0.9383,0.9543,0.975,No,Cruise
Environment_1,CM,38.115,0.517,44.412,-0.007,2.511,0.375,-0.27,-0.052,1.001,6.149,7.589,0.0457,0.0245,,,No,0.9444,0.9588,1.0026,No,Cruise
Environment_1,CM,42.139,0.517,40.854,0.019,2.484,-0.227,-0.099,0.144,1.024,6.139,7.556,0.0464,0.02,,,No,0.9337,0.9665,0.9998,No,Cruise
Environment_1,CM,39.494,0.517,41.802,0.012,2.487,0.146,0.019,0.694,1.014,6.033,7.418,0.035,0.0125,,,No,0.9375,0.9622,0.9785,No,Cruise
Environment_1,CM,39.232,0.517,39.581,0.04,2.512,0.038,-0.476,1.137,0.996,6.026,7.494,0.0472,0.0247,,,No,0.9383,0.9521,0.9802,No,Cruise
Environment_1,CM,39.84,0.517,40.281,0.06,2.513,0.183,-0.055,1.045,0.994,5.977,7.549,0.0338,0.0278,,,No,0.9376,0.9546,0.9872,No,Cruise
Environment_1,CM,41.729,0.517,41.482,0.031,2.516,0.172,-0.181,1.441,0.994,5.885,7.416,0.0247,0.0496,,,No,0.9473,0.9602,0.9886,No,Cruise
Environment_1,CM,42.229,0.517,38.63,0.051,2.492,0.142,-0.042,2.089,1.006,5.873,7.332,0.0456,0.0142,,,No,0.9457,0.9612,0.983,No,Cruise
Environment_1,CM,38.558,0.517,37.174,0.04,2.487,-0.366,-0.041,1.157,0.971,6.214,7.649,0.031,0.0335,,,No,0.9437,0.9532,0.9804,No,Cruise
Environment_1,CM,37.287,0.517,38.879,0.015,2.472,-0.092,0.138,1.516,0.978,6.114,7.503,0.0489,0.0465,,,No,0.9494,0.9607,0.9859,No,Cruise
Environment_1,CM,40.765,0.517,36.999,0.023,2.503,0.411,-0.008,-0.644,0.98,6.23,7.427,0.0576,0.0787,,,No,0.9595,0.9613,0.989,No,Cruise
Environment_1,CM,37.561,0.517,35.284,0.022,2.508,-0.279,-0.035,1.176,0.998,6.197,7.482,0.0452,0.056,,,No,0.9547,0.9549,0.9898,No,Cruise
Environment_1,CM,37.077,0.517,36.173,0.023,2.489,-0.273,-0.026,1.261,0.963,6.166,7.564,0.0253,0.0103,,,No,0.9399,0.9565,0.9871,No,Cruise
Environment_1,CM,39.385,0.517,35.762,0.032,2.491,-0.106,-0.011,0.37,0.949,6.045,7.537,0.0559,0.0436,,,No,0.9426,0.9446,0.9957,No,Cruise
Environment_1,CM,37.729,0.517,36.861,0.015,2.527,0.126,0.03,0.298,0.984,6.136,7.532,0.0485,0.0314,,,No,0.9451,0.9514,0.9946,No,Cruise
Environment_1,CM,33.921,0.517,38.656,0.08,2.51,0.171,0.152,-0.194,1.005,5.875,7.526,0.0855,0.0849,,,No,0.943,0.9561,0.9833,No,Cruise
Environment_1,CM,36.644,0.517,37.145,0.012,2.507,-0.102,0.014,2.256,0.951,6.21,7.667,0.0683,0.0725,,,No,0.9368,0.9609,0.9943,No,Cruise
Environment_1,CM,38.369,0.517,39.582,0.023,2.499,0.029,-0.052,1.23,1.036,6.186,7.621,0.0462,0.0686,,,No,0.9505,0.957,0.9898,No,Cruise
Environment_1,CM,39.172,0.517,41.659,0.041,2.531,0.169,-0.073,-0.04,0.969,6.094,7.537,0.0442,0.0548,,,No,0.9364,0.9569,0.986,No,Cruise
Environment_1,CM,38.898,0.517,41.494,-0.006,2.53,-0.679,-0.051,0.556,1.018,6.256,7.254,0.0346,0.0602,,,No,0.941,0.9613,0.9944,No,Cruise
Environment_1,CM,40.879,0.517,42.34,0.006,2.47,0.362,-0.337,1.161,1.026,6.327,7.499,0.0541,0.055,,,No,0.938,0.9627,0.9875,No,Cruise
Environment_1,CM,41.065,0.517,43.111,0.035,2.517,0.415,-0.008,1.424,1.015,6.406,7.594,0.0929,0.0468,,,No,0.9377,0.9505,0.9925,No,Cruise
Environment_1,CM,38.208,0.517,39.415,0.056,2.525,0.135,0.124,1.473,0.997,6.18,7.612,0.0672,0.0323,,,No,0.9363,0.9506,0.9852,No,Cruise
Environment_1,CM,41.874,0.517,40.965,0.076,2.508,0.195,-0.07,0.641,1.006,6.063,7.673,0.0645,0.0449,,,No,0.9349,0.9599,0.9915,No,Cruise
Environment_1,CM,40.006,0.517,41.926,0.085,2.495,-0.123,0.109,0.556,0.989,6.148,7.48,0.0358,0.025,,,No,0.9463,0.9569,0.988,No,Cruise
Environment_1,CM,37.346,0.517,42.662,0.061,2.489,0.664,-0.192,-1.389,0.996,6.366,7.604,0.0574,0.0097,,,No,0.9449,0.9518,0.994,No,Cruise
Environment_1,CM,39.831,0.517,42.877,0.038,2.517,0.093,0.097,0.289,1.01,6.081,7.342,0.0628,0.038,,,No,0.9487,0.9523,0.9868,No,Cruise
Environment_1,CM,38.955,0.517,42.629,0.134,2.507,0.215,-0.29,-0.497,1.004,6.082,7.307,0.0894,0.0438,,,No,0.9562,0.9513,0.9737,No,Cruise
Environment_1,CM,36.029,0.517,42.435,0.083,2.465,0.688,-0.346,0.11,0.973,6.047,7.36,0.0983,0.0522,,,No,0.9542,0.951,0.9803,No,Cruise
Environment_1,CM,36.264,0.517,42.198,0.089,2.491,0.237,-0.171,-0.223,1.008,6.111,7.372,0.0875,0.0189,,,No,0.9535,0.9484,0.9801,No,Cruise
Environment_1,CM,38.9,0.517,44.44,0.083,2.497,0.387,-0.19,0.881,0.98,6.23,7.768,0.0621,0.0329,,,No,0.9457,0.959,0.9725,No,Cruise
Environment_1,CM,41.871,0.517,46.513,0.112,2.514,0.164,0.03,0.328,0.977,5.992,7.443,0.1214,0.0467,,,No,0.9468,0.951,0.985,No,Cruise
Environment_1,CM,39.631,0.517,46.349,0.066,2.474,0.038,-0.022,1.029,1.002,6.052,7.418,0.0963,0.0924,,,No,0.9368,0.956,0.9916,No,Cruise
Environment_1,CM,37.786,0.517,45.744,0.074,2.488,0.555,-0.116,-1.03,1.004,6.044,7.429,0.0919,0.0887,,,No,0.9385,0.9547,0.9904,No,Cruise
Environment_1,CM,38.451,0.517,43.731,0.057,2.498,0.079,0.063,0.832,1.003,5.976,7.334,0.0856,0.044,,,No,0.9345,0.9546,0.9836,No,Cruise
Environment_1,CM,38.011,0.517,43.847,0.046,2.485,-0.208,-0.113,2.455,1.015,5.998,7.312,0.0675,0.0389,,,No,0.9271,0.9515,0.9926,No,Cruise
Environment_1,CM,38.216,0.517,43.335,0.125,2.486,0.515,0.369,0.216,1.024,5.897,7.423,0.0802,0.0217,,,No,0.9242,0.9571,0.9936,No,Cruise
Environment_1,CM,39.602,0.517,41.982,0.102,2.493,-0.175,0.276,0.759,0.99,5.891,7.457,0.121,0.0273,,,No,0.9307,0.9511,0.9815,No,Cruise
Environment_1,CM,39.601,0.517,41.806,0.106,2.482,0.007,0.336,0.708,1.02,5.864,7.235,0.0935,0.0,,,No,0.9287,0.9605,0.9871,No,Cruise
Environment_1,CM,44.308,0.517,39.845,0.085,2.5,0.573,-0.153,0.286,0.96,6.159,7.402,0.0555,0.0,,,No,0.9379,0.9525,0.9818,No,Cruise
Environment_1,CM,42.671,0.517,43.032,0.07,2.505,0.077,0.089,0.234,0.976,5.906,7.193,0.0698,0.0015,,,No,0.9397,0.9598,0.9649,No,Cruise
Environment_1,CM,41.892,0.517,39.932,0.095,2.521,0.328,0.162,0.51,1.022,5.926,7.272,0.0779,0.0235,,,No,0.946,0.9575,0.9706,No,Cruise
