Environment,Lighting,Timestamp_s,Wind_mps,Pos_X_m,Pos_Y_m,Altitude_m,Roll_deg,Pitch_deg,Yaw_deg,Velocity_mps,Depth_Min_m,Depth_Mean_m,Lateral_Error_m,Corridor_Center_Error_m,Obstacle_Type,Obstacle_Distance_m,AGSS_Activated,CAMR_Confidence,SACR_Score,Path_Clear_Probability,Collision,Mission_State
Environment_1,CM,0.0,0.517,5.407,0.049,2.5,-0.119,-0.015,-1.501,0.997,6.246,7.543,0.0404,0.0378,,,No,0.95,0.9612,0.9755,No,Cruise
Environment_1,CM,1.336,0.517,3.022,-0.015,2.501,0.244,0.178,-0.308,1.005,6.441,7.502,0.0378,0.0551,,,No,0.9552,0.9709,0.988,No,Cruise
Environment_1,CM,1.415,0.517,2.074,-0.01,2.503,0.161,-0.108,-0.517,0.998,6.297,7.63,0.0162,0.0,,,No,0.9466,0.9683,0.9897,No,Cruise
Environment_1,CM,0.0,0.517,3.422,0.021,2.493,-0.223,-0.212,-0.396,1.015,6.285,7.475,0.0242,0.0081,,,No,0.9515,0.9634,0.9871,No,Cruise
Environment_1,CM,1.009,0.517,1.002,0.034,2.518,0.211,0.232,0.31,0.942,6.263,7.537,0.0,0.0,,,No,0.9402,0.9749,0.9816,No,Cruise
Environment_1,CM,0.915,0.517,0.856,0.043,2.499,0.196,0.196,0.44,1.005,6.343,7.698,0.0,0.0146,,,No,0.9435,0.9668,0.9861,No,Cruise
Environment_1,CM,1.255,0.517,0.522,0.015,2.477,0.404,-0.495,-0.45,1.037,6.393,7.971,0.0072,0.0,,,No,0.9537,0.9664,0.9834,No,Cruise
Environment_1,CM,0.0,0.517,1.69,0.007,2.507,0.308,0.138,0.917,0.984,6.393,7.748,0.0133,0.0,,,No,0.9605,0.968,0.9944,No,Cruise
Environment_1,CM,0.0,0.517,0.823,-0.019,2.509,-0.412,0.219,1.555,1.004,6.515,7.756,0.0378,0.0193,,,No,0.9622,0.9783,0.9805,No,Cruise
Environment_1,CM,0.0,0.517,-0.907,-0.04,2.503,0.08,0.016,1.031,0.983,6.401,7.835,0.0468,0.0001,,,No,0.9567,0.9749,0.9861,No,Cruise
Environment_1,CM,2.177,0.517,-1.518,-0.003,2.488,0.245,-0.069,-0.009,0.967,6.532,7.739,0.0131,0.0032,,,No,0.9582,0.9706,0.9847,No,Cruise
Environment_1,CM,0.974,0.517,-0.715,0.011,2.512,0.202,0.187,-0.314,0.958,6.344,7.995,0.0417,0.0159,,,No,0.9597,0.9862,0.986,No,Cruise
Environment_1,CM,2.706,0.517,-0.072,0.007,2.496,0.306,-0.188,1.845,1.029,6.243,7.621,0.0672,0.0585,,,No,0.954,0.9709,0.9753,No,Cruise
Environment_1,CM,1.394,0.517,2.093,0.034,2.489,0.206,0.141,2.375,1.015,6.363,7.751,0.0542,0.0623,,,No,0.967,0.9783,0.9718,No,Cruise
Environment_1,CM,1.195,0.517,3.437,-0.003,2.493,0.487,0.102,1.337,0.977,6.313,7.551,0.0332,0.0408,,,No,0.9706,0.9793,0.9749,No,Cruise
Environment_1,CM,2.413,0.517,1.309,0.001,2.486,-0.171,0.128,1.417,1.043,6.44,7.646,0.0,0.041,,,No,0.9563,0.9759,0.9754,No,Cruise
Environment_1,CM,5.646,0.517,3.094,0.006,2.519,0.265,0.101,0.591,0.995,6.319,7.577,0.0302,0.0616,,,No,0.9556,0.9807,0.9825,No,Cruise
Environment_1,CM,6.197,0.517,1.274,0.072,2.508,0.265,0.363,-0.872,1.002,6.283,7.463,0.012,0.0495,,,No,0.9703,0.9718,0.9749,No,Cruise
Environment_1,CM,8.468,0.517,1.536,0.045,2.51,0.328,-0.391,1.026,1.018,6.461,7.54,0.0261,0.0646,,,No,0.9563,0.9624,0.9879,No,Cruise
Environment_1,CM,6.18,0.517,2.562,0.044,2.519,-0.259,-0.039,0.472,0.985,6.303,7.592,0.0592,0.0,,,No,0.9585,0.976,0.9788,No,Cruise
Environment_1,CM,3.47,0.517,2.247,0.05,2.505,-0.237,0.182,1.08,1.005,6.294,7.58,0.0037,0.0795,,,No,0.9679,0.971,0.9761,No,Cruise
Environment_1,CM,3.905,0.517,0.1,0.027,2.501,-0.087,0.094,0.656,0.999,6.382,7.805,0.0357,0.0772,,,No,0.9508,0.9825,0.9749,No,Cruise
Environment_1,CM,2.435,0.517,-1.254,0.045,2.496,0.091,0.007,-1.277,0.987,6.319,7.691,0.0293,0.0654,,,No,0.9563,0.9769,0.9729,No,Cruise
Environment_1,CM,0.759,0.517,0.13,0.095,2.522,0.25,0.323,0.449,0.989,6.239,7.658,0.0442,0.0603,,,No,0.9493,0.9684,0.9819,No,Cruise
Environment_1,CM,2.643,0.517,2.098,0.098,2.508,-0.336,-0.296,-0.052,1.0,6.101,7.667,0.0415,0.0395,,,No,0.9517,0.9667,0.9851,No,Cruise
Environment_1,CM,4.241,0.517,2.377,0.042,2.516,-0.105,0.049,0.243,0.999,6.105,7.612,0.0598,0.0,,,No,0.9563,0.9728,0.9789,No,Cruise
Environment_1,CM,3.47,0.517,1.244,0.056,2.514,0.431,0.436,1.03,0.994,6.074,7.699,0.0728,0.0425,,,No,0.956,0.9771,0.9775,No,Cruise
Environment_1,CM,4.291,0.517,3.292,0.026,2.506,-0.01,-0.031,-0.25,1.014,6.215,7.824,0.0364,0.0247,,,No,0.9491,0.9798,0.9697,No,Cruise
Environment_1,CM,2.73,0.517,3.976,0.035,2.496,-0.035,-0.054,0.968,0.966,6.212,7.481,0.0887,0.0,,,No,0.9571,0.9765,0.9674,No,Cruise
Environment_1,CM,4.864,0.517,3.47,0.032,2.495,-0.045,0.073,0.148,0.987,6.346,7.694,0.075,0.0,,,No,0.9575,0.9718,0.9707,No,Cruise
Environment_1,CM,3.018,0.517,3.989,0.028,2.528,0.284,0.092,2.414,0.995,6.179,7.498,0.0715,0.038,,,No,0.9551,0.9682,0.9817,No,Cruise
Environment_1,CM,2.899,0.517,4.375,0.049,2.503,-0.479,-0.144,1.099,1.02,6.137,7.545,0.0472,0.0427,,,No,0.9597,0.9688,0.9891,No,Cruise
Environment_1,CM,3.866,0.517,3.235,0.059,2.469,-0.279,0.235,-0.382,0.994,6.276,7.671,0.0173,0.0379,,,No,0.9608,0.9691,0.9947,No,Cruise
Environment_1,CM,2.516,0.517,3.893,0.116,2.498,0.45,0.113,-0.283,0.982,6.351,7.637,0.0478,0.0309,,,No,0.9564,0.9657,1.0099,No,Cruise
Environment_1,CM,6.37,0.517,3.185,0.109,2.49,0.288,-0.184,-0.011,1.005,6.437,7.83,0.0345,0.047,,,No,0.9499,0.9617,0.9875,No,Cruise
Environment_1,CM,4.149,0.517,3.914,0.084,2.499,0.376,0.084,0.612,0.958,6.383,7.577,0.0865,0.0599,,,No,0.9536,0.9741,1.0009,No,Cruise
Environment_1,CM,2.806,0.517,5.265,0.066,2.506,0.364,0.627,1.245,0.946,6.318,7.655,0.0646,0.0659,,,No,0.9629,0.9566,0.9994,No,Cruise
Environment_1,CM,2.797,0.517,6.026,0.055,2.516,0.443,-0.197,-0.64,0.96,6.264,7.5,0.0797,0.0229,,,No,0.9533,0.965,0.9996,No,Cruise
Environment_1,CM,3.859,0.517,6.694,0.075,2.507,0.475,-0.047,1.332,1.031,6.076,7.345,0.0993,0.0483,,,No,0.9581,0.9685,0.9979,No,Cruise
Environment_1,CM,1.957,0.517,5.694,0.087,2.538,0.694,0.159,2.474,0.978,6.361,7.32,0.0934,0.0501,,,No,0.9465,0.9641,0.9928,No,Cruise
Environment_1,CM,5.776,0.517,6.346,0.053,2.514,0.698,-0.091,1.031,1.004,6.099,7.342,0.072,0.038,,,No,0.9594,0.9575,0.9914,No,Cruise
Environment_1,CM,0.0,0.517,1.991,0.091,2.525,0.877,0.242,-0.004,0.991,5.869,7.4,0.1043,0.0458,,,No,0.962,0.9744,0.9764,No,Cruise
Environment_1,CM,1.194,0.517,2.044,0.081,2.511,0.15,-0.125,1.77,0.999,6.157,7.764,0.0976,0.019,,,No,0.955,0.9694,0.9659,No,Cruise
Environment_1,CM,0.475,0.517,6.208,0.1,2.496,0.533,0.006,1.664,1.0,6.058,7.455,0.0852,0.0561,,,No,0.9654,0.965,0.9628,No,Cruise
Environment_1,CM,4.228,0.517,6.306,0.078,2.489,0.544,-0.171,1.759,1.011,6.151,7.314,0.058,0.0616,,,No,0.9734,0.9567,0.9776,No,Cruise
Environment_1,CM,4.718,0.517,7.728,0.114,2.496,0.708,-0.059,1.638,0.987,6.343,7.561,0.0604,0.0861,,,No,0.9645,0.9607,0.9809,No,Cruise
Environment_1,CM,6.12,0.517,5.345,0.07,2.507,0.063,-0.097,0.365,1.021,6.101,7.405,0.087,0.0313,,,No,0.9726,0.9667,0.9787,No,Cruise
Environment_1,CM,6.568,0.517,5.783,0.084,2.509,0.514,0.082,1.288,0.984,5.988,7.466,0.0823,0.0861,,,No,0.964,0.9653,0.9841,No,Cruise
Environment_1,CM,6.024,0.517,6.68,0.065,2.499,0.194,0.105,0.885,0.987,6.279,7.5,0.0548,0.0524,,,No,0.9639,0.9707,0.98,No,Cruise
Environment_1,CM,6.804,0.517,6.154,0.101,2.515,0.242,0.019,0.931,1.041,6.331,7.484,0.0644,0.0945,,,No,0.9738,0.961,0.9892,No,Cruise
Environment_1,CM,6.476,0.517,5.075,0.07,2.5,0.444,-0.195,0.03,0.991,6.398,7.599,0.0523,0.0536,,,No,0.9685,0.955,0.9917,No,Cruise
Environment_1,CM,7.169,0.517,4.865,0.076,2.527,0.556,-0.163,2.144,1.0,6.318,7.631,0.1061,0.071,,,No,0.971,0.9632,0.988,No,Cruise
Environment_1,CM,9.105,0.517,4.868,0.094,2.496,0.093,-0.011,1.254,0.965,6.229,7.319,0.0829,0.0468,,,No,0.9652,0.9719,0.9935,No,Cruise
Environment_1,CM,6.636,0.517,2.001,0.086,2.498,0.76,0.138,2.0,0.993,6.219,7.178,0.1218,0.0822,,,No,0.9545,0.9746,0.9867,No,Cruise
Environment_1,CM,7.186,0.517,1.19,0.151,2.509,0.268,0.214,0.339,0.982,6.182,7.471,0.1047,0.0499,,,No,0.975,0.9769,0.987,No,Cruise
Environment_1,CM,5.672,0.517,3.184,0.147,2.511,0.493,0.087,1.99,1.008,6.142,7.646,0.1117,0.0832,,,No,0.9648,0.9695,0.9904,No,Cruise
Environment_1,CM,2.552,0.517,2.914,0.114,2.506,0.847,-0.123,1.841,0.99,6.015,7.503,0.0963,0.1156,,,No,0.9693,0.9801,0.9913,No,Cruise
Environment_1,CM,6.241,0.517,2.989,0.107,2.516,0.66,0.091,2.401,0.971,6.1,7.576,0.092,0.1117,,,No,0.9666,0.9699,0.9783,No,Cruise
Environment_1,CM,3.127,0.517,5.775,0.119,2.486,0.057,-0.017,1.97,1.012,6.178,7.675,0.115,0.0793,,,No,0.9865,0.9642,0.9856,No,Cruise
Environment_1,CM,1.307,0.517,6.507,0.136,2.49,0.775,0.151,2.122,0.986,6.034,7.702,0.1356,0.0553,,,No,0.9771,0.9682,0.9846,No,Cruise
Environment_1,CM,2.404,0.517,9.239,0.09,2.52,0.407,-0.14,1.833,1.04,6.154,7.614,0.1284,0.0467,,,No,0.9728,0.9704,0.9964,No,Cruise
Environment_1,CM,3.397,0.517,7.533,0.05,2.508,0.912,-0.178,1.307,0.99,6.156,7.671,0.1434,0.0415,,,No,0.9623,0.9637,0.9926,No,Cruise
Environment_1,CM,4.876,0.517,8.851,0.079,2.506,-0.151,0.367,1.853,1.021,5.997,7.791,0.1278,0.0534,,,No,0.9595,0.9627,0.9977,No,Cruise
Environment_1,CM,5.339,0.517,9.343,0.041,2.508,0.401,-0.197,1.141,0.971,6.067,7.841,0.1241,0.0733,,,No,0.9608,0.9665,0.9934,No,Cruise
Environment_1,CM,4.184,0.517,10.486,0.026,2.512,0.248,0.079,3.214,1.026,6.062,7.607,0.1221,0.0841,,,No,0.9556,0.956,0.9829,No,Cruise
Environment_1,CM,4.697,0.517,6.117,0.032,2.492,0.836,-0.213,1.768,0.978,6.034,7.681,0.12,0.0346,,,No,0.9507,0.9558,0.9739,No,Cruise
Environment_1,CM,6.154,0.517,4.414,0.048,2.489,0.941,0.032,1.387,1.005,5.817,7.531,0.1183,0.0731,,,No,0.9558,0.9579,0.9875,No,Cruise
Environment_1,CM,3.952,0.517,5.576,0.074,2.511,0.808,-0.114,2.683,0.982,5.809,7.479,0.1091,0.0321,,,No,0.973,0.9809,0.9787,No,Cruise
Environment_1,CM,5.946,0.517,5.482,0.129,2.491,0.066,0.04,3.101,0.971,5.999,7.49,0.0932,0.0555,,,No,0.9573,0.9751,0.9764,No,Cruise
Environment_1,CM,7.424,0.517,5.383,0.108,2.501,0.986,0.284,2.182,1.0,5.983,7.538,0.109,0.0853,,,No,0.9763,0.9721,0.9817,No,Cruise
Environment_1,CM,8.252,0.517,3.872,0.099,2.534,0.487,0.373,1.915,1.002,5.987,7.488,0.1088,0.0921,,,No,0.9687,0.9615,0.983,No,Cruise
Environment_1,CM,9.451,0.517,5.969,0.113,2.499,0.397,0.012,1.107,1.023,6.015,7.552,0.108,0.0696,,,No,0.9785,0.9616,0.9693,No,Cruise
Environment_1,CM,9.298,0.517,4.308,0.101,2.504,0.741,0.186,2.647,0.983,6.124,7.495,0.112,0.0721,,,No,0.9723,0.9689,0.9825,No,Cruise
Environment_1,CM,8.957,0.517,8.094,0.117,2.49,0.513,-0.197,1.784,0.98,6.125,7.48,0.1176,0.0726,,,No,0.9747,0.9675,0.9732,No,Cruise
Environment_1,CM,7.844,0.517,9.255,0.101,2.51,0.082,0.027,0.805,0.979,6.149,7.484,0.1252,0.1086,,,No,0.971,0.9627,0.9653,No,Cruise
Environment_1,CM,9.153,0.517,7.794,0.124,2.506,0.845,-0.017,2.769,1.007,5.959,7.498,0.1221,0.13,,,No,0.9763,0.9744,0.9781,No,Cruise
Environment_1,CM,10.124,0.517,6.95,0.091,2.523,0.21,-0.007,1.103,0.987,6.177,7.697,0.1203,0.1386,,,No,0.9603,0.9683,0.9924,No,Cruise
Environment_1,CM,9.478,0.517,10.59,0.148,2.513,0.328,-0.053,0.706,0.992,5.946,7.542,0.1323,0.1103,,,No,0.9674,0.9624,0.988,No,Cruise
Environment_1,CM,7.38,0.517,10.053,0.124,2.491,0.854,0.096,2.153,1.008,6.101,7.575,0.1316,0.1218,,,No,0.9593,0.9553,0.9903,No,Cruise
Environment_1,CM,8.268,0.517,9.176,0.128,2.458,0.885,-0.091,2.603,0.973,6.028,7.402,0.1591,0.1326,,,No,0.9698,0.961,0.9867,No,Cruise
Environment_1,CM,11.258,0.517,8.46,0.149,2.503,0.778,-0.33,0.384,1.005,6.014,7.554,0.1314,0.0876,,,No,0.9703,0.961,0.9824,No,Cruise
Environment_1,CM,9.793,0.517,11.543,0.104,2.501,0.725,0.076,1.999,1.015,5.963,7.502,0.1206,0.1385,,,No,0.9676,0.9552,0.9837,No,Cruise
Environment_1,CM,10.999,0.517,6.317,0.114,2.488,0.542,0.192,2.459,0.984,6.07,7.373,0.1126,0.1477,,,No,0.9714,0.9649,0.9878,No,Cruise
Environment_1,CM,6.823,0.517,7.513,0.152,2.523,0.908,0.03,2.145,0.996,6.025,7.522,0.0955,0.1475,,,No,0.963,0.9517,0.9865,No,Cruise
Environment_1,CM,5.859,0.517,10.09,0.183,2.488,0.753,-0.185,1.705,0.982,6.015,7.579,0.1061,0.1368,,,No,0.9633,0.9572,0.9891,No,Cruise
Environment_1,CM,8.528,0.517,8.933,0.172,2.484,0.977,0.182,1.127,1.009,5.998,7.394,0.1011,0.1458,,,No,0.9618,0.9678,0.9774,No,Cruise
Environment_1,CM,7.168,0.517,7.54,0.151,2.517,0.501,-0.047,1.6,1.001,6.044,7.446,0.1097,0.113,,,No,0.9584,0.9639,0.9798,No,Cruise
Environment_1,CM,9.89,0.517,5.669,0.19,2.508,0.147,0.211,2.183,1.015,6.067,7.557,0.1002,0.0943,,,No,0.9652,0.9588,0.9957,No,Cruise
Environment_1,CM,11.237,0.517,6.542,0.173,2.514,0.373,0.053,2.543,1.006,5.776,7.347,0.1361,0.1095,,,No,0.97,0.9555,0.9915,No,Cruise
Environment_1,CM,10.049,0.517,6.809,0.123,2.463,0.95,-0.013,2.263,0.977,5.948,7.476,0.1256,0.0698,,,No,0.9614,0.9592,0.9889,No,Cruise
Environment_1,CM,11.173,0.517,5.892,0.148,2.493,0.984,0.256,0.091,0.962,6.16,7.5,0.1248,0.1169,,,No,0.9656,0.9519,0.9736,No,Cruise
Environment_1,CM,12.727,0.517,5.083,0.159,2.504,0.547,-0.187,1.525,1.022,5.942,7.277,0.139,0.0628,,,No,0.9654,0.9617,0.9758,No,Cruise
Environment_1,CM,11.497,0.517,8.154,0.142,2.49,0.805,0.002,1.747,0.978,6.206,7.468,0.1312,0.0756,,,No,0.9586,0.9551,0.9799,No,Cruise
Environment_1,CM,8.079,0.517,9.105,0.116,2.51,0.887,0.127,1.604,1.029,6.16,7.778,0.0856,0.0453,,,No,0.9584,0.9562,0.9767,No,Cruise
Environment_1,CM,9.017,0.517,7.317,0.114,2.488,0.814,-0.072,1.004,1.008,6.14,7.603,0.0806,0.0577,,,No,0.9593,0.9513,0.9754,No,Cruise
Environment_1,CM,10.45,0.517,7.629,0.095,2.506,0.368,0.037,0.989,1.009,5.953,7.364,0.0853,0.0289,,,No,0.9688,0.9551,0.9849,No,Cruise
Environment_1,CM,9.786,0.517,14.693,0.123,2.483,0.799,-0.413,1.168,0.993,6.035,7.659,0.1173,0.0893,,,No,0.9661,0.9555,0.9897,No,Cruise
Environment_1,CM,10.107,0.517,9.708,0.098,2.49,0.848,-0.1,2.074,1.03,5.835,7.422,0.1248,0.0867,,,No,0.9711,0.9569,0.9701,No,Cruise
Environment_1,CM,11.134,0.517,7.849,0.072,2.482,0.331,-0.072,2.113,1.029,5.814,7.358,0.1516,0.0878,,,No,0.9663,0.961,0.9741,No,Cruise
Environment_1,CM,9.1,0.517,7.487,0.071,2.522,0.571,-0.145,1.127,0.984,5.949,7.539,0.1478,0.0797,,,No,0.9679,0.9585,0.9785,No,Cruise
Environment_1,CM,7.316,0.517,7.135,0.074,2.502,0.117,-0.089,1.581,0.999,5.936,7.554,0.148,0.0929,,,No,0.9619,0.959,0.98,No,Cruise
Environment_1,CM,6.506,0.517,8.39,0.121,2.504,0.114,-0.055,1.582,0.997,5.926,7.457,0.1486,0.1069,,,No,0.9417,0.9653,0.9836,No,Cruise
Environment_1,CM,10.724,0.517,9.488,0.13,2.519,0.033,0.074,1.764,0.973,6.053,7.602,0.1509,0.0851,,,No,0.9593,0.9695,0.9944,No,Cruise
Environment_1,CM,9.491,0.517,8.526,0.143,2.489,0.476,-0.28,1.412,1.004,5.907,7.274,0.1538,0.0794,,,No,0.961,0.961,0.9862,No,Cruise
Environment_1,CM,6.102,0.517,10.086,0.189,2.525,0.249,0.226,0.158,1.004,6.017,7.275,0.1617,0.1474,,,No,0.962,0.9566,0.9917,No,Cruise
Environment_1,CM,6.979,0.517,11.109,0.162,2.529,0.413,-0.154,0.659,1.01,6.085,7.436,0.1147,0.0713,,,No,0.9741,0.9593,0.9966,No,Cruise
Environment_1,CM,5.966,0.517,12.453,0.213,2.496,1.245,0.053,1.027,1.007,6.057,7.315,0.1518,0.0719,,,No,0.9756,0.9497,0.987,No,Cruise
Environment_1,CM,8.656,0.517,11.418,0.14,2.484,0.539,0.25,0.872,0.964,6.002,7.401,0.1064,0.0569,,,No,0.967,0.9568,0.9811,No,Cruise
Environment_1,CM,9.999,0.517,10.292,0.146,2.511,0.727,0.03,-0.444,0.981,5.948,7.652,0.1231,0.0549,,,No,0.955,0.9477,0.9764,No,Cruise
Environment_1,CM,9.541,0.517,12.143,0.147,2.509,0.847,-0.193,0.268,0.995,6.064,7.751,0.0887,0.0605,,,No,0.9572,0.9524,0.9797,No,Cruise
Environment_1,CM,9.761,0.517,10.27,0.112,2.504,0.551,-0.023,0.968,1.006,6.166,7.587,0.1145,0.0561,,,No,0.9645,0.9454,0.9713,No,Cruise
Environment_1,CM,9.98,0.517,11.004,0.082,2.489,0.698,0.332,0.221,1.002,5.974,7.505,0.1263,0.0767,,,No,0.9537,0.9517,0.9858,No,Cruise
Environment_1,CM,12.172,0.517,11.06,0.147,2.506,0.687,0.291,2.425,1.023,5.984,7.535,0.1333,0.0777,,,No,0.9599,0.9532,0.9869,No,Cruise
Environment_1,CM,11.147,0.517,12.508,0.136,2.517,0.29,0.395,1.262,0.991,6.109,7.322,0.1122,0.1116,,,No,0.9606,0.958,0.9833,No,Cruise
Environment_1,CM,10.69,0.517,12.064,0.104,2.489,0.326,0.133,0.842,0.99,6.139,7.303,0.0793,0.1041,,,No,0.9613,0.9561,0.9827,No,Cruise
Environment_1,CM,11.897,0.517,14.611,0.11,2.508,0.294,0.06,2.798,1.001,6.05,7.399,0.101,0.0999,,,No,0.9701,0.9488,0.9934,No,Cruise
Environment_1,CM,9.211,0.517,16.004,0.075,2.485,0.475,0.107,2.138,1.002,6.094,7.58,0.1143,0.095,,,No,0.9712,0.9578,0.9862,No,Cruise
Environment_1,CM,9.359,0.517,12.902,0.129,2.485,0.53,0.145,1.467,0.98,6.126,7.542,0.1223,0.0955,,,No,0.9555,0.9534,0.9849,No,Cruise
Environment_1,CM,11.228,0.517,11.356,0.141,2.509,0.5,-0.107,2.164,1.023,6.146,7.649,0.1103,0.1,,,No,0.9627,0.9632,0.9897,No,Cruise
Environment_1,CM,12.63,0.517,12.791,0.116,2.516,0.588,-0.045,2.101,0.995,5.978,7.296,0.1354,0.0661,,,No,0.9563,0.9535,0.9887,No,Cruise
Environment_1,CM,10.678,0.517,13.952,0.128,2.508,0.794,0.12,2.105,1.0,5.852,7.529,0.1434,0.0992,,,No,0.9613,0.9462,0.9838,No,Cruise
Environment_1,CM,12.609,0.517,13.871,0.121,2.504,0.112,-0.12,2.062,0.993,5.942,7.759,0.1292,0.0601,,,No,0.9467,0.9564,0.9757,No,Cruise
Environment_1,CM,10.35,0.517,13.539,0.136,2.519,0.28,-0.132,1.26,0.965,6.073,7.68,0.1386,0.104,,,No,0.9483,0.9619,0.9791,No,Cruise
Environment_1,CM,10.876,0.517,16.074,0.1,2.504,0.595,0.09,1.665,0.994,5.995,7.738,0.11,0.136,,,No,0.9506,0.9528,0.9865,No,Cruise
Environment_1,CM,9.191,0.517,13.883,0.051,2.501,0.276,-0.3,1.083,0.975,6.233,7.767,0.0985,0.0772,,,No,0.9408,0.9565,0.9759,No,Cruise
Environment_1,CM,10.175,0.517,16.36,0.054,2.502,0.222,-0.01,1.033,1.045,6.25,7.748,0.0972,0.0566,,,No,0.9389,0.96,0.9779,No,Cruise
Environment_1,CM,13.529,0.517,14.098,0.06,2.487,0.649,0.074,0.106,0.995,6.239,8.062,0.0715,0.0552,,,No,0.9392,0.9536,0.9823,No,Cruise
Environment_1,CM,15.169,0.517,14.893,0.053,2.501,0.651,0.323,0.548,0.972,6.273,7.861,0.0722,0.0667,,,No,0.9425,0.9577,0.9816,No,Cruise
Environment_1,CM,12.445,0.517,13.698,0.048,2.524,0.664,0.216,1.1,0.965,6.068,7.695,0.0974,0.0882,,,No,0.9482,0.9526,0.9801,No,Cruise
Environment_1,CM,13.123,0.517,15.699,0.036,2.487,0.644,0.07,1.73,1.011,6.226,7.72,0.0888,0.0559,,,No,0.9595,0.9543,0.9798,No,Cruise
Environment_1,CM,13.53,0.517,12.659,0.06,2.485,0.977,-0.276,1.389,1.007,6.245,7.515,0.1413,0.0433,,,No,0.9516,0.9606,0.9923,No,Cruise
Environment_1,CM,14.204,0.517,12.68,0.086,2.492,0.318,-0.193,1.008,1.0,6.217,7.528,0.0852,0.0383,,,No,0.9565,0.9565,0.995,No,Cruise
Environment_1,CM,14.662,0.517,10.733,0.095,2.476,0.412,-0.006,2.396,0.996,6.207,7.558,0.1055,0.0667,,,No,0.9569,0.958,0.9977,No,Cruise
Environment_1,CM,13.31,0.517,12.404,0.075,2.496,0.659,-0.362,1.847,0.971,6.151,7.627,0.1321,0.0407,,,No,0.9559,0.9612,0.9911,No,Cruise
Environment_1,CM,17.196,0.517,17.338,0.106,2.491,0.843,-0.121,0.985,1.005,6.041,7.364,0.1271,0.0595,,,No,0.9527,0.9626,0.9835,No,Cruise
Environment_1,CM,14.056,0.517,17.862,0.101,2.506,0.485,0.188,0.265,1.006,6.107,7.428,0.1166,0.066,,,No,0.9528,0.9641,0.979,No,Cruise
Environment_1,CM,14.649,0.517,17.439,0.061,2.524,0.17,0.244,1.386,0.97,6.254,7.529,0.0943,0.066,,,No,0.9584,0.9629,0.985,No,Cruise
Environment_1,CM,14.071,0.517,14.802,0.117,2.494,0.733,0.226,1.66,1.017,6.063,7.354,0.0996,0.0418,,,No,0.952,0.9663,0.9826,No,Cruise
Environment_1,CM,12.288,0.517,12.482,0.072,2.53,-0.037,0.02,0.969,1.013,5.994,7.487,0.0601,0.0348,,,No,0.9521,0.9636,0.9796,No,Cruise
Environment_1,CM,14.532,0.517,13.091,0.116,2.505,0.245,-0.015,1.087,0.996,6.054,7.694,0.066,0.0724,,,No,0.948,0.9657,0.9786,No,Cruise
Environment_1,CM,14.237,0.517,13.067,0.099,2.495,0.352,0.1,0.436,1.01,6.253,7.848,0.061,0.0756,,,No,0.9416,0.9778,0.9759,No,Cruise
Environment_1,CM,18.558,0.517,13.431,0.075,2.479,0.103,-0.066,1.705,1.005,6.169,7.633,0.083,0.1028,,,No,0.9331,0.951,0.9753,No,Cruise
Environment_1,CM,19.909,0.517,13.352,0.079,2.5,0.552,0.239,2.538,1.017,6.157,7.606,0.1016,0.0903,,,No,0.9404,0.9757,0.9828,No,Cruise
Environment_1,CM,18.694,0.517,11.059,0.102,2.503,0.021,-0.261,-0.221,1.002,6.041,7.645,0.108,0.0608,,,No,0.9283,0.9714,0.9822,No,Cruise
Environment_1,CM,14.378,0.517,10.903,0.098,2.512,0.758,0.13,-0.224,0.968,6.113,7.521,0.0959,0.0923,,,No,0.9362,0.9633,0.9914,No,Cruise
Environment_1,CM,13.626,0.517,13.934,0.091,2.488,0.612,-0.129,2.106,0.995,6.077,7.689,0.0803,0.1338,,,No,0.9461,0.9574,1.0001,No,Cruise
Environment_1,CM,14.43,0.517,16.438,0.069,2.512,0.251,0.188,2.454,0.995,6.278,7.694,0.0684,0.0662,,,No,0.9436,0.9525,0.9921,No,Cruise
Environment_1,CM,14.635,0.517,17.528,0.058,2.489,0.086,-0.396,1.502,1.0,6.205,7.763,0.0621,0.0677,,,No,0.9392,0.9434,0.9852,No,Cruise
Environment_1,CM,14.877,0.517,14.95,0.026,2.496,0.31,0.241,0.347,0.994,6.048,7.728,0.079,0.1078,,,No,0.9342,0.9471,0.9757,No,Cruise
Environment_1,CM,12.084,0.517,15.74,0.091,2.484,0.045,0.138,1.252,0.984,6.107,7.856,0.0715,0.0724,,,No,0.9505,0.9553,0.9998,No,Cruise
Environment_1,CM,14.633,0.517,13.556,0.058,2.508,-0.469,0.421,-0.015,1.01,6.12,7.841,0.0372,0.0494,,,No,0.9538,0.9662,0.9948,No,Cruise
Environment_1,CM,16.164,0.517,15.717,0.03,2.486,-0.105,-0.018,0.584,1.0,6.155,7.717,0.0387,0.0683,,,No,0.9621,0.9643,0.9863,No,Cruise
Environment_1,CM,16.77,0.517,16.533,0.031,2.51,0.73,0.478,0.85,0.999,6.273,7.649,0.0137,0.0366,,,No,0.9412,0.965,0.9863,No,Cruise
Environment_1,CM,18.571,0.517,12.01,0.058,2.483,-0.289,0.289,1.543,0.995,6.267,7.622,0.0536,0.0366,,,No,0.9513,0.9529,0.9763,No,Cruise
Environment_1,CM,15.825,0.517,15.239,0.067,2.488,0.161,-0.098,1.785,1.032,6.289,7.725,0.0452,0.0203,,,No,0.9467,0.9631,0.9914,No,Cruise
Environment_1,CM,14.503,0.517,18.666,0.043,2.506,0.292,-0.399,1.72,1.006,6.214,7.605,0.0548,0.0018,,,No,0.952,0.9714,0.9762,No,Cruise
Environment_1,CM,14.081,0.517,15.145,0.054,2.514,0.03,0.023,1.149,1.011,6.267,7.822,0.0375,0.0272,,,No,0.9414,0.9525,0.9775,No,Cruise
Environment_1,CM,14.478,0.517,16.458,0.039,2.49,0.737,-0.059,0.767,0.964,6.185,7.786,0.0564,0.0354,,,No,0.9331,0.9508,0.9936,No,Cruise
Environment_1,CM,14.134,0.517,16.874,0.086,2.493,0.376,0.098,0.765,1.003,6.24,7.839,0.0487,0.019,,,No,0.934,0.9546,0.9785,No,Cruise
Environment_1,CM,16.167,0.517,15.499,0.046,2.472,-0.278,0.262,-0.062,0.956,6.232,7.873,0.0568,0.0255,,,No,0.9454,0.9567,0.9698,No,Cruise
Environment_1,CM,18.933,0.517,11.746,0.052,2.514,-0.023,-0.149,1.51,1.023,6.207,7.84,0.0439,0.0,,,No,0.9599,0.9536,0.9882,No,Cruise
Environment_1,CM,17.448,0.517,9.942,0.027,2.489,-0.042,0.33,1.651,0.985,6.326,7.914,0.0516,0.0,,,No,0.9439,0.9449,0.985,No,Cruise
Environment_1,CM,17.456,0.517,13.783,0.079,2.499,0.434,-0.265,0.468,0.987,6.197,7.497,0.0661,0.0136,,,No,0.951,0.954,0.9749,No,Cruise
Environment_1,CM,17.074,0.517,13.614,0.078,2.49,-0.174,0.094,1.712,0.975,6.086,7.66,0.0824,0.0088,,,No,0.9473,0.9503,0.9762,No,Cruise
Environment_1,CM,19.013,0.517,17.815,0.048,2.5,0.259,-0.003,0.618,0.977,6.18,7.66,0.0664,0.0319,,,No,0.9497,0.9481,0.9749,No,Cruise
Environment_1,CM,16.193,0.517,16.866,0.018,2.494,-0.149,-0.053,0.495,0.997,6.342,7.623,0.0593,0.0106,,,No,0.9503,0.9563,0.9822,No,Cruise
Environment_1,CM,16.735,0.517,16.692,0.066,2.517,-0.245,-0.226,0.721,1.019,6.2,7.452,0.0396,0.0,,,No,0.9562,0.9523,0.9839,No,Cruise
Environment_1,CM,18.431,0.517,16.659,0.068,2.509,0.289,0.07,1.155,0.981,6.349,7.774,0.0557,0.0019,,,No,0.9441,0.9533,0.9874,No,Cruise
Environment_1,CM,20.322,0.517,12.381,0.062,2.497,0.064,-0.052,-1.172,0.994,6.265,7.626,0.0409,0.0209,,,No,0.94,0.9567,0.9884,No,Cruise
Environment_1,CM,21.364,0.517,16.137,0.02,2.498,-0.088,0.095,-0.043,0.998,6.402,7.607,0.0117,0.0327,,,No,0.9353,0.9454,0.9871,No,Cruise
Environment_1,CM,18.553,0.517,15.173,0.038,2.514,0.403,0.023,-0.863,0.979,6.192,7.458,0.0372,0.0144,,,No,0.9383,0.9575,0.9914,No,Cruise
Environment_1,CM,18.478,0.517,17.354,0.016,2.477,0.161,0.294,0.282,1.001,6.266,7.612,0.0481,0.0,,,No,0.942,0.9578,0.9649,No,Cruise
Environment_1,CM,18.105,0.517,17.976,0.03,2.522,-0.438,0.002,-0.293,0.992,6.361,7.54,0.0458,0.0,,,No,0.9339,0.9625,0.9776,No,Cruise
Environment_1,CM,21.322,0.517,18.621,-0.005,2.483,-0.319,-0.084,0.97,1.022,6.482,7.682,0.0147,0.0,,,No,0.9367,0.9731,0.979,No,Cruise
Environment_1,CM,22.184,0.517,17.124,0.044,2.513,-0.414,0.077,0.112,1.019,6.509,7.602,0.0594,0.0136,,,No,0.9313,0.9646,0.9755,No,Cruise
Environment_1,CM,21.003,0.517,14.251,0.069,2.497,0.15,0.002,-1.286,0.99,6.236,7.683,0.0499,0.0682,,,No,0.933,0.9564,0.9927,No,Cruise
Environment_1,CM,22.824,0.517,17.033,0.047,2.484,-0.432,0.015,-0.193,1.013,6.268,7.641,0.0249,0.0422,,,No,0.9423,0.9508,0.9891,No,Cruise
Environment_1,CM,17.346,0.517,19.876,0.052,2.472,-0.153,0.098,-0.683,1.024,6.414,7.601,0.0152,0.0,,,No,0.9514,0.9636,0.9869,No,Cruise
Environment_1,CM,15.152,0.517,18.669,0.062,2.502,0.248,0.052,-1.102,1.001,6.45,7.682,0.0205,0.0494,,,No,0.9417,0.96,0.9879,No,Cruise
Environment_1,CM,16.985,0.517,20.982,0.03,2.507,0.447,0.291,-0.199,0.99,6.418,7.832,0.0166,0.0127,,,No,0.959,0.9563,0.9892,No,Cruise
Environment_1,CM,17.851,0.517,17.636,0.049,2.495,-0.037,0.149,0.453,1.025,6.493,7.854,0.0028,0.0155,,,No,0.9578,0.9532,0.9853,No,Cruise
Environment_1,CM,15.102,0.517,17.016,0.037,2.503,0.013,-0.418,0.018,0.982,6.364,7.576,0.0218,0.0456,,,No,0.9469,0.9381,0.9597,No,Cruise
Environment_1,CM,18.224,0.517,18.642,0.052,2.51,-0.296,0.063,-0.486,0.964,6.256,7.237,0.0242,0.0771,,,No,0.93,0.9448,0.9569,No,Cruise
Environment_1,CM,15.765,0.517,18.12,0.078,2.48,0.473,-0.252,0.266,1.013,6.021,7.018,0.0431,0.0779,,,No,0.9224,0.9291,0.9362,No,Cruise
Environment_1,CM,17.092,0.517,19.096,0.069,2.478,0.128,-0.011,1.817,1.016,5.771,7.002,0.0619,0.0817,,,No,0.932,0.9304,0.9321,No,Cruise
Environment_1,CM,17.905,0.517,17.859,0.075,2.501,0.083,-0.007,1.134,1.012,5.844,7.154,0.0775,0.0867,,,No,0.9343,0.9378,0.9397,No,Cruise
Environment_1,CM,18.774,0.517,17.353,0.096,2.531,0.374,0.444,0.09,1.005,5.65,7.047,0.0814,0.0613,,,No,0.9391,0.9364,0.9387,No,Cruise
Environment_1,CM,18.988,0.517,21.046,0.139,2.479,0.187,0.209,-0.049,0.976,5.699,7.161,0.0962,0.0856,,,No,0.9394,0.9298,0.9204,No,Cruise
Environment_1,CM,19.243,0.517,20.999,0.146,2.522,0.368,-0.065,1.44,0.967,5.736,7.1,0.1053,0.124,,,No,0.9323,0.9307,0.9281,No,Cruise
Environment_1,CM,21.228,0.517,23.926,0.125,2.523,0.631,0.077,0.28,1.012,5.45,6.76,0.1198,0.1292,,,No,0.913,0.9154,0.9108,No,Cruise
Environment_1,CM,19.091,0.517,25.057,0.122,2.54,0.447,-0.032,2.523,1.034,5.307,6.608,0.1528,0.1173,,,No,0.9056,0.9081,0.905,No,Cruise
Environment_1,CM,19.269,0.517,23.616,0.159,2.507,1.284,0.128,3.449,1.005,5.008,6.425,0.1785,0.1727,,,No,0.8901,0.8948,0.8788,No,Cruise
Environment_1,CM,23.092,0.517,23.576,0.24,2.498,1.027,-0.246,4.238,1.015,4.847,6.002,0.1912,0.1845,,,No,0.8954,0.8966,0.8692,No,Cruise
Environment_1,CM,22.488,0.517,22.931,0.227,2.522,0.824,0.128,2.896,0.969,4.887,6.013,0.2028,0.1979,,,No,0.9139,0.9176,0.8663,No,Cruise
Environment_1,CM,22.284,0.517,16.924,0.267,2.492,0.869,0.015,4.176,0.988,4.466,5.854,0.2285,0.2415,,,No,0.9067,0.9001,0.8806,No,Cruise
Environment_1,CM,21.694,0.517,16.844,0.301,2.494,1.084,-0.002,4.093,1.034,4.619,5.971,0.2576,0.2217,,,No,0.9038,0.8938,0.8693,No,Cruise
Environment_1,CM,22.535,0.517,18.351,0.374,2.507,1.81,0.176,4.156,1.003,4.18,5.691,0.3201,0.2526,Human,,Yes,0.8695,0.9019,0.7971,No,Avoidance
Environment_1,CM,20.742,0.517,19.98,0.393,2.491,2.477,0.007,4.567,0.979,4.141,5.425,0.3757,0.2511,Human,,Yes,0.8705,0.9079,0.7989,No,Avoidance
Environment_1,CM,20.016,0.517,18.636,0.353,2.516,2.231,0.409,6.085,0.994,3.916,5.245,0.4066,0.2593,Human,,Yes,0.8486,0.9081,0.8346,No,Avoidance
Environment_1,CM,18.75,0.517,19.377,0.419,2.486,2.668,0.059,5.388,0.979,4.03,5.276,0.4838,0.321,Human,,Yes,0.8532,0.908,0.7987,No,Avoidance
Environment_1,CM,21.567,0.517,17.869,0.466,2.507,2.135,-0.006,8.074,0.99,4.044,5.289,0.4956,0.3271,Human,,Yes,0.8587,0.8987,0.8154,No,Avoidance
Environment_1,CM,21.968,0.517,17.935,0.522,2.479,2.952,0.078,6.991,0.99,3.754,5.231,0.5189,0.3335,Human,,Yes,0.8591,0.8924,0.8174,No,Avoidance
Environment_1,CM,22.32,0.517,21.5,0.521,2.48,2.985,0.208,8.104,1.005,3.669,5.275,0.5892,0.4018,Human,,Yes,0.8609,0.9105,0.8025,No,Avoidance
Environment_1,CM,21.848,0.517,19.945,0.525,2.518,2.534,0.003,8.087,1.03,3.421,5.026,0.5801,0.4558,Human,,Yes,0.8264,0.8975,0.8297,No,Avoidance
Environment_1,CM,22.873,0.517,20.072,0.588,2.501,2.861,0.024,9.083,1.011,3.588,5.095,0.5924,0.4826,Human,,Yes,0.8392,0.8989,0.8035,No,Avoidance
Environment_1,CM,23.35,0.517,21.847,0.579,2.536,2.53,0.126,7.517,1.013,3.523,4.884,0.6037,0.4765,Human,,Yes,0.8348,0.9118,0.8145,No,Avoidance
Environment_1,CM,24.027,0.517,23.415,0.563,2.513,3.151,-0.104,7.553,0.977,3.519,4.822,0.6189,0.5032,Human,,Yes,0.8235,0.8827,0.8203,No,Avoidance
Environment_1,CM,23.975,0.517,23.444,0.627,2.524,3.246,0.193,8.863,0.971,3.519,4.721,0.6512,0.5323,Human,,Yes,0.8093,0.8951,0.8141,No,Avoidance
Environment_1,CM,23.956,0.517,23.436,0.633,2.461,3.785,0.443,9.336,0.997,3.642,4.757,0.6478,0.544,Human,,Yes,0.8103,0.8941,0.8196,No,Avoidance
Environment_1,CM,23.371,0.517,21.966,0.624,2.496,2.99,0.362,7.569,0.99,3.488,4.839,0.6486,0.5261,Human,,Yes,0.8007,0.8908,0.8124,No,Avoidance
Environment_1,CM,24.625,0.517,20.958,0.635,2.515,3.281,-0.207,8.793,1.001,3.494,4.986,0.6234,0.4653,Human,,Yes,0.7984,0.9,0.8291,No,Avoidance
Environment_1,CM,24.228,0.517,21.563,0.631,2.521,3.239,-0.25,8.879,0.996,3.44,4.852,0.6172,0.4463,Human,,Yes,0.7968,0.9056,0.8396,No,Avoidance
Environment_1,CM,23.08,0.517,22.01,0.629,2.533,3.307,0.054,8.824,0.982,3.682,4.725,0.6196,0.462,Human,,Yes,0.7952,0.8971,0.8524,No,Avoidance
Environment_1,CM,23.425,0.517,23.035,0.68,2.501,2.941,0.27,9.157,0.993,3.483,4.646,0.6412,0.4673,Human,,Yes,0.7892,0.8781,0.819,No,Avoidance
Environment_1,CM,23.763,0.517,20.812,0.678,2.49,3.26,-0.299,11.045,1.016,3.931,5.185,0.6315,0.4661,Human,,Yes,0.7997,0.8825,0.8083,No,Avoidance
Environment_1,CM,22.57,0.517,21.002,0.6,2.508,3.576,-0.151,8.307,1.008,3.692,5.232,0.607,0.4029,Human,,Yes,0.7971,0.8819,0.8146,No,Avoidance
Environment_1,CM,22.217,0.517,18.27,0.56,2.495,2.806,0.224,7.725,1.02,3.655,5.244,0.6019,0.4562,Human,,Yes,0.8042,0.8765,0.7837,No,Avoidance
Environment_1,CM,21.577,0.517,18.843,0.547,2.511,2.988,-0.086,6.232,0.99,3.737,5.292,0.557,0.4705,Human,,Yes,0.7969,0.8809,0.8044,No,Avoidance
Environment_1,CM,21.728,0.517,23.65,0.522,2.497,2.092,-0.393,6.206,1.011,3.758,5.388,0.4949,0.4427,Human,,Yes,0.8004,0.8692,0.8231,No,Avoidance
Environment_1,CM,22.917,0.517,26.245,0.481,2.467,2.143,0.151,5.216,0.975,3.868,5.379,0.4611,0.4087,Human,,Yes,0.791,0.8673,0.8142,No,Avoidance
Environment_1,CM,23.336,0.517,27.673,0.471,2.485,1.772,-0.092,7.169,0.994,4.086,5.576,0.4461,0.3819,Human,,Yes,0.8119,0.8796,0.8332,No,Avoidance
Environment_1,CM,21.368,0.517,26.843,0.454,2.518,2.458,-0.175,4.911,1.014,4.317,5.601,0.4109,0.335,Human,,Yes,0.8139,0.893,0.8405,No,Avoidance
Environment_1,CM,21.882,0.517,24.958,0.323,2.509,1.911,0.428,4.744,1.004,4.475,5.963,0.4034,0.3324,Human,,Yes,0.8111,0.8713,0.8158,No,Avoidance
Environment_1,CM,21.479,0.517,21.358,0.31,2.476,1.873,-0.367,5.073,1.004,4.436,5.624,0.3674,0.3107,Human,,Yes,0.8112,0.8605,0.8229,No,Avoidance
Environment_1,CM,21.137,0.517,23.604,0.263,2.491,1.586,-0.037,3.113,0.999,4.385,5.629,0.3299,0.2345,Human,,Yes,0.8144,0.8613,0.8229,No,Avoidance
Environment_1,CM,19.857,0.517,23.202,0.278,2.492,1.603,-0.199,2.171,1.017,4.725,5.815,0.2967,0.1695,Human,,Yes,0.8235,0.8553,0.8446,No,Avoidance
Environment_1,CM,17.668,0.517,23.582,0.27,2.51,1.11,0.186,2.583,0.998,4.611,6.055,0.2673,0.1379,Human,,Yes,0.8181,0.8475,0.8536,No,Avoidance
Environment_1,CM,18.459,0.517,21.346,0.214,2.498,0.579,0.098,2.979,0.978,4.848,6.082,0.2359,0.1366,Human,,Yes,0.8145,0.854,0.8346,No,Avoidance
Environment_1,CM,21.794,0.517,20.991,0.136,2.498,0.159,-0.303,2.499,1.01,4.961,6.461,0.2022,0.0897,Human,,Yes,0.8433,0.869,0.8703,No,Avoidance
Environment_1,CM,22.235,0.517,19.823,0.1,2.511,0.242,-0.144,0.134,0.977,4.984,6.268,0.1632,0.1167,Human,,Yes,0.8365,0.8545,0.8826,No,Avoidance
Environment_1,CM,22.497,0.517,22.449,0.03,2.49,0.542,0.035,1.734,0.953,5.254,6.491,0.142,0.1134,Human,,Yes,0.8737,0.881,0.8895,No,Avoidance
Environment_1,CM,23.119,0.517,24.564,0.017,2.473,-0.204,0.279,0.603,0.996,5.347,6.868,0.1729,0.0944,Human,,Yes,0.8701,0.8943,0.902,No,Avoidance
Environment_1,CM,19.487,0.517,20.783,-0.022,2.502,-0.409,0.087,1.636,1.0,5.221,6.914,0.1484,0.0242,Human,,Yes,0.8777,0.8863,0.9142,No,Avoidance
Environment_1,CM,20.46,0.517,21.015,-0.039,2.505,-0.344,0.015,0.338,1.001,5.483,7.106,0.1071,0.0389,Human,,Yes,0.9098,0.9016,0.9287,No,Avoidance
Environment_1,CM,22.808,0.517,23.989,-0.044,2.49,-0.773,0.082,-1.318,0.985,5.741,7.274,0.1388,0.0381,Human,,Yes,0.9219,0.9305,0.9394,No,Avoidance
Environment_1,CM,24.22,0.517,25.942,-0.043,2.513,-0.748,-0.29,-0.974,0.981,6.144,7.5,0.1024,0.0548,,,No,0.9384,0.94,0.9526,No,Cruise
Environment_1,CM,23.978,0.517,26.605,-0.03,2.501,-0.491,0.165,-0.603,0.993,6.011,7.364,0.1359,0.0397,,,No,0.939,0.9432,0.9467,No,Cruise
Environment_1,CM,27.306,0.517,26.915,-0.086,2.485,-0.911,-0.041,-0.009,1.007,6.059,7.452,0.0991,0.0234,,,No,0.9544,0.9583,0.9745,No,Cruise
Environment_1,CM,27.484,0.517,24.854,-0.037,2.475,-0.23,-0.275,-0.739,1.006,6.183,7.684,0.0786,0.0325,,,No,0.9557,0.957,0.9807,No,Cruise
Environment_1,CM,29.661,0.517,28.013,-0.08,2.503,-0.308,-0.074,-0.632,1.015,6.116,7.477,0.053,0.0145,,,No,0.9561,0.9529,0.9897,No,Cruise
Environment_1,CM,28.733,0.517,25.815,-0.14,2.482,-0.448,-0.147,-1.07,1.049,6.193,7.589,0.1051,0.0529,,,No,0.964,0.9566,0.9953,No,Cruise
Environment_1,CM,27.281,0.517,27.367,-0.124,2.519,-1.152,0.086,-0.567,1.019,6.04,7.499,0.093,0.0375,,,No,0.95,0.9696,0.9821,No,Cruise
Environment_1,CM,28.089,0.517,26.388,-0.135,2.49,-0.958,0.15,-0.625,1.036,5.995,7.334,0.0878,0.02,,,No,0.9414,0.9637,0.9793,No,Cruise
Environment_1,CM,28.416,0.517,23.198,-0.1,2.509,-0.446,0.048,-1.81,1.022,5.786,7.488,0.0968,0.0224,,,No,0.9426,0.9552,0.9741,No,Cruise
Environment_1,CM,22.904,0.517,22.734,-0.068,2.498,-0.397,-0.342,-2.646,0.984,6.002,7.643,0.0708,0.0646,,,No,0.9468,0.959,0.9725,No,Cruise
Environment_1,CM,23.631,0.517,23.693,-0.098,2.511,-0.357,0.153,-2.573,1.005,5.881,7.493,0.0774,0.0511,,,No,0.951,0.9622,0.9841,No,Cruise
Environment_1,CM,25.116,0.517,21.816,-0.113,2.507,-0.05,0.388,-2.737,0.988,5.953,7.556,0.0811,0.0461,,,No,0.9544,0.9585,0.977,No,Cruise
Environment_1,CM,23.459,0.517,24.119,-0.104,2.518,-0.038,-0.078,-0.303,0.998,6.216,7.595,0.068,0.0655,,,No,0.9571,0.9669,0.9699,No,Cruise
Environment_1,CM,24.507,0.517,23.651,-0.116,2.476,-0.619,0.364,-1.571,1.041,6.022,7.522,0.0677,0.0836,,,No,0.9586,0.9576,0.9747,No,Cruise
Environment_1,CM,21.808,0.517,25.652,-0.097,2.51,-0.694,0.069,-1.493,1.032,5.907,7.428,0.0844,0.1039,,,No,0.9547,0.969,0.9772,No,Cruise
Environment_1,CM,23.443,0.517,25.993,-0.113,2.515,-0.294,-0.183,-0.957,1.002,6.072,7.686,0.0601,0.1037,,,No,0.9538,0.9629,0.9814,No,Cruise
Environment_1,CM,27.694,0.517,28.193,-0.127,2.518,-0.526,-0.04,0.048,0.993,6.054,7.658,0.0833,0.1006,,,No,0.9586,0.9688,0.9857,No,Cruise
Environment_1,CM,27.178,0.517,27.854,-0.106,2.525,-0.567,0.115,-0.853,0.991,6.169,7.497,0.1031,0.0419,,,No,0.9459,0.9744,0.9766,No,Cruise
Environment_1,CM,27.217,0.517,27.108,-0.061,2.484,-0.352,0.119,0.292,1.016,6.255,7.64,0.1287,0.0621,,,No,0.9652,0.9592,0.9847,No,Cruise
Environment_1,CM,28.131,0.517,28.183,-0.082,2.48,-0.214,-0.015,-0.307,1.005,6.189,7.802,0.1144,0.0,,,No,0.9596,0.9632,0.9961,No,Cruise
Environment_1,CM,29.241,0.517,29.035,-0.105,2.477,0.111,-0.371,-0.589,1.011,6.18,7.487,0.1325,0.0348,,,No,0.9633,0.9649,1.0003,No,Cruise
Environment_1,CM,25.579,0.517,29.545,-0.132,2.472,-0.602,-0.059,-2.151,0.997,6.232,7.416,0.1111,0.0094,,,No,0.9546,0.9674,0.9913,No,Cruise
Environment_1,CM,27.785,0.517,27.473,-0.162,2.493,-0.603,0.13,-1.211,1.028,6.098,7.268,0.1158,0.0814,,,No,0.9498,0.969,0.9915,No,Cruise
Environment_1,CM,25.685,0.517,24.33,-0.102,2.483,0.014,-0.074,-1.251,0.996,6.073,7.23,0.1159,0.071,,,No,0.9414,0.9623,0.9967,No,Cruise
Environment_1,CM,26.483,0.517,27.723,-0.125,2.499,-0.726,-0.028,1.357,1.006,6.227,7.372,0.1271,0.0778,,,No,0.945,0.9659,1.0054,No,Cruise
Environment_1,CM,26.703,0.517,26.778,-0.124,2.526,-0.358,0.095,0.146,0.995,6.09,7.459,0.0992,0.0855,,,No,0.9507,0.9668,1.0084,No,Cruise
Environment_1,CM,27.838,0.517,24.751,-0.136,2.51,-0.4,0.054,-1.311,1.002,6.003,7.319,0.1235,0.1102,,,No,0.9393,0.9784,0.9982,No,Cruise
Environment_1,CM,29.156,0.517,23.82,-0.134,2.499,-0.14,0.223,-1.096,0.996,6.027,7.442,0.1031,0.0808,,,No,0.9453,0.9808,0.9955,No,Cruise
Environment_1,CM,27.46,0.517,25.957,-0.089,2.514,-0.61,0.073,-1.376,1.022,5.821,7.337,0.1064,0.0963,,,No,0.9549,0.9729,0.9922,No,Cruise
Environment_1,CM,25.084,0.517,26.514,-0.134,2.505,-1.468,0.179,-1.019,0.972,5.87,7.433,0.0722,0.1032,,,No,0.9575,0.9727,0.9854,No,Cruise
Environment_1,CM,24.352,0.517,24.341,-0.151,2.491,-0.546,-0.21,0.313,1.025,5.894,7.323,0.0821,0.1254,,,No,0.9493,0.9707,0.9874,No,Cruise
Environment_1,CM,26.741,0.517,23.806,-0.125,2.491,-1.131,-0.005,-0.098,0.974,6.002,7.104,0.0829,0.0623,,,No,0.9562,0.9728,0.9806,No,Cruise
Environment_1,CM,24.917,0.517,25.221,-0.151,2.487,-0.824,0.049,-1.734,1.013,6.094,7.457,0.0976,0.049,,,No,0.9576,0.9692,0.9624,No,Cruise
Environment_1,CM,25.439,0.517,27.336,-0.165,2.51,-0.448,0.062,-0.781,1.021,6.112,7.391,0.0922,0.0301,,,No,0.9589,0.9723,0.9794,No,Cruise
Environment_1,CM,26.218,0.517,28.056,-0.183,2.494,-1.109,0.01,-2.396,1.019,6.161,7.455,0.0962,0.0604,,,No,0.97,0.9708,0.9755,No,Cruise
Environment_1,CM,23.651,0.517,29.686,-0.16,2.485,-0.494,-0.32,-3.564,0.989,5.989,7.517,0.0968,0.0467,,,No,0.9586,0.9646,0.972,No,Cruise
Environment_1,CM,26.236,0.517,30.141,-0.166,2.494,-0.434,0.202,-1.924,0.982,6.006,7.258,0.1351,0.057,,,No,0.957,0.9687,0.9866,No,Cruise
Environment_1,CM,27.3,0.517,26.983,-0.118,2.489,-0.632,0.044,-1.503,1.037,6.18,7.221,0.1546,0.0,,,No,0.9588,0.9661,0.9959,No,Cruise
Environment_1,CM,29.992,0.517,22.508,-0.07,2.502,-0.897,0.171,-2.104,0.991,6.251,7.09,0.1056,0.0,,,No,0.9637,0.9805,0.9982,No,Cruise
Environment_1,CM,28.152,0.517,23.655,-0.098,2.52,-0.847,0.051,-2.74,0.974,6.126,7.175,0.1016,0.0179,,,No,0.9617,0.9784,0.9951,No,Cruise
Environment_1,CM,26.168,0.517,27.663,-0.127,2.514,-0.169,-0.37,-1.802,0.998,6.202,7.337,0.1023,0.0523,,,No,0.9619,0.9741,0.9857,No,Cruise
Environment_1,CM,27.621,0.517,26.587,-0.141,2.494,-0.584,-0.169,-1.866,0.975,6.057,7.141,0.1071,0.0475,,,No,0.9624,0.9711,0.9852,No,Cruise
Environment_1,CM,24.367,0.517,25.334,-0.14,2.485,-0.354,0.077,-1.29,0.993,6.201,7.474,0.0929,0.01,,,No,0.972,0.9704,0.9706,No,Cruise
Environment_1,CM,27.32,0.517,24.202,-0.126,2.495,-0.765,-0.071,-0.772,0.989,6.036,7.24,0.1173,0.0,,,No,0.9814,0.9826,0.9737,No,Cruise
Environment_1,CM,28.669,0.517,24.541,-0.153,2.514,-0.271,-0.123,-0.884,0.996,5.99,7.256,0.1326,0.043,,,No,0.9727,0.9687,0.9761,No,Cruise
Environment_1,CM,29.432,0.517,24.224,-0.13,2.515,-0.902,-0.112,-2.132,1.006,6.144,7.433,0.1084,0.0829,,,No,0.9693,0.9662,0.9791,No,Cruise
Environment_1,CM,28.162,0.517,22.546,-0.117,2.494,-0.64,-0.019,-1.673,0.99,6.067,7.457,0.0999,0.1014,,,No,0.9644,0.9712,0.9794,No,Cruise
Environment_1,CM,25.087,0.517,24.659,-0.127,2.505,-0.653,-0.405,-1.456,0.959,6.31,7.628,0.1175,0.1065,,,No,0.9525,0.9584,0.9621,No,Cruise
Environment_1,CM,24.92,0.517,26.715,-0.117,2.522,-0.525,-0.159,-2.646,1.012,6.221,7.281,0.0926,0.1176,,,No,0.9511,0.9643,0.9726,No,Cruise
Environment_1,CM,23.377,0.517,27.185,-0.114,2.469,-0.931,-0.296,-1.035,1.033,6.088,7.315,0.1239,0.0436,,,No,0.9414,0.9628,0.9852,No,Cruise
Environment_1,CM,26.415,0.517,32.445,-0.066,2.507,-0.474,0.219,-1.956,0.994,6.206,7.346,0.0985,0.069,,,No,0.9442,0.9608,0.9841,No,Cruise
Environment_1,CM,29.134,0.517,30.452,-0.097,2.471,-0.418,0.071,-2.663,0.978,6.05,7.582,0.0896,0.0951,,,No,0.9429,0.9756,0.9909,No,Cruise
Environment_1,CM,30.782,0.517,29.914,-0.122,2.485,-0.809,-0.028,-1.194,0.992,5.888,7.461,0.0979,0.1151,,,No,0.9507,0.9692,0.988,No,Cruise
Environment_1,CM,33.175,0.517,30.151,-0.106,2.495,-0.515,-0.101,-1.617,0.977,5.946,7.761,0.112,0.0641,,,No,0.9535,0.9742,0.989,No,Cruise
Environment_1,CM,33.83,0.517,31.389,-0.129,2.532,-0.139,0.217,-0.969,0.977,6.084,7.643,0.1115,0.0967,,,No,0.9522,0.9786,0.9897,No,Cruise
Environment_1,CM,33.237,0.517,31.011,-0.132,2.498,-0.953,-0.385,-1.835,1.025,5.992,7.384,0.1186,0.059,,,No,0.9631,0.9804,0.994,No,Cruise
Environment_1,CM,32.556,0.517,30.68,-0.124,2.5,-0.917,0.386,-1.785,0.987,6.119,7.515,0.1177,0.052,,,No,0.9649,0.974,0.9856,No,Cruise
Environment_1,CM,31.214,0.517,28.772,-0.127,2.509,-0.118,0.257,-2.054,1.013,6.08,7.33,0.1258,0.0371,,,No,0.9557,0.9819,0.9859,No,Cruise
Environment_1,CM,34.401,0.517,29.465,-0.097,2.488,-0.829,0.1,-2.463,0.978,6.018,7.459,0.124,0.0755,,,No,0.9679,0.9747,0.983,No,Cruise
Environment_1,CM,32.216,0.517,30.199,-0.064,2.495,-1.17,-0.258,-2.102,1.022,5.989,7.776,0.0995,0.0953,,,No,0.9672,0.969,0.983,No,Cruise
Environment_1,CM,31.159,0.517,31.198,-0.111,2.47,-0.673,-0.045,-1.128,0.989,5.994,7.468,0.1189,0.1306,,,No,0.9639,0.9778,0.9771,No,Cruise
Environment_1,CM,29.849,0.517,33.399,-0.136,2.512,-0.859,0.004,-1.367,1.02,6.019,7.552,0.1209,0.0976,,,No,0.9731,0.9681,0.9792,No,Cruise
Environment_1,CM,28.708,0.517,31.862,-0.096,2.508,-0.803,0.11,-1.426,0.981,5.855,7.34,0.1457,0.0555,,,No,0.9431,0.952,0.9563,No,Cruise
Environment_1,CM,32.064,0.517,31.359,-0.09,2.508,-0.5,-0.012,-1.328,0.988,5.887,7.332,0.1403,0.1249,,,No,0.9422,0.938,0.9582,No,Cruise
Environment_1,CM,30.145,0.517,30.946,-0.157,2.508,-0.841,0.177,-0.832,1.005,5.819,7.41,0.136,0.121,,,No,0.9492,0.9514,0.9556,No,Cruise
Environment_1,CM,32.195,0.517,30.951,-0.111,2.479,-0.752,0.189,-0.658,0.967,5.53,7.138,0.1603,0.1131,,,No,0.9451,0.925,0.9237,No,Cruise
Environment_1,CM,28.25,0.517,29.327,-0.141,2.501,-1.01,-0.159,-1.5,0.993,5.672,6.986,0.1881,0.1268,,,No,0.9524,0.9299,0.9432,No,Cruise
Environment_1,CM,28.199,0.517,31.89,-0.119,2.51,-0.774,0.226,-1.515,1.01,5.546,6.955,0.1804,0.1181,,,No,0.9444,0.9234,0.9267,No,Cruise
Environment_1,CM,31.847,0.517,31.502,-0.152,2.506,-0.681,0.106,-2.03,1.012,5.523,7.072,0.1968,0.1598,,,No,0.9362,0.9217,0.9259,No,Cruise
Environment_1,CM,29.555,0.517,27.625,-0.183,2.502,-1.556,0.223,-3.141,1.01,5.355,6.791,0.2333,0.1337,,,No,0.9152,0.9067,0.8923,No,Cruise
Environment_1,CM,28.556,0.517,28.254,-0.189,2.492,-0.258,-0.315,-4.257,1.019,5.33,6.849,0.2113,0.118,,,No,0.9241,0.9131,0.9097,No,Cruise
Environment_1,CM,31.202,0.517,30.483,-0.272,2.494,-0.717,0.244,-3.947,1.009,5.446,6.683,0.1968,0.1407,,,No,0.9248,0.9055,0.9204,No,Cruise
Environment_1,CM,28.784,0.517,28.903,-0.252,2.497,-0.979,-0.177,-3.766,0.991,4.557,5.907,0.228,0.1883,Palm_Trunk,,Yes,0.884,0.8612,0.8493,No,Avoidance
Environment_1,CM,26.106,0.517,31.116,-0.304,2.51,-1.443,-0.121,-3.281,0.99,4.525,5.885,0.2811,0.2186,Palm_Trunk,,Yes,0.8851,0.8538,0.835,No,Avoidance
Environment_1,CM,26.3,0.517,31.177,-0.321,2.533,-1.544,-0.111,-1.9,1.018,4.315,5.657,0.3051,0.2175,Palm_Trunk,,Yes,0.8641,0.8492,0.8171,No,Avoidance
Environment_1,CM,26.641,0.517,30.408,-0.332,2.493,-1.846,0.199,-5.59,1.012,4.194,5.533,0.3399,0.2805,Palm_Trunk,,Yes,0.8601,0.8663,0.8419,No,Avoidance
Environment_1,CM,27.777,0.517,29.852,-0.374,2.494,-1.765,-0.2,-4.807,0.998,3.947,5.479,0.3572,0.3088,Palm_Trunk,,Yes,0.867,0.8551,0.815,No,Avoidance
Environment_1,CM,28.945,0.517,30.161,-0.417,2.524,-2.448,0.096,-7.027,0.99,3.998,5.452,0.361,0.3331,Palm_Trunk,,Yes,0.8834,0.8442,0.8362,No,Avoidance
Environment_1,CM,31.317,0.517,33.144,-0.472,2.495,-2.183,0.006,-5.594,1.017,3.836,5.518,0.4425,0.3473,Palm_Trunk,,Yes,0.8747,0.8496,0.824,No,Avoidance
Environment_1,CM,29.185,0.517,33.682,-0.507,2.485,-2.537,0.349,-7.322,0.992,3.738,5.394,0.4313,0.3618,Palm_Trunk,,Yes,0.8985,0.8511,0.7942,No,Avoidance
Environment_1,CM,28.897,0.517,31.286,-0.473,2.502,-2.508,-0.206,-7.789,0.977,3.631,5.117,0.4924,0.3969,Palm_Trunk,,Yes,0.9017,0.8495,0.8028,No,Avoidance
Environment_1,CM,27.982,0.517,30.747,-0.539,2.501,-1.997,0.13,-6.989,1.013,3.817,5.237,0.5267,0.3604,Palm_Trunk,,Yes,0.885,0.8637,0.825,No,Avoidance
Environment_1,CM,29.94,0.517,33.781,-0.499,2.496,-2.742,-0.085,-8.784,1.021,3.665,4.913,0.5417,0.396,Palm_Trunk,,Yes,0.8925,0.8677,0.8393,No,Avoidance
Environment_1,CM,30.847,0.517,34.114,-0.568,2.505,-3.067,-0.058,-8.913,1.007,3.55,4.595,0.5831,0.4248,Palm_Trunk,,Yes,0.8932,0.8762,0.843,No,Avoidance
Environment_1,CM,32.65,0.517,33.824,-0.568,2.509,-2.92,-0.189,-8.98,1.003,3.719,5.159,0.575,0.4199,Palm_Trunk,,Yes,0.8831,0.8827,0.8118,No,Avoidance
Environment_1,CM,28.828,0.517,38.153,-0.593,2.482,-2.952,-0.103,-9.008,0.977,3.597,4.906,0.5587,0.4425,Palm_Trunk,,Yes,0.8672,0.8821,0.8196,No,Avoidance
Environment_1,CM,28.857,0.517,33.83,-0.624,2.502,-3.011,0.124,-8.646,1.009,3.647,5.186,0.5814,0.3918,Palm_Trunk,,Yes,0.8616,0.8779,0.8118,No,Avoidance
Environment_1,CM,30.525,0.517,32.458,-0.617,2.504,-3.076,0.009,-8.002,0.944,3.649,5.236,0.632,0.4557,Palm_Trunk,,Yes,0.8846,0.8942,0.8209,No,Avoidance
Environment_1,CM,31.799,0.517,30.765,-0.583,2.487,-3.263,-0.073,-8.76,0.999,3.701,5.079,0.6305,0.4668,Palm_Trunk,,Yes,0.8643,0.8988,0.7953,No,Avoidance
Environment_1,CM,31.811,0.517,33.752,-0.612,2.509,-3.072,0.246,-9.54,0.992,3.679,4.929,0.6181,0.4474,Palm_Trunk,,Yes,0.86,0.9016,0.819,No,Avoidance
Environment_1,CM,29.623,0.517,37.014,-0.62,2.49,-3.094,-0.39,-9.768,1.001,3.527,5.011,0.6104,0.4932,Palm_Trunk,,Yes,0.8565,0.8952,0.8286,No,Avoidance
Environment_1,CM,29.658,0.517,33.437,-0.608,2.503,-2.929,-0.149,-9.67,0.995,3.816,5.326,0.6075,0.5016,Palm_Trunk,,Yes,0.8469,0.9068,0.8175,No,Avoidance
Environment_1,CM,30.986,0.517,36.756,-0.591,2.534,-2.989,0.012,-7.67,1.008,3.649,5.104,0.5812,0.5032,Palm_Trunk,,Yes,0.8431,0.91,0.8158,No,Avoidance
Environment_1,CM,30.588,0.517,35.562,-0.542,2.461,-2.597,0.09,-7.368,1.012,3.829,4.981,0.5646,0.5185,Palm_Trunk,,Yes,0.838,0.9024,0.8288,No,Avoidance
Environment_1,CM,31.645,0.517,35.104,-0.563,2.492,-2.548,-0.027,-9.24,0.996,3.969,5.099,0.5802,0.4807,Palm_Trunk,,Yes,0.8287,0.9142,0.8185,No,Avoidance
Environment_1,CM,32.749,0.517,32.865,-0.622,2.497,-2.725,0.202,-6.61,0.997,3.586,4.776,0.5837,0.4475,Palm_Trunk,,Yes,0.84,0.902,0.8086,No,Avoidance
Environment_1,CM,33.479,0.517,32.769,-0.58,2.489,-3.219,0.037,-8.909,0.977,3.722,5.025,0.5591,0.3754,Palm_Trunk,,Yes,0.8193,0.9106,0.8069,No,Avoidance
Environment_1,CM,35.802,0.517,36.568,-0.505,2.504,-2.536,-0.053,-9.314,1.01,3.81,5.117,0.5203,0.3655,Palm_Trunk,,Yes,0.8082,0.8981,0.8028,No,Avoidance
Environment_1,CM,31.507,0.517,33.269,-0.462,2.517,-2.538,0.076,-7.154,0.988,3.827,5.202,0.4716,0.3545,Palm_Trunk,,Yes,0.8157,0.8933,0.7987,No,Avoidance
Environment_1,CM,31.97,0.517,29.512,-0.419,2.501,-2.208,-0.19,-6.766,1.002,3.89,5.515,0.4815,0.3846,Palm_Trunk,,Yes,0.8153,0.8916,0.8032,No,Avoidance
Environment_1,CM,35.156,0.517,29.628,-0.407,2.476,-2.863,0.155,-6.058,1.025,3.996,5.586,0.4739,0.3332,Palm_Trunk,,Yes,0.8066,0.8894,0.8204,No,Avoidance
Environment_1,CM,32.646,0.517,34.38,-0.354,2.493,-2.326,-0.226,-7.046,0.975,3.942,5.645,0.3824,0.3047,Palm_Trunk,,Yes,0.8081,0.8825,0.8183,No,Avoidance
Environment_1,CM,31.159,0.517,34.658,-0.398,2.513,-2.225,-0.312,-5.704,0.98,4.371,6.022,0.3209,0.278,Palm_Trunk,,Yes,0.8169,0.9022,0.8472,No,Avoidance
Environment_1,CM,31.331,0.517,35.631,-0.344,2.495,-2.174,0.09,-5.724,0.999,4.423,5.838,0.3543,0.2816,Palm_Trunk,,Yes,0.8208,0.9045,0.8294,No,Avoidance
Environment_1,CM,30.841,0.517,37.275,-0.28,2.512,-1.857,0.045,-4.19,0.986,4.582,5.722,0.3231,0.2604,Palm_Trunk,,Yes,0.8056,0.8954,0.8625,No,Avoidance
Environment_1,CM,30.933,0.517,32.565,-0.228,2.501,-1.217,0.196,-2.906,0.954,4.751,5.978,0.2697,0.2055,Palm_Trunk,,Yes,0.8068,0.9029,0.8297,No,Avoidance
Environment_1,CM,31.371,0.517,30.693,-0.231,2.521,-1.453,0.222,-4.452,0.988,4.79,6.112,0.2405,0.1922,Palm_Trunk,,Yes,0.8102,0.8958,0.8677,No,Avoidance
Environment_1,CM,32.988,0.517,30.029,-0.189,2.491,-0.919,0.383,-4.196,1.025,5.096,6.484,0.2105,0.117,Palm_Trunk,,Yes,0.8318,0.9095,0.871,No,Avoidance
Environment_1,CM,31.332,0.517,31.114,-0.193,2.516,-1.091,0.12,-3.41,0.992,5.192,6.545,0.2087,0.1382,Palm_Trunk,,Yes,0.8516,0.9104,0.8904,No,Avoidance
Environment_1,CM,36.764,0.517,35.027,-0.167,2.489,-0.478,0.377,-2.33,1.019,5.132,6.716,0.1744,0.1528,Palm_Trunk,,Yes,0.8603,0.9047,0.8782,No,Avoidance
Environment_1,CM,35.45,0.517,31.256,-0.135,2.494,-0.576,0.136,-1.213,1.015,5.216,6.62,0.1852,0.202,Palm_Trunk,,Yes,0.8989,0.9162,0.9072,No,Avoidance
Environment_1,CM,34.628,0.517,33.796,-0.125,2.491,-0.594,-0.165,-2.828,1.006,5.562,7.058,0.1748,0.1993,Palm_Trunk,,Yes,0.9156,0.9383,0.93,No,Avoidance
Environment_1,CM,37.025,0.517,33.078,-0.112,2.529,-0.144,-0.123,-0.769,1.014,5.513,6.975,0.138,0.1677,Palm_Trunk,,Yes,0.9169,0.9496,0.921,No,Avoidance
Environment_1,CM,33.787,0.517,34.756,-0.104,2.526,-1.109,0.084,-1.279,0.983,5.698,7.104,0.1527,0.1695,Palm_Trunk,,Yes,0.9228,0.9394,0.9338,No,Avoidance
Environment_1,CM,33.85,0.517,31.712,-0.068,2.515,-0.488,-0.046,-1.358,1.001,5.735,7.205,0.1432,0.15,Palm_Trunk,,Yes,0.9153,0.9345,0.9391,No,Avoidance
Environment_1,CM,33.92,0.517,33.512,-0.08,2.515,-0.366,0.231,-2.351,1.012,5.714,7.18,0.1182,0.1092,Palm_Trunk,,Yes,0.9198,0.9368,0.9436,No,Avoidance
Environment_1,CM,34.176,0.517,36.32,-0.082,2.503,-0.136,-0.228,-0.668,0.988,5.849,7.469,0.1025,0.0618,Palm_Trunk,,Yes,0.9144,0.9241,0.9396,No,Avoidance
Environment_1,CM,32.876,0.517,38.301,-0.09,2.483,-0.375,-0.238,-0.46,1.0,5.828,7.242,0.105,0.0537,Palm_Trunk,,Yes,0.9121,0.9327,0.9297,No,Avoidance
Environment_1,CM,32.987,0.517,40.764,-0.051,2.473,-0.12,0.079,0.37,0.976,5.817,7.244,0.0533,0.0381,Palm_Trunk,,Yes,0.9148,0.9417,0.9161,No,Avoidance
Environment_1,CM,35.22,0.517,38.038,-0.009,2.511,-0.253,0.051,0.169,0.986,5.849,7.356,0.0697,0.0656,,,No,0.9355,0.9597,0.9421,No,Cruise
Environment_1,CM,38.153,0.517,37.25,0.008,2.491,-0.312,0.446,-0.533,0.995,5.96,7.16,0.0265,0.0265,,,No,0.9392,0.9637,0.9515,No,Cruise
Environment_1,CM,41.787,0.517,40.575,-0.006,2.503,-0.434,0.276,-0.378,0.984,6.309,7.518,0.0613,0.0,,,No,0.9639,0.9723,0.9693,No,Cruise
Environment_1,CM,39.467,0.517,42.855,-0.027,2.509,-0.613,-0.009,-0.08,1.022,6.164,7.447,0.0478,0.0,,,No,0.9644,0.9722,0.9656,No,Cruise
Environment_1,CM,36.902,0.517,39.53,-0.01,2.505,-0.341,0.24,0.181,1.013,6.298,7.434,0.0519,0.0,,,No,0.9698,0.9573,0.9672,No,Cruise
Environment_1,CM,36.079,0.517,38.539,-0.025,2.509,0.047,-0.209,0.511,0.979,6.076,7.575,0.0311,0.0,,,No,0.9662,0.9573,0.9645,No,Cruise
Environment_1,CM,34.083,0.517,35.986,0.008,2.496,-0.164,0.08,0.675,0.958,6.344,7.861,0.0275,0.0,,,No,0.973,0.9596,0.9654,No,Cruise
Environment_1,CM,35.399,0.517,37.072,-0.013,2.52,-0.054,0.02,-0.68,1.015,6.23,7.674,0.0142,0.0,,,No,0.9723,0.9752,0.9712,No,Cruise
Environment_1,CM,35.094,0.517,38.173,-0.037,2.489,-0.133,-0.124,0.228,0.966,6.111,7.547,0.0068,0.0,,,No,0.9578,0.9637,0.9901,No,Cruise
Environment_1,CM,37.524,0.517,36.512,-0.021,2.522,0.233,0.01,-0.812,0.99,6.276,7.954,0.015,0.0211,,,No,0.9546,0.9693,1.0039,No,Cruise
Environment_1,CM,41.192,0.517,38.033,-0.056,2.48,-0.172,0.155,-0.28,1.004,6.143,7.828,0.0195,0.0068,,,No,0.9515,0.9704,0.9944,No,Cruise
Environment_1,CM,40.372,0.517,37.347,-0.025,2.496,-0.037,0.2,-0.696,0.986,6.1,7.712,0.0017,0.0252,,,No,0.9501,0.9611,0.9923,No,Cruise
Environment_1,CM,39.173,0.517,37.021,-0.096,2.525,0.008,-0.091,-0.868,1.012,6.278,7.722,0.0541,0.073,,,No,0.9484,0.9659,0.996,No,Cruise
Environment_1,CM,39.17,0.517,37.842,-0.026,2.501,-0.092,-0.141,0.288,0.968,6.265,7.779,0.0279,0.0382,,,No,0.9522,0.9647,0.9872,No,Cruise
Environment_1,CM,36.808,0.517,39.83,-0.013,2.482,-0.31,-0.06,-0.376,0.96,6.29,7.766,0.0249,0.0211,,,No,0.9506,0.967,0.9876,No,Cruise
Environment_1,CM,37.481,0.517,38.968,0.014,2.514,-0.526,0.06,-0.069,0.99,6.264,7.968,0.0289,0.0,,,No,0.9581,0.9601,0.9769,No,Cruise
Environment_1,CM,36.2,0.517,39.746,-0.015,2.496,-0.11,0.12,0.016,1.019,6.349,7.76,0.032,0.0158,,,No,0.9462,0.9679,0.9845,No,Cruise
Environment_1,CM,32.591,0.517,40.877,-0.014,2.518,0.523,0.136,-0.155,1.019,6.265,7.729,0.0349,0.0479,,,No,0.9597,0.9603,0.9898,No,Cruise
Environment_1,CM,37.772,0.517,36.494,-0.011,2.51,-0.279,-0.122,-0.223,1.013,6.227,7.757,0.0151,0.0517,,,No,0.9621,0.9737,0.9794,No,Cruise
Environment_1,CM,37.717,0.517,34.862,-0.014,2.517,-0.087,0.027,-0.851,0.978,6.46,7.887,0.0285,0.0359,,,No,0.9735,0.9717,0.9801,No,Cruise
Environment_1,CM,38.546,0.517,32.943,0.052,2.481,0.169,0.036,-0.376,0.994,6.486,7.846,0.0355,0.0924,,,No,0.957,0.9662,0.9944,No,Cruise
Environment_1,CM,37.281,0.517,35.048,0.044,2.482,0.062,0.027,0.322,1.006,6.208,7.662,0.0234,0.0267,,,No,0.9534,0.9682,0.9918,No,Cruise
Environment_1,CM,39.786,0.517,34.911,0.022,2.485,-0.513,0.046,-0.664,0.984,6.1,7.741,0.039,0.0402,,,No,0.949,0.975,0.9953,No,Cruise
Environment_1,CM,39.878,0.517,38.063,0.035,2.508,-0.43,-0.248,-0.579,0.996,6.126,7.751,0.0408,0.0,,,No,0.9482,0.968,0.9838,No,Cruise
Environment_1,CM,42.551,0.517,36.726,-0.005,2.502,-0.197,0.076,0.138,0.981,6.371,7.777,0.0287,0.0303,,,No,0.96,0.9658,0.9779,No,Cruise
Environment_1,CM,36.479,0.517,36.535,0.032,2.489,-0.237,0.204,-1.34,0.957,6.314,7.639,0.0432,0.0457,,,No,0.9562,0.9668,1.0016,No,Cruise
Environment_1,CM,38.169,0.517,36.463,0.006,2.519,-0.443,0.094,0.54,0.997,6.254,7.601,0.0443,0.0589,,,No,0.9601,0.9643,0.9882,No,Cruise
Environment_1,CM,38.866,0.517,36.911,-0.009,2.496,0.177,0.33,0.652,1.009,6.187,7.699,0.0499,0.0688,,,No,0.9513,0.9606,1.0004,No,Cruise
Environment_1,CM,40.615,0.517,40.286,-0.049,2.487,-0.164,-0.028,1.993,1.0,6.38,7.693,0.0181,0.0615,,,No,0.9454,0.9653,1.0071,No,Cruise
Environment_1,CM,41.621,0.517,39.84,-0.019,2.506,-0.464,0.626,0.067,0.958,6.342,7.778,0.0,0.0173,,,No,0.953,0.962,0.9964,No,Cruise
Environment_1,CM,41.675,0.517,40.202,0.015,2.487,-0.022,0.068,1.314,1.004,6.148,7.661,0.0057,0.0059,,,No,0.9369,0.9606,1.0074,No,Cruise
Environment_1,CM,43.054,0.517,39.307,-0.001,2.479,-0.449,-0.161,0.601,0.997,6.118,7.618,0.0198,0.0,,,No,0.9482,0.9732,0.9891,No,Cruise
Environment_1,CM,40.737,0.517,41.417,0.054,2.524,-0.245,-0.118,0.521,1.021,6.129,7.875,0.0314,0.0214,,,No,0.9641,0.9756,0.987,No,Cruise
Environment_1,CM,38.426,0.517,42.144,0.031,2.502,-0.345,0.011,1.713,1.018,6.493,7.837,0.0597,0.0327,,,No,0.9635,0.9722,0.9869,No,Cruise
Environment_1,CM,37.57,0.517,40.506,0.011,2.514,-0.028,-0.239,0.99,1.0,6.333,7.797,0.0375,0.0094,,,No,0.9568,0.9799,0.9859,No,Cruise
Environment_1,CM,35.24,0.517,39.598,-0.011,2.491,-0.067,-0.086,-0.434,0.997,6.22,7.626,0.0491,0.0,,,No,0.9571,0.9674,0.9895,No,Cruise
Environment_1,CM,37.307,0.517,38.184,-0.005,2.498,0.361,-0.093,1.087,1.006,6.337,7.532,0.0536,0.0,,,No,0.9588,0.9737,0.982,No,Cruise
Environment_1,CM,37.537,0.517,37.892,0.037,2.512,0.003,0.161,-0.686,1.019,6.45,7.62,0.0456,0.014,,,No,0.9468,0.9671,0.9825,No,Cruise
Environment_1,CM,37.958,0.517,36.593,0.09,2.51,0.386,-0.27,-0.144,1.007,6.269,7.457,0.0621,0.0211,,,No,0.9416,0.9591,0.992,No,Cruise
Environment_1,CM,38.999,0.517,36.978,0.011,2.484,-0.069,-0.091,-0.038,1.028,6.4,7.328,0.0396,0.0216,,,No,0.9351,0.9708,0.9907,No,Cruise
Environment_1,CM,38.723,0.517,38.198,0.021,2.487,0.209,0.008,0.198,1.019,6.253,7.366,0.0367,0.0109,,,No,0.943,0.9715,0.9915,No,Cruise
Environment_1,CM,34.694,0.517,39.432,0.044,2.514,-0.048,-0.472,0.895,0.999,6.249,7.532,0.0301,0.0095,,,No,0.9333,0.9635,0.9809,No,Cruise
Environment_1,CM,38.343,0.517,36.057,0.062,2.513,0.303,-0.027,0.169,0.993,6.163,7.407,0.0531,0.0,,,No,0.9483,0.9591,0.9823,No,Cruise
Environment_1,CM,40.631,0.517,38.637,0.047,2.518,0.04,-0.111,0.738,0.997,6.131,7.586,0.0523,0.0,,,No,0.9455,0.9631,0.9758,No,Cruise
Environment_1,CM,42.167,0.517,36.464,0.065,2.492,0.665,0.056,0.951,1.007,6.372,7.62,0.0411,0.0,,,No,0.9399,0.9584,0.9771,No,Cruise
Environment_1,CM,40.126,0.517,36.885,0.103,2.492,0.201,0.036,0.221,0.976,6.499,7.837,0.0381,0.0,,,No,0.9626,0.9601,0.9878,No,Cruise
Environment_1,CM,40.378,0.517,37.229,0.051,2.473,0.293,0.13,0.759,0.988,6.289,7.636,0.0482,0.0,,,No,0.9602,0.9593,0.9731,No,Cruise
Environment_1,CM,39.573,0.517,40.672,0.047,2.501,0.696,0.021,-1.416,0.987,6.148,7.629,0.0674,0.0308,,,No,0.9585,0.9596,0.9771,No,Cruise
Environment_1,CM,41.914,0.517,40.614,0.059,2.511,0.373,-0.014,0.622,1.003,6.077,7.721,0.0928,0.069,,,No,0.9391,0.9662,0.9869,No,Cruise
Environment_1,CM,41.236,0.517,40.967,0.047,2.492,0.226,0.02,0.703,0.971,6.163,7.607,0.0886,0.0697,,,No,0.9404,0.9662,0.9887,No,Cruise
Environment_1,CM,37.871,0.517,43.595,0.046,2.495,0.179,-0.004,-0.072,0.952,6.236,7.515,0.1057,0.064,,,No,0.9439,0.9507,0.9936,No,Cruise
Environment_1,CM,41.816,0.517,41.099,0.041,2.523,0.115,0.063,0.283,0.986,6.38,7.643,0.0908,0.0297,,,No,0.9542,0.9708,0.9932,No,Cruise
Environment_1,CM,43.717,0.517,42.076,0.094,2.508,0.341,0.196,-0.581,0.999,6.144,7.516,0.0861,0.0813,,,No,0.9537,0.9677,0.9824,No,Cruise
Environment_1,CM,42.004,0.517,43.322,0.075,2.506,0.193,0.064,1.159,0.944,6.076,7.529,0.0969,0.07,,,No,0.945,0.9583,0.9725,No,Cruise
Environment_1,CM,40.841,0.517,42.864,0.053,2.499,0.405,-0.041,0.419,1.04,6.084,7.539,0.0789,0.0527,,,No,0.9431,0.9592,0.9666,No,Cruise
Environment_1,CM,39.881,0.517,39.123,0.077,2.53,0.465,-0.062,-0.197,0.971,6.052,7.672,0.059,0.031,,,No,0.9404,0.9535,0.9556,No,Cruise
Environment_1,CM,40.667,0.517,40.51,0.064,2.527,-0.585,-0.048,1.355,1.024,6.082,7.533,0.0471,0.0048,,,No,0.9367,0.9608,0.9614,No,Cruise
Environment_1,CM,42.11,0.517,39.881,0.072,2.467,0.269,-0.292,1.636,1.023,6.19,7.76,0.063,0.0146,,,No,0.9328,0.9648,0.9733,No,Cruise
Environment_1,CM,44.316,0.517,43.044,0.059,2.515,0.162,0.036,2.572,1.01,6.188,7.531,0.0967,0.0161,,,No,0.9481,0.9588,0.9753,No,Cruise
Environment_1,CM,42.806,0.517,42.72,0.078,2.523,0.205,0.14,1.453,0.994,6.139,7.524,0.0904,0.0584,,,No,0.9414,0.9607,0.9863,No,Cruise
Environment_1,CM,41.15,0.517,42.97,0.104,2.502,-0.047,-0.004,0.551,1.006,5.951,7.434,0.1052,0.0472,,,No,0.9417,0.9565,0.9866,No,Cruise
Environment_1,CM,42.363,0.517,43.61,0.108,2.49,-0.471,0.236,1.316,0.985,6.116,7.57,0.0573,0.0223,,,No,0.946,0.9602,0.991,No,Cruise
Environment_1,CM,43.988,0.517,43.35,0.082,2.49,0.094,-0.156,0.218,0.992,6.194,7.686,0.0617,0.0401,,,No,0.9436,0.966,0.9871,No,Cruise
Environment_1,CM,45.922,0.517,39.537,0.07,2.514,-0.369,0.063,1.154,1.01,5.988,7.385,0.0411,0.0507,,,No,0.931,0.966,1.0019,No,Cruise
Environment_1,CM,43.414,0.517,38.629,0.099,2.507,0.078,-0.258,0.641,1.004,5.855,7.669,0.0951,0.0718,,,No,0.9375,0.954,0.995,No,Cruise
Environment_1,CM,42.174,0.517,41.469,0.108,2.467,0.531,-0.319,1.616,0.97,5.877,7.55,0.0724,0.0562,,,No,0.9475,0.9581,0.9823,No,Cruise
Environment_1,CM,41.044,0.517,43.954,0.103,2.494,0.311,-0.126,0.497,1.008,6.001,7.415,0.0708,0.0864,,,No,0.9463,0.9606,0.9926,No,Cruise
Environment_1,CM,41.129,0.517,40.556,0.099,2.496,0.412,-0.155,1.277,0.985,6.187,7.654,0.0619,0.0781,,,No,0.9383,0.97,0.999,No,Cruise
Environment_1,CM,39.648,0.517,38.54,0.095,2.514,0.217,0.081,0.798,0.984,5.892,7.56,0.0886,0.0702,,,No,0.9433,0.9538,1.0037,No,Cruise
Environment_1,CM,41.183,0.517,39.023,0.078,2.477,-0.017,0.051,1.421,1.004,5.948,7.614,0.1004,0.0536,,,No,0.9463,0.963,0.9999,No,Cruise
Environment_1,CM,41.563,0.517,42.051,0.055,2.49,0.488,-0.029,-0.361,1.008,6.107,7.698,0.087,0.0193,,,No,0.9548,0.9577,1.0008,No,Cruise
Environment_1,CM,42.119,0.517,40.722,0.032,2.499,0.358,0.122,0.558,1.007,6.157,7.652,0.0817,0.0623,,,No,0.9265,0.9649,0.9865,No,Cruise
Environment_1,CM,42.473,0.517,42.371,0.104,2.49,0.058,-0.008,1.989,1.017,6.253,7.46,0.0851,0.0849,,,No,0.9333,0.9613,0.9855,No,Cruise
Environment_1,CM,42.633,0.517,41.303,0.077,2.487,1.123,0.395,0.51,1.026,6.451,7.426,0.0799,0.0673,,,No,0.9343,0.9603,0.9851,No,Cruise
Environment_1,CM,42.207,0.517,39.795,0.128,2.489,0.246,0.307,0.784,0.991,6.247,7.561,0.098,0.0878,,,No,0.9378,0.951,0.9837,No,Cruise
Environment_1,CM,40.517,0.517,44.09,0.116,2.482,0.673,0.326,0.824,1.025,6.088,7.52,0.0994,0.0735,,,No,0.9344,0.9564,0.9928,No,Cruise
Environment_1,CM,41.97,0.517,43.491,0.071,2.503,0.879,-0.145,0.713,0.962,6.082,7.601,0.0817,0.0264,,,No,0.9487,0.9492,1.0009,No,Cruise
Environment_1,CM,44.874,0.517,42.337,0.089,2.505,0.058,0.11,1.402,0.978,5.972,7.322,0.071,0.0328,,,No,0.9354,0.9511,1.0043,No,Cruise
Environment_1,CM,45.13,0.517,41.29,0.088,2.527,0.7,0.213,1.625,1.027,5.982,7.229,0.0811,0.0584,,,No,0.9284,0.9424,0.9948,No,Cruise
Environment_1,CM,44.724,0.517,45.827,0.066,2.487,0.648,0.248,0.721,1.006,6.152,7.252,0.0892,0.0526,,,No,0.9301,0.953,0.9817,No,Cruise
