Environment,Lighting,Timestamp_s,Wind_mps,Pos_X_m,Pos_Y_m,Altitude_m,Roll_deg,Pitch_deg,Yaw_deg,Velocity_mps,Depth_Min_m,Depth_Mean_m,Lateral_Error_m,Corridor_Center_Error_m,Obstacle_Type,Obstacle_Distance_m,AGSS_Activated,CAMR_Confidence,SACR_Score,Path_Clear_Probability,Collision,Mission_State
Environment_1,CM,0.000,0.517,-1.848,0.07,2.499,0.576,0.114,0.548,0.985,6.201,7.706,0.0437,0.0653,,,No,0.9624,0.9652,0.9809,No,Cruise
Environment_1,CM,0.013,0.517,-1.835,0.025,2.499,0.474,0.034,0.754,0.965,6.013,7.496,0.0643,0.0287,,,No,0.9645,0.9785,0.9929,No,Cruise
Environment_1,CM,0.130,0.517,-1.719,0.025,2.515,-0.098,0.071,0.393,0.999,6.292,7.286,0.0538,0.0814,,,No,0.9624,0.9706,0.995,No,Cruise
Environment_1,CM,0.283,0.517,-1.566,-0.03,2.498,0.159,-0.076,-0.368,0.996,6.43,7.694,0.0058,0.0,,,No,0.9547,0.971,0.9869,No,Cruise
Environment_1,CM,0.505,0.517,-1.344,-0.011,2.5,-0.045,0.21,-0.091,0.999,6.293,7.663,0.0136,0.0,,,No,0.9493,0.9772,0.9847,No,Cruise
Environment_1,CM,1.017,0.517,-0.824,-0.005,2.508,0.267,-0.008,-0.158,1.017,6.279,7.564,0.0,0.0356,,,No,0.9603,0.9718,0.9834,No,Cruise
Environment_1,CM,1.037,0.517,-0.803,-0.027,2.492,-0.499,-0.175,0.421,1.012,6.319,7.693,0.0006,0.0,,,No,0.9518,0.9663,0.9815,No,Cruise
Environment_1,CM,1.266,0.517,-0.566,0.074,2.505,0.33,-0.009,0.8,1.035,6.108,7.451,0.0769,0.0458,,,No,0.9705,0.9612,0.9941,No,Cruise
Environment_1,CM,1.454,0.517,-0.379,0.007,2.511,0.448,0.461,0.735,0.995,6.326,7.396,0.0045,0.0237,,,No,0.9656,0.9693,0.9854,No,Cruise
Environment_1,CM,2.110,0.517,0.237,-0.029,2.524,0.3,0.192,0.357,0.94,6.468,7.634,0.0367,0.0,,,No,0.9404,0.9685,0.983,No,Cruise
Environment_1,CM,2.280,0.517,0.414,-0.0,2.485,-0.542,0.073,1.517,1.042,6.707,7.761,0.0395,0.0155,,,No,0.9571,0.9748,0.9876,No,Cruise
Environment_1,CM,2.458,0.517,0.592,0.104,2.527,0.339,0.125,2.772,0.995,6.228,7.535,0.029,0.0114,,,No,0.9607,0.9709,0.9887,No,Cruise
Environment_1,CM,2.659,0.517,0.782,0.001,2.507,0.263,0.597,1.379,0.949,6.032,7.636,0.0686,0.0567,,,No,0.9706,0.9648,0.9949,No,Cruise
Environment_1,CM,2.697,0.517,0.821,0.092,2.5,-0.426,-0.084,1.588,1.02,6.33,7.5,0.0394,0.0475,,,No,0.964,0.9617,0.9885,No,Cruise
Environment_1,CM,2.960,0.517,1.084,-0.026,2.515,-0.105,0.077,0.28,1.0,6.358,7.545,0.0199,0.0307,,,No,0.9578,0.9756,0.9798,No,Cruise
Environment_1,CM,3.619,0.517,1.75,0.044,2.489,0.474,-0.212,1.148,1.011,6.318,7.825,0.0444,0.0528,,,No,0.9584,0.964,0.9741,No,Cruise
Environment_1,CM,3.830,0.517,1.964,0.082,2.512,0.774,0.013,2.304,1.013,6.148,7.341,0.119,0.0538,,,No,0.9709,0.9597,0.9856,No,Cruise
Environment_1,CM,3.833,0.517,1.967,-0.054,2.485,0.257,-0.563,-0.265,1.036,6.182,7.711,0.047,0.0,,,No,0.9511,0.9669,0.9694,No,Cruise
Environment_1,CM,4.206,0.517,2.335,-0.072,2.511,0.243,0.047,1.091,0.986,6.242,7.608,0.0259,0.0,,,No,0.946,0.967,0.9808,No,Cruise
Environment_1,CM,4.269,0.517,2.397,0.04,2.499,0.354,0.13,0.438,0.991,6.281,7.662,0.0166,0.0036,,,No,0.9678,0.9726,0.9883,No,Cruise
Environment_1,CM,4.427,0.517,2.551,-0.01,2.491,0.431,0.073,0.236,0.975,6.516,7.726,0.0377,0.0156,,,No,0.9575,0.9779,0.9838,No,Cruise
Environment_1,CM,4.795,0.517,2.925,0.067,2.491,0.458,-0.151,1.402,1.015,6.045,7.414,0.0604,0.0464,,,No,0.9565,0.9633,0.984,No,Cruise
Environment_1,CM,4.809,0.517,2.939,0.064,2.515,0.086,-0.262,-0.105,0.97,6.085,7.581,0.0542,0.0382,,,No,0.9591,0.965,0.9831,No,Cruise
Environment_1,CM,4.891,0.517,3.02,0.092,2.472,-0.284,0.258,0.241,0.994,6.359,7.742,0.0303,0.0556,,,No,0.9569,0.971,0.9939,No,Cruise
Environment_1,CM,5.493,0.517,3.616,-0.013,2.5,-0.349,0.035,-1.003,0.99,6.319,7.516,0.0016,0.0014,,,No,0.9501,0.9613,0.9852,No,Cruise
Environment_1,CM,5.538,0.517,3.661,-0.011,2.503,0.466,0.147,1.339,1.002,6.264,7.65,0.04,0.0,,,No,0.953,0.9691,0.9854,No,Cruise
Environment_1,CM,5.560,0.517,3.683,0.078,2.499,0.186,0.016,1.34,1.001,6.185,7.539,0.0453,0.0761,,,No,0.9517,0.9654,0.9896,No,Cruise
Environment_1,CM,5.693,0.517,3.812,0.055,2.499,0.255,0.051,1.839,0.97,6.13,7.524,0.0242,0.0284,,,No,0.9714,0.9766,0.9868,No,Cruise
Environment_1,CM,5.779,0.517,3.898,0.087,2.507,-0.209,-0.301,-0.378,0.999,6.275,7.278,0.053,0.048,,,No,0.9555,0.9655,0.997,No,Cruise
Environment_1,CM,5.839,0.517,3.958,0.053,2.512,0.566,-0.079,0.439,1.007,6.051,7.366,0.0251,0.0362,,,No,0.971,0.9569,0.9856,No,Cruise
Environment_1,CM,5.893,0.517,4.011,0.13,2.453,0.789,-0.115,1.972,0.977,6.065,7.481,0.108,0.0831,,,No,0.9623,0.9693,0.9831,No,Cruise
Environment_1,CM,5.901,0.517,4.019,0.03,2.49,0.378,0.109,1.475,1.014,6.379,7.695,0.0462,0.0011,,,No,0.9543,0.9688,0.9826,No,Cruise
Environment_1,CM,5.978,0.517,4.1,-0.011,2.517,0.463,0.058,1.234,1.044,6.222,7.624,0.0863,0.1175,,,No,0.9688,0.9637,0.9844,No,Cruise
Environment_1,CM,6.012,0.517,4.134,0.065,2.514,-0.314,-0.113,1.113,1.008,6.304,7.798,0.0483,0.0568,,,No,0.9545,0.9658,0.9975,No,Cruise
Environment_1,CM,6.199,0.517,4.32,0.126,2.493,0.677,-0.053,1.344,0.993,6.062,7.61,0.0755,0.0705,,,No,0.9563,0.9657,0.9809,No,Cruise
Environment_1,CM,6.263,0.517,4.382,0.092,2.518,0.993,0.092,1.758,0.973,6.136,7.411,0.1139,0.0716,,,No,0.9614,0.9554,0.9837,No,Cruise
Environment_1,CM,6.265,0.517,4.384,0.098,2.523,0.593,0.242,-0.323,0.991,5.987,7.527,0.0855,0.0469,,,No,0.9607,0.9598,0.9932,No,Cruise
Environment_1,CM,6.300,0.517,4.419,0.065,2.506,0.938,-0.129,1.612,0.993,5.983,7.287,0.1369,0.0482,,,No,0.9602,0.9582,0.986,No,Cruise
Environment_1,CM,6.435,0.517,4.554,0.041,2.506,-0.101,0.298,-1.736,1.001,6.091,7.29,0.015,0.0133,,,No,0.9596,0.9749,0.9888,No,Cruise
Environment_1,CM,6.520,0.517,4.635,-0.014,2.513,0.078,0.222,-0.808,0.957,6.316,7.653,0.0055,0.0211,,,No,0.9572,0.9651,0.9959,No,Cruise
Environment_1,CM,6.610,0.517,4.728,0.009,2.496,0.286,-0.213,2.12,1.031,6.312,7.486,0.0199,0.0111,,,No,0.9619,0.961,0.9924,No,Cruise
Environment_1,CM,6.636,0.517,4.754,0.098,2.504,0.656,0.045,1.378,0.982,6.026,7.669,0.0859,0.0396,,,No,0.9595,0.9564,0.9864,No,Cruise
Environment_1,CM,6.898,0.517,5.01,0.052,2.539,0.455,0.198,2.099,0.98,6.248,7.708,0.0359,0.044,,,No,0.9599,0.9564,0.9845,No,Cruise
Environment_1,CM,7.089,0.517,5.199,0.024,2.503,0.505,-0.209,0.293,0.99,6.152,7.473,0.1023,0.078,,,No,0.9594,0.9647,0.9814,No,Cruise
Environment_1,CM,7.115,0.517,5.226,0.061,2.488,0.361,0.022,1.406,1.012,6.191,7.278,0.1125,0.0981,,,No,0.9772,0.9566,0.9798,No,Cruise
Environment_1,CM,7.160,0.517,5.27,0.122,2.491,0.284,-0.102,1.2,0.991,6.002,7.585,0.1582,0.0781,,,No,0.9576,0.9605,0.9772,No,Cruise
Environment_1,CM,7.263,0.517,5.375,0.03,2.507,-0.038,-0.418,0.529,1.013,6.29,7.468,0.0414,0.0357,,,No,0.948,0.9694,0.9812,No,Cruise
Environment_1,CM,7.312,0.517,5.423,0.091,2.506,1.167,-0.14,2.866,0.986,5.963,7.271,0.0991,0.0714,,,No,0.9646,0.9621,1.0038,No,Cruise
Environment_1,CM,7.319,0.517,5.43,0.031,2.492,0.427,0.143,1.016,0.992,6.243,7.634,0.0919,0.0801,,,No,0.9474,0.9643,0.9829,No,Cruise
Environment_1,CM,7.343,0.517,5.454,0.099,2.504,0.227,-0.131,0.295,1.023,6.066,7.494,0.0757,0.0651,,,No,0.9597,0.9567,0.988,No,Cruise
Environment_1,CM,7.517,0.517,5.629,-0.038,2.513,-0.42,0.095,1.033,1.001,6.2,7.636,0.0381,0.0341,,,No,0.9523,0.9696,0.9832,No,Cruise
Environment_1,CM,7.563,0.517,5.674,0.095,2.493,1.3,0.123,2.098,0.984,6.001,7.108,0.0986,0.098,,,No,0.9614,0.9614,0.9931,No,Cruise
Environment_1,CM,7.770,0.517,5.878,0.059,2.526,0.447,0.286,0.692,0.984,6.408,7.402,0.0495,0.0712,,,No,0.9477,0.9677,0.983,No,Cruise
Environment_1,CM,7.828,0.517,5.937,0.105,2.518,1.002,-0.148,1.747,1.031,6.173,7.161,0.107,0.1058,,,No,0.9725,0.9631,0.9916,No,Cruise
Environment_1,CM,7.913,0.517,6.023,0.078,2.486,1.111,0.062,1.554,1.004,6.095,7.48,0.1018,0.1014,,,No,0.9604,0.9556,0.9868,No,Cruise
Environment_1,CM,8.140,0.517,6.246,-0.011,2.497,0.114,-0.029,-1.001,0.985,6.328,7.548,0.0459,0.0507,,,No,0.9422,0.9666,0.978,No,Cruise
Environment_1,CM,8.277,0.517,6.381,0.016,2.522,-0.136,-0.061,0.591,0.98,6.264,7.677,0.0683,0.0435,,,No,0.9572,0.9649,0.983,No,Cruise
Environment_1,CM,8.345,0.517,6.447,0.06,2.512,0.088,0.16,-0.246,0.982,6.113,7.231,0.1295,0.0332,,,No,0.9785,0.9769,0.9856,No,Cruise
Environment_1,CM,8.416,0.517,6.519,0.143,2.486,0.773,0.16,1.356,1.01,5.932,7.366,0.1315,0.0522,,,No,0.9627,0.965,0.9944,No,Cruise
Environment_1,CM,8.548,0.517,6.648,-0.009,2.5,0.086,-0.002,0.628,0.979,6.035,7.739,0.0376,0.0268,,,No,0.946,0.967,0.9791,No,Cruise
Environment_1,CM,8.751,0.517,6.854,0.117,2.506,0.114,0.178,3.044,1.014,6.255,7.482,0.1584,0.0924,,,No,0.9638,0.9582,0.9966,No,Cruise
Environment_1,CM,8.939,0.517,7.039,0.115,2.49,0.611,-0.127,2.602,0.981,6.057,7.563,0.1333,0.0678,,,No,0.974,0.9598,1.0087,No,Cruise
Environment_1,CM,9.046,0.517,7.143,0.09,2.49,1.0,-0.134,2.586,0.976,6.218,7.795,0.0971,0.0891,,,No,0.9506,0.9637,0.9829,No,Cruise
Environment_1,CM,9.417,0.517,7.511,0.11,2.505,0.643,0.096,0.937,0.993,5.933,7.316,0.144,0.0664,,,No,0.9636,0.9649,0.9932,No,Cruise
Environment_1,CM,9.501,0.517,7.595,0.095,2.513,0.219,-0.026,0.347,1.0,6.094,7.344,0.1241,0.0792,,,No,0.9664,0.9673,0.9918,No,Cruise
Environment_1,CM,10.056,0.517,8.129,0.041,2.485,0.025,-0.05,-0.099,0.961,6.308,7.683,0.0075,0.0,,,No,0.9502,0.9586,0.9888,No,Cruise
Environment_1,CM,10.062,0.517,8.135,0.107,2.506,0.692,-0.016,3.364,1.006,6.068,7.25,0.1104,0.0697,,,No,0.9711,0.9503,0.998,No,Cruise
Environment_1,CM,10.171,0.517,8.244,0.113,2.517,0.515,0.04,2.946,1.004,6.014,7.474,0.1592,0.0961,,,No,0.9686,0.9648,0.9923,No,Cruise
Environment_1,CM,10.238,0.517,8.312,0.135,2.499,0.643,-0.286,0.674,1.006,6.112,7.497,0.101,0.0783,,,No,0.9612,0.974,0.9827,No,Cruise
Environment_1,CM,10.282,0.517,8.356,-0.02,2.502,0.012,0.154,0.071,1.0,6.528,7.739,0.0656,0.0443,,,No,0.9374,0.9678,0.983,No,Cruise
Environment_1,CM,10.288,0.517,8.362,0.057,2.519,0.132,-0.009,1.435,0.984,5.972,7.489,0.1151,0.0728,,,No,0.9547,0.9502,0.9978,No,Cruise
Environment_1,CM,10.526,0.517,8.605,0.143,2.499,0.576,0.043,0.501,1.022,6.16,7.659,0.134,0.0783,,,No,0.9592,0.9628,0.9942,No,Cruise
Environment_1,CM,10.575,0.517,8.654,0.111,2.527,0.485,0.048,2.119,1.004,5.997,7.418,0.1599,0.0957,,,No,0.9638,0.9638,0.9898,No,Cruise
Environment_1,CM,10.656,0.517,8.736,0.115,2.489,0.748,0.101,1.408,1.01,5.975,7.457,0.122,0.0973,,,No,0.9562,0.9621,0.9822,No,Cruise
Environment_1,CM,10.748,0.517,8.83,0.069,2.502,-0.154,0.398,2.498,1.021,6.147,7.145,0.0605,0.0784,,,No,0.9691,0.9565,1.0002,No,Cruise
Environment_1,CM,10.777,0.517,8.858,0.085,2.506,0.419,-0.171,1.388,0.97,6.247,7.482,0.0722,0.0572,,,No,0.9651,0.9698,1.0029,No,Cruise
Environment_1,CM,10.809,0.517,8.889,0.112,2.505,0.781,0.179,2.191,0.981,6.247,7.603,0.1299,0.1061,,,No,0.9658,0.9706,0.9945,No,Cruise
Environment_1,CM,10.874,0.517,8.954,0.101,2.517,0.486,-0.04,2.779,1.003,6.137,7.336,0.1445,0.0318,,,No,0.9558,0.973,0.9913,No,Cruise
Environment_1,CM,11.153,0.517,9.228,0.058,2.511,1.068,-0.096,2.543,0.982,6.157,7.569,0.112,0.0778,,,No,0.9566,0.9601,0.9911,No,Cruise
Environment_1,CM,11.296,0.517,9.373,0.009,2.505,-0.103,0.181,0.985,1.009,6.433,7.644,0.0697,0.0394,,,No,0.9488,0.9652,0.9856,No,Cruise
Environment_1,CM,11.440,0.517,9.513,0.099,2.489,0.531,0.175,0.4,0.977,6.171,7.258,0.0963,0.0675,,,No,0.9518,0.9512,0.9766,No,Cruise
Environment_1,CM,11.666,0.517,9.746,0.02,2.487,0.384,-0.143,1.881,1.027,6.346,7.681,0.0848,0.0474,,,No,0.9602,0.9639,0.9774,No,Cruise
Environment_1,CM,11.778,0.517,9.855,0.108,2.51,0.031,0.019,1.627,0.975,6.153,7.729,0.1238,0.0443,,,No,0.9619,0.9521,1.0022,No,Cruise
Environment_1,CM,11.833,0.517,9.91,0.141,2.537,0.793,0.39,0.646,0.997,6.107,7.363,0.1165,0.0634,,,No,0.9531,0.9638,0.9868,No,Cruise
Environment_1,CM,12.022,0.517,10.098,0.053,2.528,0.642,-0.199,1.692,0.997,5.938,7.384,0.1367,0.0581,,,No,0.9617,0.9657,0.9797,No,Cruise
Environment_1,CM,12.045,0.517,10.121,0.155,2.497,0.498,0.149,1.833,1.019,5.999,7.397,0.1238,0.0902,,,No,0.9636,0.9675,0.9887,No,Cruise
Environment_1,CM,12.361,0.517,10.43,0.104,2.514,0.872,-0.016,-0.196,0.978,6.009,7.428,0.0836,0.097,,,No,0.9568,0.9552,0.9959,No,Cruise
Environment_1,CM,12.410,0.517,10.481,0.085,2.508,0.625,0.172,3.055,1.026,6.138,7.644,0.068,0.0477,,,No,0.9588,0.9561,0.9948,No,Cruise
Environment_1,CM,12.487,0.517,10.558,0.119,2.485,0.657,0.082,1.333,1.0,6.272,7.377,0.0848,0.0863,,,No,0.9637,0.9553,0.9808,No,Cruise
Environment_1,CM,12.582,0.517,10.65,0.137,2.492,0.444,0.079,3.151,0.966,5.952,7.53,0.1476,0.0673,,,No,0.9548,0.9723,0.9928,No,Cruise
Environment_1,CM,12.795,0.517,10.86,0.107,2.501,1.338,0.326,2.385,0.989,5.952,7.408,0.1161,0.0806,,,No,0.9589,0.9679,0.9918,No,Cruise
Environment_1,CM,12.803,0.517,10.868,0.119,2.486,0.519,-0.421,1.133,0.989,6.219,7.486,0.1235,0.114,,,No,0.9555,0.9461,0.9831,No,Cruise
Environment_1,CM,12.837,0.517,10.901,0.106,2.5,0.067,-0.068,0.046,0.967,5.997,7.389,0.1111,0.0427,,,No,0.965,0.9643,0.9837,No,Cruise
Environment_1,CM,13.192,0.517,11.246,0.103,2.518,0.09,-0.105,1.525,0.971,6.355,7.555,0.1192,0.0791,,,No,0.9464,0.9637,0.972,No,Cruise
Environment_1,CM,13.204,0.517,11.257,0.053,2.464,0.575,0.021,2.881,0.976,6.119,7.406,0.1369,0.135,,,No,0.9532,0.964,0.9932,No,Cruise
Environment_1,CM,13.266,0.517,11.319,0.051,2.505,0.402,-0.011,0.647,0.996,6.152,7.627,0.0971,0.0,,,No,0.9443,0.9562,0.994,No,Cruise
Environment_1,CM,13.377,0.517,11.43,0.072,2.529,0.26,0.245,1.059,0.999,6.277,7.43,0.0926,0.1095,,,No,0.9662,0.9542,0.9974,No,Cruise
Environment_1,CM,13.452,0.517,11.505,-0.036,2.497,-0.413,0.117,-0.324,1.002,6.46,7.444,0.0198,0.0,,,No,0.935,0.96,0.9921,No,Cruise
Environment_1,CM,13.489,0.517,11.541,0.101,2.493,0.701,-0.008,1.748,0.977,6.266,7.432,0.1289,0.108,,,No,0.9507,0.9487,1.0023,No,Cruise
Environment_1,CM,13.706,0.517,11.758,0.162,2.509,0.378,-0.049,2.169,0.997,5.94,7.373,0.1064,0.0837,,,No,0.9593,0.9574,0.9835,No,Cruise
Environment_1,CM,13.715,0.517,11.767,0.099,2.504,0.456,-0.143,1.457,1.022,6.218,7.418,0.1253,0.1299,,,No,0.9648,0.9661,1.0035,No,Cruise
Environment_1,CM,13.939,0.517,11.99,0.115,2.506,0.339,-0.017,1.454,0.996,6.017,7.488,0.0989,0.1029,,,No,0.9654,0.9522,0.9912,No,Cruise
Environment_1,CM,14.017,0.517,12.068,0.052,2.528,0.427,-0.101,1.49,0.999,6.048,7.599,0.0636,0.0981,,,No,0.956,0.9664,0.9989,No,Cruise
Environment_1,CM,14.177,0.517,12.228,0.099,2.497,1.3,0.07,1.111,0.998,5.877,7.32,0.1025,0.1164,,,No,0.9576,0.9509,0.9996,No,Cruise
Environment_1,CM,14.189,0.517,12.24,0.089,2.488,0.233,-0.317,0.822,1.005,6.112,7.461,0.1026,0.0464,,,No,0.9437,0.9536,0.9915,No,Cruise
Environment_1,CM,14.240,0.517,12.289,0.069,2.487,0.506,0.18,1.829,0.961,6.042,7.408,0.0812,0.0927,,,No,0.9625,0.9549,1.0068,No,Cruise
Environment_1,CM,14.341,0.517,12.389,0.132,2.512,0.88,-0.214,0.803,0.991,6.088,7.384,0.1037,0.0523,,,No,0.9504,0.9603,0.9884,No,Cruise
Environment_1,CM,14.403,0.517,12.452,0.107,2.494,0.84,-0.091,1.903,1.028,5.95,7.545,0.1275,0.0996,,,No,0.9617,0.9493,0.9964,No,Cruise
Environment_1,CM,14.418,0.517,12.468,0.13,2.513,0.779,0.117,2.573,1.027,6.25,7.372,0.1178,0.1568,,,No,0.9563,0.9547,0.9936,No,Cruise
Environment_1,CM,14.465,0.517,12.514,0.151,2.49,0.488,0.247,1.835,0.991,6.042,7.36,0.1437,0.0681,,,No,0.9699,0.9747,0.9847,No,Cruise
Environment_1,CM,14.491,0.517,12.541,0.127,2.513,0.192,0.043,0.676,1.007,6.235,7.4,0.1355,0.1044,,,No,0.9561,0.9443,0.9979,No,Cruise
Environment_1,CM,14.566,0.517,12.615,0.136,2.475,0.157,-0.059,2.371,0.997,6.222,7.463,0.0714,0.0449,,,No,0.9495,0.9553,0.9935,No,Cruise
Environment_1,CM,14.591,0.517,12.64,0.082,2.509,0.185,-0.234,1.88,0.977,6.272,7.629,0.1131,0.0671,,,No,0.9409,0.9548,0.9828,No,Cruise
Environment_1,CM,14.592,0.517,12.641,0.062,2.498,1.007,0.199,2.359,1.016,6.22,7.57,0.1023,0.0234,,,No,0.9597,0.9593,0.9935,No,Cruise
Environment_1,CM,14.658,0.517,12.707,0.098,2.515,0.005,0.255,1.733,1.002,6.232,7.689,0.0741,0.0462,,,No,0.9465,0.9604,0.9909,No,Cruise
Environment_1,CM,14.828,0.517,12.874,0.008,2.512,0.265,0.101,-0.974,0.982,6.215,7.281,0.0297,0.0,,,No,0.9412,0.9553,0.9881,No,Cruise
Environment_1,CM,14.832,0.517,12.878,0.019,2.5,0.015,0.054,0.277,0.996,6.041,7.464,0.0504,0.0198,,,No,0.9408,0.9493,0.9877,No,Cruise
Environment_1,CM,14.846,0.517,12.892,0.06,2.502,0.137,-0.281,-0.848,1.003,6.041,7.563,0.0975,0.0338,,,No,0.9469,0.9587,0.9904,No,Cruise
Environment_1,CM,14.865,0.517,12.911,0.136,2.521,0.803,-0.125,1.32,0.984,5.915,7.359,0.1059,0.0619,,,No,0.9535,0.9585,0.9824,No,Cruise
Environment_1,CM,14.880,0.517,12.925,0.123,2.507,0.1,0.329,1.345,0.974,6.25,7.624,0.0867,0.0823,,,No,0.9529,0.9588,0.98,No,Cruise
Environment_1,CM,14.973,0.517,13.018,0.115,2.49,0.152,-0.205,1.0,1.0,6.094,7.491,0.0759,0.0353,,,No,0.9502,0.9522,1.0022,No,Cruise
Environment_1,CM,15.019,0.517,13.064,0.136,2.494,0.637,0.103,0.399,0.993,6.294,7.724,0.1117,0.0862,,,No,0.954,0.9587,0.9726,No,Cruise
Environment_1,CM,15.032,0.517,13.077,0.113,2.494,0.631,-0.122,1.505,1.003,5.996,7.582,0.0617,0.0699,,,No,0.9553,0.962,0.9928,No,Cruise
Environment_1,CM,15.050,0.517,13.095,0.048,2.504,0.551,0.103,1.791,0.998,6.357,7.844,0.1362,0.0679,,,No,0.9442,0.9587,0.9729,No,Cruise
Environment_1,CM,15.108,0.517,13.153,0.037,2.507,-0.339,0.422,0.582,1.002,6.275,7.398,0.0879,0.0,,,No,0.9382,0.9563,0.997,No,Cruise
Environment_1,CM,15.141,0.517,13.186,0.141,2.504,0.328,-0.041,2.092,1.001,5.933,7.451,0.0858,0.0706,,,No,0.9609,0.9506,0.9822,No,Cruise
Environment_1,CM,15.232,0.517,13.278,0.059,2.533,-0.105,0.036,0.473,1.011,6.186,7.461,0.0972,0.0294,,,No,0.9421,0.9488,0.9881,No,Cruise
Environment_1,CM,15.248,0.517,13.294,0.117,2.499,0.595,-0.357,2.272,0.974,6.116,7.629,0.0611,0.0616,,,No,0.9454,0.9628,0.981,No,Cruise
Environment_1,CM,15.276,0.517,13.323,0.095,2.511,0.279,0.019,1.305,1.047,6.189,7.591,0.1159,0.0611,,,No,0.9426,0.9606,0.9825,No,Cruise
Environment_1,CM,15.315,0.517,13.361,0.099,2.53,0.404,0.206,1.169,0.966,6.058,7.562,0.0755,0.0854,,,No,0.9457,0.9641,0.9955,No,Cruise
Environment_1,CM,15.437,0.517,13.483,0.094,2.504,0.322,0.149,0.411,1.004,6.264,7.635,0.1001,0.0373,,,No,0.9517,0.9492,1.0018,No,Cruise
Environment_1,CM,15.494,0.517,13.54,0.095,2.492,1.221,0.353,1.372,0.999,6.131,7.458,0.0991,0.0523,,,No,0.9682,0.962,0.9792,No,Cruise
Environment_1,CM,15.673,0.517,13.719,0.106,2.488,0.644,-0.052,1.684,1.002,6.307,7.277,0.1376,0.136,,,No,0.9529,0.946,0.9919,No,Cruise
Environment_1,CM,15.713,0.517,13.759,0.088,2.502,-0.07,-0.077,1.256,0.995,6.263,7.462,0.1005,0.0354,,,No,0.95,0.961,0.9773,No,Cruise
Environment_1,CM,15.749,0.517,13.796,0.113,2.507,0.79,0.292,2.876,1.016,6.05,7.534,0.1258,0.1397,,,No,0.9763,0.9591,0.9731,No,Cruise
Environment_1,CM,15.961,0.517,14.012,0.075,2.512,0.6,-0.081,2.039,1.022,6.311,7.272,0.1011,0.0779,,,No,0.949,0.9618,0.979,No,Cruise
Environment_1,CM,16.102,0.517,14.154,0.132,2.511,1.032,-0.026,1.924,1.001,6.271,7.597,0.1121,0.0297,,,No,0.9784,0.9537,0.9777,No,Cruise
Environment_1,CM,16.144,0.517,14.196,0.089,2.508,0.477,0.225,1.29,1.003,6.106,7.475,0.0847,0.0872,,,No,0.9538,0.9484,0.9624,No,Cruise
Environment_1,CM,16.169,0.517,14.221,0.052,2.512,0.135,0.011,0.575,1.006,6.351,7.656,0.054,0.0639,,,No,0.954,0.9418,0.993,No,Cruise
Environment_1,CM,16.338,0.517,14.388,0.065,2.519,0.513,0.03,1.366,0.991,6.017,7.395,0.1116,0.09,,,No,0.9536,0.9517,0.964,No,Cruise
Environment_1,CM,16.349,0.517,14.399,0.021,2.499,0.485,-0.389,1.028,1.002,6.359,7.448,0.0547,0.0386,,,No,0.9628,0.9658,0.9794,No,Cruise
Environment_1,CM,16.352,0.517,14.402,0.088,2.485,0.032,-0.093,0.504,0.999,6.312,7.263,0.0876,0.0399,,,No,0.9525,0.9505,0.986,No,Cruise
Environment_1,CM,16.451,0.517,14.499,0.131,2.519,0.372,0.132,2.309,0.975,6.084,7.47,0.0772,0.0923,,,No,0.9635,0.9676,0.9807,No,Cruise
Environment_1,CM,16.568,0.517,14.614,0.128,2.49,0.539,0.067,0.518,0.987,5.915,7.379,0.1068,0.1101,,,No,0.9664,0.9573,0.9911,No,Cruise
Environment_1,CM,16.588,0.517,14.634,0.117,2.492,0.411,0.273,-0.443,0.993,6.118,7.283,0.1295,0.0335,,,No,0.9378,0.9473,0.9971,No,Cruise
Environment_1,CM,16.660,0.517,14.706,0.079,2.512,0.967,0.462,0.928,0.998,6.493,7.182,0.1093,0.0611,,,No,0.9338,0.9466,0.9838,No,Cruise
Environment_1,CM,16.668,0.517,14.714,0.043,2.486,-0.252,0.027,-0.32,1.014,6.177,7.68,0.0156,0.0075,,,No,0.9495,0.9499,1.0071,No,Cruise
Environment_1,CM,16.713,0.517,14.759,0.085,2.477,0.514,-0.029,0.907,0.999,6.244,7.529,0.1142,0.0268,,,No,0.9523,0.956,0.9934,No,Cruise
Environment_1,CM,16.830,0.517,14.878,0.065,2.488,0.3,0.044,1.961,1.012,6.221,7.681,0.0778,0.0492,,,No,0.9548,0.9693,0.9865,No,Cruise
Environment_1,CM,16.931,0.517,14.979,0.074,2.495,0.569,0.113,-0.623,1.007,6.323,7.641,0.0968,0.0,,,No,0.9485,0.9702,0.9759,No,Cruise
Environment_1,CM,16.957,0.517,15.005,0.034,2.493,0.105,-0.047,0.142,1.001,6.06,7.764,0.0201,0.0192,,,No,0.9539,0.9541,0.9735,No,Cruise
Environment_1,CM,17.024,0.517,15.073,0.026,2.473,0.292,0.318,-0.027,1.005,6.319,7.565,0.034,0.0005,,,No,0.9442,0.9583,0.987,No,Cruise
Environment_1,CM,17.056,0.517,15.105,0.051,2.513,0.005,-0.238,0.617,1.026,5.974,7.664,0.0151,0.0,,,No,0.9454,0.9525,0.9817,No,Cruise
Environment_1,CM,17.094,0.517,15.143,0.087,2.483,0.243,0.161,1.173,0.98,6.213,7.346,0.1164,0.0137,,,No,0.9403,0.9475,0.9932,No,Cruise
Environment_1,CM,17.113,0.517,15.162,0.005,2.494,0.265,-0.035,-2.17,1.001,6.194,7.529,0.0148,0.0001,,,No,0.9399,0.9617,0.976,No,Cruise
Environment_1,CM,17.337,0.517,15.385,0.063,2.485,-0.161,0.256,0.87,0.995,6.304,7.274,0.0836,0.0425,,,No,0.9516,0.9516,0.9847,No,Cruise
Environment_1,CM,17.370,0.517,15.418,0.042,2.474,-0.183,0.05,-0.138,1.02,6.108,7.571,0.0208,0.0,,,No,0.9515,0.9561,0.9903,No,Cruise
Environment_1,CM,17.386,0.517,15.434,0.129,2.518,0.593,0.36,1.764,0.985,6.073,7.536,0.1413,0.1258,,,No,0.9701,0.9602,0.9809,No,Cruise
Environment_1,CM,17.497,0.517,15.541,0.096,2.495,0.818,0.294,0.701,0.961,6.369,7.533,0.13,0.1554,,,No,0.9676,0.9588,0.9956,No,Cruise
Environment_1,CM,17.519,0.517,15.563,0.011,2.499,0.433,0.015,-1.853,0.995,6.142,7.543,0.0243,0.0488,,,No,0.9532,0.9579,1.0064,No,Cruise
Environment_1,CM,17.523,0.517,15.566,0.025,2.5,0.448,-0.047,0.542,0.979,6.331,7.702,0.0238,0.0394,,,No,0.9591,0.954,0.9835,No,Cruise
Environment_1,CM,17.623,0.517,15.669,0.143,2.481,0.63,-0.073,2.604,1.029,5.852,7.264,0.1405,0.0606,,,No,0.9592,0.9594,0.9864,No,Cruise
Environment_1,CM,17.641,0.517,15.687,0.075,2.522,-0.01,0.203,1.097,0.97,6.329,7.697,0.1033,0.0456,,,No,0.94,0.9551,1.0051,No,Cruise
Environment_1,CM,17.783,0.517,15.829,0.076,2.49,0.786,-0.217,2.553,1.002,6.237,7.501,0.0947,0.0747,,,No,0.9699,0.9584,0.9871,No,Cruise
Environment_1,CM,17.798,0.517,15.844,0.106,2.486,0.744,-0.224,1.386,1.012,6.169,7.554,0.0659,0.0688,,,No,0.9476,0.9653,0.9882,No,Cruise
Environment_1,CM,17.802,0.517,15.848,0.635,2.5,3.133,0.069,8.379,1.001,3.653,5.013,0.5974,0.4411,Human,,Yes,0.8312,0.8916,0.8148,No,Avoidance
Environment_1,CM,17.837,0.517,15.882,0.048,2.512,1.107,0.089,-0.275,0.965,5.978,7.772,0.1156,0.0452,,,No,0.9477,0.966,0.9922,No,Cruise
Environment_1,CM,18.022,0.517,16.071,0.029,2.489,0.043,-0.029,0.775,1.022,6.515,7.78,0.0178,0.0809,,,No,0.9346,0.9746,0.9872,No,Cruise
Environment_1,CM,18.034,0.517,16.083,0.042,2.484,0.975,-0.09,1.736,0.991,6.152,7.734,0.0933,0.0308,,,No,0.957,0.9659,0.9929,No,Cruise
Environment_1,CM,18.045,0.517,16.093,0.058,2.474,-0.131,0.295,-0.518,0.951,6.211,7.811,0.0255,0.0057,,,No,0.9539,0.9655,0.9941,No,Cruise
Environment_1,CM,18.051,0.517,16.099,0.059,2.495,0.632,0.129,1.295,0.999,6.347,7.732,0.0381,0.0304,,,No,0.9617,0.9594,0.9881,No,Cruise
Environment_1,CM,18.073,0.517,16.121,-0.002,2.505,0.384,0.276,0.915,0.986,5.965,7.548,0.0264,0.0,,,No,0.9402,0.9452,0.9958,No,Cruise
Environment_1,CM,18.334,0.517,16.389,0.007,2.492,0.055,0.127,0.744,1.025,6.297,7.657,0.0363,0.0,,,No,0.9439,0.9479,0.9909,No,Cruise
Environment_1,CM,18.374,0.517,16.429,0.102,2.493,0.519,0.24,1.771,1.02,6.154,7.399,0.1388,0.0744,,,No,0.9435,0.956,0.9941,No,Cruise
Environment_1,CM,18.582,0.517,16.642,0.04,2.52,-0.077,0.107,-0.22,1.021,6.255,7.744,0.0322,0.0882,,,No,0.9455,0.9693,0.9913,No,Cruise
Environment_1,CM,18.747,0.517,16.807,0.327,2.5,1.842,0.235,4.824,1.0,4.322,5.61,0.3449,0.2797,Human,,Yes,0.8758,0.9006,0.8054,No,Avoidance
Environment_1,CM,19.267,0.517,17.324,0.023,2.522,0.261,0.009,-0.05,0.995,6.449,7.651,0.0277,0.0242,,,No,0.9343,0.9574,0.9842,No,Cruise
Environment_1,CM,19.386,0.517,17.444,0.084,2.503,0.532,-0.069,0.556,1.008,5.844,7.074,0.092,0.053,,,No,0.924,0.9353,0.9538,No,Cruise
Environment_1,CM,19.523,0.517,17.575,0.04,2.49,0.955,-0.042,0.862,0.958,6.066,7.661,0.0314,0.0372,,,No,0.9535,0.9482,0.9869,No,Cruise
Environment_1,CM,19.571,0.517,17.623,0.043,2.503,0.627,0.068,0.588,0.989,5.974,7.737,0.0365,0.0,,,No,0.9449,0.9544,0.9722,No,Cruise
Environment_1,CM,19.572,0.517,17.624,0.429,2.507,2.246,0.041,7.155,0.989,4.013,5.401,0.4876,0.4046,Human,,Yes,0.8427,0.8919,0.8051,No,Avoidance
Environment_1,CM,19.673,0.517,17.724,0.387,2.513,2.521,0.376,6.103,0.993,4.036,5.356,0.4391,0.2919,Human,,Yes,0.8543,0.8972,0.8199,No,Avoidance
Environment_1,CM,19.768,0.517,17.821,0.048,2.512,0.029,-0.108,0.558,1.02,6.184,7.785,0.0339,0.0094,,,No,0.9528,0.9602,0.9958,No,Cruise
Environment_1,CM,19.987,0.517,18.042,0.631,2.539,2.986,0.227,7.339,1.008,3.569,4.916,0.6383,0.4309,Human,,Yes,0.8353,0.91,0.8404,No,Avoidance
Environment_1,CM,20.159,0.517,18.21,0.024,2.488,0.012,0.098,0.703,0.977,6.031,7.77,0.0384,0.0,,,No,0.939,0.959,0.9808,No,Cruise
Environment_1,CM,20.842,0.517,18.877,0.406,2.484,2.944,0.077,4.964,0.976,4.158,5.311,0.5036,0.387,Human,,Yes,0.8555,0.9057,0.7872,No,Avoidance
Environment_1,CM,20.939,0.517,18.971,0.344,2.489,2.46,0.048,5.34,0.974,4.154,5.425,0.4128,0.3394,Human,,Yes,0.8674,0.8961,0.7928,No,Avoidance
Environment_1,CM,20.972,0.517,19.004,0.344,2.477,1.646,-0.404,5.371,1.007,4.278,5.757,0.3748,0.3026,Human,,Yes,0.8016,0.8557,0.8539,No,Avoidance
Environment_1,CM,21.025,0.517,19.058,0.031,2.479,0.777,-0.25,0.624,1.012,5.618,7.244,0.0445,0.0129,,,No,0.9209,0.9256,0.9481,No,Cruise
Environment_1,CM,21.338,0.517,19.379,0.619,2.522,2.963,0.046,6.896,1.026,3.711,4.877,0.564,0.4685,Human,,Yes,0.8256,0.9013,0.8381,No,Avoidance
Environment_1,CM,21.466,0.517,19.503,0.14,2.524,0.439,-0.112,1.809,0.967,5.614,6.869,0.1344,0.1009,,,No,0.9247,0.9354,0.9298,No,Cruise
Environment_1,CM,21.594,0.517,19.631,0.568,2.485,3.423,0.258,7.14,0.999,3.853,5.161,0.5584,0.4088,Human,,Yes,0.8471,0.9164,0.8,No,Avoidance
Environment_1,CM,21.602,0.517,19.639,0.123,2.523,0.599,0.073,1.213,1.005,5.395,6.758,0.1432,0.0972,,,No,0.9204,0.9157,0.9014,No,Cruise
Environment_1,CM,21.639,0.517,19.675,0.097,2.48,0.254,0.15,-0.165,0.976,5.819,6.911,0.1122,0.0736,,,No,0.9319,0.9396,0.9314,No,Cruise
Environment_1,CM,21.830,0.517,19.867,-0.113,2.474,-0.078,-0.327,-1.179,1.006,6.112,7.702,0.0623,0.0805,,,No,0.9647,0.953,0.9817,No,Cruise
Environment_1,CM,21.833,0.517,19.87,0.038,2.507,0.124,0.086,0.147,0.965,5.798,7.273,0.0385,0.0001,,,No,0.9227,0.936,0.9696,No,Cruise
Environment_1,CM,21.924,0.517,19.959,0.011,2.499,0.399,-0.393,0.836,0.982,6.265,7.669,0.041,0.0,,,No,0.9436,0.9293,0.9652,No,Cruise
Environment_1,CM,21.973,0.517,20.008,-0.052,2.499,-0.449,0.226,-0.996,0.99,5.996,7.492,0.0539,0.0904,,,No,0.9376,0.9453,0.9634,No,Cruise
Environment_1,CM,22.071,0.517,20.105,0.653,2.46,3.813,0.441,8.608,0.993,3.465,5.131,0.6203,0.5007,Human,,Yes,0.8146,0.9021,0.8181,No,Avoidance
Environment_1,CM,22.120,0.517,20.153,0.037,2.483,0.181,0.355,0.204,0.986,6.337,7.777,0.0061,0.0,,,No,0.9486,0.9565,0.9895,No,Cruise
Environment_1,CM,22.141,0.517,20.174,0.114,2.504,1.3,0.177,3.652,1.003,4.947,6.418,0.1694,0.1385,,,No,0.8883,0.895,0.8591,No,Cruise
Environment_1,CM,22.194,0.517,20.226,0.139,2.499,0.698,0.111,2.446,0.979,4.702,5.916,0.1817,0.1568,Human,,Yes,0.8082,0.8502,0.8497,No,Avoidance
Environment_1,CM,22.293,0.517,20.324,0.671,2.494,2.896,0.423,7.026,0.985,3.413,5.11,0.6467,0.5617,Human,,Yes,0.8045,0.8929,0.8066,No,Avoidance
Environment_1,CM,22.408,0.517,20.438,0.604,2.5,2.752,0.372,8.752,0.996,3.324,4.851,0.6268,0.4673,Human,,Yes,0.7836,0.8819,0.8324,No,Avoidance
Environment_1,CM,22.425,0.517,20.455,0.009,2.499,0.929,-0.21,-0.164,0.989,5.914,7.753,0.016,0.0385,,,No,0.953,0.9539,0.995,No,Cruise
Environment_1,CM,22.547,0.517,20.576,0.481,2.482,3.277,0.118,5.771,0.987,3.853,5.277,0.5293,0.4354,Human,,Yes,0.8396,0.898,0.8198,No,Avoidance
Environment_1,CM,22.658,0.517,20.686,0.608,2.522,2.999,-0.129,7.649,0.994,3.26,4.994,0.6339,0.5005,Human,,Yes,0.7952,0.9025,0.836,No,Avoidance
Environment_1,CM,22.774,0.517,20.803,-0.098,2.507,-0.295,-0.081,-1.086,1.011,6.177,7.572,0.0416,0.0949,,,No,0.9585,0.951,0.9806,No,Cruise
Environment_1,CM,22.863,0.517,20.89,-0.038,2.512,-0.705,-0.206,-1.421,0.981,5.96,7.399,0.0606,0.0715,,,No,0.9296,0.9396,0.9638,No,Cruise
Environment_1,CM,22.923,0.517,20.951,0.054,2.478,0.222,-0.031,1.242,1.012,5.587,7.081,0.0521,0.0023,,,No,0.9273,0.9296,0.9351,No,Cruise
Environment_1,CM,22.966,0.517,20.996,0.301,2.491,1.174,-0.027,5.029,1.034,4.769,5.986,0.2908,0.2336,,,No,0.9032,0.9103,0.8656,No,Cruise
Environment_1,CM,22.968,0.517,20.998,0.28,2.487,0.737,0.01,4.398,0.992,4.743,5.762,0.3049,0.1936,,,No,0.8967,0.9047,0.8578,No,Cruise
Environment_1,CM,23.003,0.517,21.033,-0.065,2.486,-0.775,-0.039,-1.075,1.008,6.121,7.673,0.0858,0.0955,,,No,0.9554,0.9527,0.9931,No,Cruise
Environment_1,CM,23.026,0.517,21.056,-0.108,2.504,-0.278,0.126,-1.248,1.016,5.992,7.382,0.0822,0.1034,,,No,0.95,0.9528,0.9941,No,Cruise
Environment_1,CM,23.238,0.517,21.268,0.312,2.511,1.822,0.391,5.12,0.997,4.226,5.703,0.4111,0.3092,Human,,Yes,0.7937,0.8666,0.8307,No,Avoidance
Environment_1,CM,23.404,0.517,21.435,0.113,2.533,0.681,0.357,0.542,1.005,5.871,6.977,0.0964,0.0745,,,No,0.9261,0.9395,0.955,No,Cruise
Environment_1,CM,23.504,0.517,21.531,0.622,2.524,3.7,0.253,8.617,0.969,3.376,4.914,0.6405,0.4856,Human,,Yes,0.8159,0.8996,0.8256,No,Avoidance
Environment_1,CM,23.906,0.517,21.945,0.146,2.54,0.361,-0.066,2.889,1.029,5.327,6.615,0.1638,0.1245,,,No,0.9031,0.9019,0.881,No,Cruise
Environment_1,CM,23.940,0.517,21.979,0.601,2.516,3.029,-0.159,8.359,0.993,3.375,5.223,0.6471,0.5454,Human,,Yes,0.7944,0.8979,0.835,No,Avoidance
Environment_1,CM,24.036,0.517,22.073,0.616,2.515,3.543,-0.052,8.579,0.979,3.663,5.027,0.6083,0.4875,Human,,Yes,0.8129,0.8892,0.8308,No,Avoidance
Environment_1,CM,24.094,0.517,22.131,0.203,2.493,1.03,-0.165,3.497,1.009,4.841,6.141,0.2046,0.142,,,No,0.8945,0.9,0.8467,No,Cruise
Environment_1,CM,24.104,0.517,22.141,0.063,2.494,0.529,-0.246,1.259,1.012,5.028,6.359,0.1653,0.1439,Human,,Yes,0.8346,0.8671,0.8773,No,Avoidance
Environment_1,CM,24.139,0.517,22.176,-0.139,2.469,-0.637,-0.109,-2.272,0.994,6.103,7.345,0.1188,0.0306,,,No,0.9632,0.9769,0.9941,No,Cruise
Environment_1,CM,24.287,0.517,22.326,-0.164,2.482,-0.107,-0.419,-1.098,1.011,6.059,7.372,0.1262,0.0992,,,No,0.9613,0.9803,0.9972,No,Cruise
Environment_1,CM,24.540,0.517,22.574,0.592,2.532,3.017,0.13,8.73,0.981,3.448,5.029,0.6387,0.4364,Human,,Yes,0.7999,0.9004,0.8693,No,Avoidance
Environment_1,CM,24.759,0.517,22.787,0.214,2.519,0.748,0.205,2.251,0.971,4.797,6.032,0.2312,0.164,,,No,0.9066,0.9187,0.8549,No,Cruise
Environment_1,CM,24.859,0.517,22.886,-0.089,2.503,0.029,0.358,-1.504,0.99,6.179,7.664,0.0802,0.0592,,,No,0.9449,0.9628,0.9776,No,Cruise
Environment_1,CM,25.062,0.517,23.086,-0.082,2.491,-0.785,0.055,-1.766,0.987,5.719,7.045,0.0861,0.08,Human,,Yes,0.9073,0.9167,0.9483,No,Avoidance
Environment_1,CM,25.127,0.517,23.152,0.257,2.493,1.508,-0.248,3.043,1.019,4.41,5.862,0.2707,0.2291,Human,,Yes,0.8111,0.8543,0.8441,No,Avoidance
Environment_1,CM,25.185,0.517,23.211,0.292,2.492,1.309,-0.024,2.847,1.005,4.374,5.762,0.3235,0.2433,Human,,Yes,0.796,0.8557,0.841,No,Avoidance
Environment_1,CM,25.193,0.517,23.219,0.514,2.49,2.78,0.228,7.765,1.013,3.619,4.823,0.5571,0.428,Human,,Yes,0.7839,0.8729,0.7986,No,Avoidance
Environment_1,CM,25.329,0.517,23.358,-0.084,2.518,-0.965,0.08,-0.978,1.023,6.455,7.444,0.0792,0.083,,,No,0.9578,0.9591,0.9858,No,Cruise
Environment_1,CM,25.340,0.517,23.369,-0.105,2.484,-0.301,-0.138,-1.034,1.05,6.272,7.556,0.058,0.0904,,,No,0.9643,0.9494,0.9857,No,Cruise
Environment_1,CM,25.430,0.517,23.46,0.006,2.475,-0.166,0.299,-0.024,1.003,5.141,6.618,0.0783,0.0853,Human,,Yes,0.8587,0.8917,0.902,No,Avoidance
Environment_1,CM,25.524,0.517,23.558,-0.095,2.476,-0.771,0.388,-1.871,1.044,6.01,7.424,0.078,0.0313,,,No,0.9637,0.9609,0.973,No,Cruise
Environment_1,CM,25.542,0.517,23.576,0.502,2.505,3.511,-0.176,7.952,1.005,3.619,4.913,0.5757,0.4525,Human,,Yes,0.774,0.8874,0.8349,No,Avoidance
Environment_1,CM,25.547,0.517,23.581,0.491,2.495,2.493,-0.396,6.296,1.012,3.725,5.104,0.5007,0.4329,Human,,Yes,0.7804,0.8704,0.8313,No,Avoidance
Environment_1,CM,25.551,0.517,23.585,-0.096,2.488,-0.768,0.164,-0.81,1.036,6.22,7.181,0.0866,0.1137,,,No,0.9505,0.9607,0.9977,No,Cruise
Environment_1,CM,25.899,0.517,23.932,0.181,2.514,1.06,0.195,3.319,0.997,4.562,5.946,0.2293,0.1957,Human,,Yes,0.8138,0.848,0.8632,No,Avoidance
Environment_1,CM,25.932,0.517,23.966,0.569,2.486,2.945,-0.191,10.599,1.017,3.568,5.058,0.6358,0.5081,Human,,Yes,0.7849,0.8858,0.8185,No,Avoidance
Environment_1,CM,25.949,0.517,23.982,0.424,2.465,2.184,0.174,6.196,0.972,3.734,5.182,0.4624,0.3757,Human,,Yes,0.782,0.8692,0.83,No,Avoidance
Environment_1,CM,26.084,0.517,24.111,0.037,2.49,0.443,0.012,0.756,0.958,5.01,6.437,0.1329,0.1008,Human,,Yes,0.8609,0.8862,0.8921,No,Avoidance
Environment_1,CM,26.313,0.517,24.346,-0.183,2.491,-0.45,0.09,-1.126,1.023,5.938,7.522,0.1126,0.0659,,,No,0.9696,0.967,0.9804,No,Cruise
Environment_1,CM,26.424,0.517,24.458,-0.15,2.485,-0.634,0.12,0.374,1.013,6.07,7.587,0.1324,0.0697,,,No,0.9565,0.9565,0.9943,No,Cruise
Environment_1,CM,26.497,0.517,24.532,0.322,2.518,2.222,-0.216,4.7,1.011,4.008,5.449,0.4271,0.3355,Human,,Yes,0.7887,0.8752,0.8573,No,Avoidance
Environment_1,CM,26.541,0.517,24.576,-0.013,2.503,-0.184,0.028,0.816,0.998,5.165,6.617,0.0798,0.0368,Human,,Yes,0.8483,0.8807,0.9164,No,Avoidance
Environment_1,CM,26.568,0.517,24.603,-0.092,2.509,-0.067,0.129,-1.262,1.007,6.267,7.554,0.0628,0.0779,,,No,0.9413,0.9609,0.9818,No,Cruise
Environment_1,CM,26.632,0.517,24.667,-0.061,2.517,-0.208,-0.185,-0.48,1.0,6.138,7.47,0.1079,0.0772,,,No,0.9619,0.9676,0.9897,No,Cruise
Environment_1,CM,26.781,0.517,24.817,-0.121,2.514,-0.817,-0.073,-2.123,1.003,6.143,7.406,0.1191,0.0834,,,No,0.9702,0.9685,0.9811,No,Cruise
Environment_1,CM,26.876,0.517,24.91,0.057,2.511,0.308,-0.12,-1.132,0.98,4.972,6.384,0.1664,0.1349,Human,,Yes,0.8234,0.8499,0.8792,No,Avoidance
Environment_1,CM,26.900,0.517,24.933,-0.163,2.495,-0.127,0.302,-1.001,0.984,5.909,7.36,0.14,0.1051,,,No,0.9599,0.9768,0.9916,No,Cruise
Environment_1,CM,27.148,0.517,25.184,-0.116,2.505,-0.223,0.092,-0.379,1.013,6.019,7.424,0.0757,0.0552,,,No,0.9554,0.9772,0.9782,No,Cruise
Environment_1,CM,27.162,0.517,25.199,-0.165,2.482,-0.483,-0.024,-0.208,1.002,6.19,7.666,0.1152,0.0927,,,No,0.9604,0.9728,0.992,No,Cruise
Environment_1,CM,27.195,0.517,25.231,0.481,2.509,3.018,-0.126,6.673,0.983,3.775,4.964,0.5306,0.4158,Human,,Yes,0.7736,0.8715,0.8199,No,Avoidance
Environment_1,CM,27.272,0.517,25.311,-0.142,2.493,-0.513,0.086,-0.965,1.039,5.916,7.472,0.1026,0.1079,,,No,0.9584,0.9714,0.9967,No,Cruise
Environment_1,CM,27.319,0.517,25.358,-0.08,2.514,-0.352,-0.087,-0.287,0.996,6.313,7.451,0.0658,0.0277,,,No,0.9516,0.9676,0.9817,No,Cruise
Environment_1,CM,27.401,0.517,25.439,-0.128,2.508,-0.102,-0.086,-0.932,0.989,5.839,7.481,0.1094,0.1067,,,No,0.9684,0.9708,0.9768,No,Cruise
Environment_1,CM,27.474,0.517,25.512,-0.074,2.507,-0.28,-0.059,-0.08,0.998,5.488,6.803,0.0646,0.0352,Human,,Yes,0.878,0.8961,0.9328,No,Avoidance
Environment_1,CM,27.648,0.517,25.683,-0.133,2.494,-0.251,-0.226,-1.55,0.985,6.265,7.617,0.0821,0.0831,,,No,0.9438,0.9549,0.9876,No,Cruise
Environment_1,CM,27.743,0.517,25.782,-0.08,2.511,-0.551,0.101,-1.116,1.036,6.051,7.214,0.098,0.0593,,,No,0.9636,0.9673,0.988,No,Cruise
Environment_1,CM,27.874,0.517,25.909,-0.14,2.489,-0.908,0.061,-0.82,0.972,6.014,7.374,0.0773,0.1247,,,No,0.9501,0.9786,0.9881,No,Cruise
Environment_1,CM,28.000,0.517,26.034,0.361,2.485,1.536,-0.133,7.192,0.989,3.891,5.489,0.4314,0.3551,Human,,Yes,0.8072,0.8724,0.862,No,Avoidance
Environment_1,CM,28.068,0.517,26.101,-0.143,2.503,-0.766,0.209,-1.48,0.991,6.023,7.49,0.0803,0.0902,,,No,0.9632,0.9766,0.9888,No,Cruise
Environment_1,CM,28.240,0.517,26.272,-0.134,2.479,-0.033,-0.092,-1.691,0.995,6.052,7.503,0.0867,0.0795,,,No,0.9539,0.9676,0.9793,No,Cruise
Environment_1,CM,28.383,0.517,26.413,-0.152,2.486,-0.187,-0.262,-2.729,0.988,6.02,7.502,0.1282,0.0693,,,No,0.9634,0.9684,0.9908,No,Cruise
Environment_1,CM,28.407,0.517,26.437,-0.159,2.524,-0.498,0.124,-2.301,0.977,6.088,7.517,0.108,0.0583,,,No,0.9581,0.9627,0.9934,No,Cruise
Environment_1,CM,28.464,0.517,26.493,-0.106,2.528,-0.592,0.106,-0.754,0.988,6.036,7.517,0.1299,0.0691,,,No,0.9472,0.9677,0.9944,No,Cruise
Environment_1,CM,28.660,0.517,26.694,-0.166,2.487,-0.235,-0.167,-0.646,1.027,6.072,7.293,0.1042,0.1349,,,No,0.9451,0.9735,0.9815,No,Cruise
Environment_1,CM,28.708,0.517,26.743,-0.137,2.484,-0.654,0.149,-1.621,1.01,5.947,7.581,0.0849,0.1099,,,No,0.9565,0.979,0.9726,No,Cruise
Environment_1,CM,28.971,0.517,27.0,-0.085,2.495,-0.541,-0.083,-2.074,0.978,6.114,7.903,0.11,0.084,,,No,0.9566,0.9791,1.0002,No,Cruise
Environment_1,CM,29.026,0.517,27.055,-0.093,2.488,-0.792,0.11,-0.273,1.001,6.024,7.676,0.0703,0.1225,,,No,0.9573,0.968,0.9801,No,Cruise
Environment_1,CM,29.076,0.517,27.105,-0.118,2.485,-0.673,-0.084,-2.124,0.997,6.043,7.684,0.1152,0.1012,,,No,0.9577,0.9734,0.9869,No,Cruise
Environment_1,CM,29.077,0.517,27.106,-0.12,2.496,-0.806,-0.381,-2.573,1.03,6.256,7.392,0.1363,0.0911,,,No,0.966,0.9712,0.9872,No,Cruise
Environment_1,CM,29.151,0.517,27.179,-0.094,2.492,-0.46,0.005,-1.678,0.987,6.149,7.497,0.1434,0.1187,,,No,0.959,0.9729,0.9816,No,Cruise
Environment_1,CM,29.187,0.517,27.215,-0.168,2.499,-0.704,-0.001,-0.325,0.999,6.298,7.533,0.0943,0.0945,,,No,0.953,0.9655,0.9923,No,Cruise
Environment_1,CM,29.646,0.517,27.669,-0.137,2.496,-0.973,-0.069,-0.521,0.989,5.909,7.709,0.0926,0.099,,,No,0.9717,0.9728,0.9763,No,Cruise
Environment_1,CM,29.768,0.517,27.79,-0.107,2.531,-0.413,0.092,-0.998,0.991,6.129,7.257,0.08,0.119,,,No,0.956,0.9668,0.9846,No,Cruise
Environment_1,CM,29.794,0.517,27.815,-0.159,2.498,-0.759,-0.117,-1.105,0.977,5.917,7.523,0.0668,0.1033,,,No,0.9567,0.9637,0.9942,No,Cruise
Environment_1,CM,29.797,0.517,27.818,-0.075,2.518,-0.293,-0.078,0.403,0.996,6.092,7.616,0.1485,0.0586,,,No,0.9603,0.9693,0.9964,No,Cruise
Environment_1,CM,30.113,0.517,28.136,-0.238,2.502,-0.53,0.08,-1.838,1.007,5.403,6.943,0.1799,0.1312,,,No,0.9371,0.9248,0.9438,No,Cruise
Environment_1,CM,30.311,0.517,28.337,-0.192,2.52,-0.267,-0.105,-2.113,1.011,5.923,7.258,0.148,0.129,,,No,0.9611,0.978,0.9855,No,Cruise
Environment_1,CM,30.324,0.517,28.35,-0.133,2.463,-0.648,-0.22,0.04,1.031,6.033,7.415,0.1434,0.1325,,,No,0.9515,0.975,0.9976,No,Cruise
Environment_1,CM,30.388,0.517,28.416,-0.164,2.512,-0.356,0.141,-1.516,1.026,6.066,7.572,0.1225,0.1643,,,No,0.9561,0.9705,0.9817,No,Cruise
Environment_1,CM,30.421,0.517,28.448,-0.129,2.47,-0.232,0.052,-2.555,0.978,5.953,7.518,0.1687,0.1306,,,No,0.9514,0.9806,0.9831,No,Cruise
Environment_1,CM,30.575,0.517,28.602,-0.138,2.512,-0.447,0.04,-2.184,1.0,6.169,7.394,0.0952,0.1197,,,No,0.9553,0.9731,0.9932,No,Cruise
Environment_1,CM,30.676,0.517,28.702,-0.093,2.502,-1.024,-0.149,-1.599,0.989,5.694,6.982,0.1521,0.1055,,,No,0.944,0.9372,0.937,No,Cruise
Environment_1,CM,30.822,0.517,28.845,-0.11,2.528,-0.392,0.272,-1.612,0.98,6.247,7.782,0.1081,0.1073,,,No,0.9555,0.9702,0.9894,No,Cruise
Environment_1,CM,30.882,0.517,28.904,-0.103,2.489,-0.981,0.111,-2.14,0.979,5.957,7.421,0.1064,0.071,,,No,0.9603,0.969,0.9857,No,Cruise
Environment_1,CM,30.920,0.517,28.942,-0.161,2.47,-0.703,-0.042,-0.545,0.997,6.217,7.381,0.1186,0.1074,,,No,0.9507,0.976,0.992,No,Cruise
Environment_1,CM,30.986,0.517,29.007,-0.105,2.5,-1.0,0.362,-2.215,0.993,6.289,7.588,0.1347,0.1002,,,No,0.9602,0.9691,0.9837,No,Cruise
Environment_1,CM,31.158,0.517,29.179,-0.17,2.498,-0.227,0.236,-1.471,0.997,6.349,7.591,0.1004,0.1571,,,No,0.9527,0.9821,0.9932,No,Cruise
Environment_1,CM,31.214,0.517,29.236,-0.12,2.491,-0.788,0.029,-1.583,1.016,6.073,7.476,0.1088,0.0677,,,No,0.9632,0.9691,0.9864,No,Cruise
Environment_1,CM,31.221,0.517,29.243,-0.157,2.509,-0.916,0.181,-1.85,1.004,5.555,6.837,0.1736,0.0862,,,No,0.9384,0.9275,0.9376,No,Cruise
Environment_1,CM,31.357,0.517,29.376,-0.126,2.503,-1.134,0.232,-2.675,0.98,5.956,7.324,0.0921,0.1643,,,No,0.951,0.976,0.9824,No,Cruise
Environment_1,CM,31.572,0.517,29.587,-0.09,2.505,-0.649,0.078,-1.086,0.981,5.802,7.281,0.1038,0.0751,,,No,0.9303,0.9497,0.9551,No,Cruise
Environment_1,CM,31.631,0.517,29.646,-0.151,2.517,-0.071,-0.275,-1.184,0.999,6.154,7.49,0.0881,0.0911,,,No,0.9634,0.9632,1.0043,No,Cruise
Environment_1,CM,31.849,0.517,29.867,-0.122,2.51,-0.084,0.243,-2.121,1.016,6.185,7.496,0.1114,0.0789,,,No,0.9602,0.9738,0.9887,No,Cruise
Environment_1,CM,32.082,0.517,30.101,-0.197,2.502,-1.381,0.252,-2.624,1.004,5.203,6.721,0.1814,0.2012,,,No,0.9088,0.9051,0.9283,No,Cruise
Environment_1,CM,32.116,0.517,30.135,-0.119,2.501,-0.307,0.263,-1.569,0.993,6.115,7.574,0.1268,0.1716,,,No,0.9595,0.968,0.9949,No,Cruise
Environment_1,CM,32.332,0.517,30.348,-0.348,2.514,-1.425,-0.071,-3.832,0.985,4.546,5.842,0.2636,0.2158,Palm_Trunk,,Yes,0.8892,0.8553,0.8383,No,Avoidance
Environment_1,CM,32.369,0.517,30.385,-0.034,2.511,-0.493,0.173,-1.366,1.004,5.834,7.377,0.1251,0.0803,,,No,0.9534,0.9546,0.953,No,Cruise
Environment_1,CM,32.376,0.517,30.392,-0.265,2.505,-0.863,-0.166,-3.317,0.984,4.458,5.919,0.232,0.2343,Palm_Trunk,,Yes,0.883,0.8662,0.8545,No,Avoidance
Environment_1,CM,32.524,0.517,30.533,-0.125,2.506,-0.553,-0.372,-1.557,0.955,6.135,7.563,0.1358,0.1043,,,No,0.9677,0.9656,0.983,No,Cruise
Environment_1,CM,32.558,0.517,30.568,-0.118,2.509,-0.771,-0.018,-1.589,1.021,6.05,7.287,0.116,0.0653,,,No,0.9562,0.966,0.9866,No,Cruise
Environment_1,CM,32.584,0.517,30.593,-0.036,2.508,-0.484,-0.037,-1.42,0.988,5.694,7.347,0.119,0.0665,,,No,0.9397,0.941,0.9542,No,Cruise
Environment_1,CM,32.711,0.517,30.723,-0.128,2.496,-1.044,-0.242,-1.899,1.023,6.24,7.557,0.0982,0.0888,,,No,0.9461,0.9658,0.9807,No,Cruise
Environment_1,CM,32.828,0.517,30.836,-0.076,2.479,-0.665,0.192,-0.583,0.963,5.585,7.129,0.1604,0.0694,,,No,0.9474,0.9318,0.9186,No,Cruise
Environment_1,CM,32.856,0.517,30.864,-0.239,2.517,-1.445,0.185,-3.678,0.988,4.511,6.077,0.2548,0.1673,Palm_Trunk,,Yes,0.8119,0.8963,0.8498,No,Avoidance
Environment_1,CM,32.872,0.517,30.88,-0.329,2.537,-1.35,-0.08,-1.907,1.01,4.178,5.54,0.2789,0.2458,Palm_Trunk,,Yes,0.8767,0.8453,0.8365,No,Avoidance
Environment_1,CM,33.762,0.517,31.787,-0.253,2.493,-0.182,-0.279,-2.714,1.019,5.412,6.746,0.1887,0.1829,,,No,0.9172,0.9067,0.9207,No,Cruise
Environment_1,CM,33.860,0.517,31.885,-0.423,2.495,-1.568,-0.173,-4.677,1.001,4.122,5.56,0.3508,0.296,Palm_Trunk,,Yes,0.8807,0.8558,0.8262,No,Avoidance
Environment_1,CM,33.910,0.517,31.933,-0.053,2.501,-0.255,-0.195,-0.862,0.967,6.413,7.825,0.0375,0.0233,,,No,0.9534,0.97,0.9819,No,Cruise
Environment_1,CM,33.996,0.517,32.019,-0.676,2.509,-2.797,0.314,-8.841,0.997,3.706,4.933,0.5871,0.4496,Palm_Trunk,,Yes,0.8468,0.909,0.8194,No,Avoidance
Environment_1,CM,34.086,0.517,32.108,-0.627,2.502,-3.189,-0.088,-9.036,0.992,3.886,5.331,0.6165,0.4603,Palm_Trunk,,Yes,0.8519,0.8952,0.8256,No,Avoidance
Environment_1,CM,34.165,0.517,32.189,-0.53,2.501,-2.721,-0.013,-8.366,1.022,3.844,4.953,0.518,0.4492,Palm_Trunk,,Yes,0.8806,0.8628,0.8374,No,Avoidance
Environment_1,CM,34.305,0.517,32.33,-0.433,2.498,-2.142,-0.228,-6.323,1.006,4.003,5.422,0.4248,0.4026,Palm_Trunk,,Yes,0.8227,0.9094,0.8104,No,Avoidance
Environment_1,CM,34.356,0.517,32.381,-0.37,2.495,-1.728,0.188,-5.611,1.006,4.226,5.593,0.3261,0.2621,Palm_Trunk,,Yes,0.8877,0.8566,0.8693,No,Avoidance
Environment_1,CM,34.457,0.517,32.485,-0.498,2.491,-1.936,0.049,-5.219,1.024,3.948,5.327,0.4531,0.344,Palm_Trunk,,Yes,0.879,0.859,0.835,No,Avoidance
Environment_1,CM,34.845,0.517,32.88,-0.17,2.487,-0.388,0.371,-1.735,1.02,5.236,6.462,0.1995,0.1489,Palm_Trunk,,Yes,0.8623,0.908,0.8877,No,Avoidance
Environment_1,CM,34.905,0.517,32.941,-0.66,2.486,-2.903,-0.326,-8.413,1.004,3.811,4.972,0.603,0.4764,Palm_Trunk,,Yes,0.8565,0.8984,0.8226,No,Avoidance
Environment_1,CM,35.009,0.517,33.043,-0.493,2.518,-2.425,0.105,-6.841,0.983,3.949,5.264,0.4931,0.384,Palm_Trunk,,Yes,0.8263,0.9047,0.8047,No,Avoidance
Environment_1,CM,35.020,0.517,33.054,0.09,2.518,0.057,-0.443,0.265,1.0,6.005,7.73,0.062,0.0131,,,No,0.947,0.9653,0.9812,No,Cruise
Environment_1,CM,35.102,0.517,33.138,-0.39,2.473,-2.297,0.096,-5.727,1.025,4.052,5.412,0.4081,0.378,Palm_Trunk,,Yes,0.8254,0.8962,0.8438,No,Avoidance
Environment_1,CM,35.174,0.517,33.21,-0.565,2.511,-2.99,-0.181,-8.038,1.001,3.842,5.194,0.555,0.4551,Palm_Trunk,,Yes,0.885,0.8823,0.8348,No,Avoidance
Environment_1,CM,35.189,0.517,33.225,-0.532,2.49,-3.499,0.068,-8.432,0.976,3.623,5.177,0.5273,0.4044,Palm_Trunk,,Yes,0.8292,0.9033,0.8126,No,Avoidance
Environment_1,CM,35.302,0.517,33.339,-0.18,2.488,-0.448,0.133,-0.82,1.012,5.433,6.514,0.1731,0.1245,Palm_Trunk,,Yes,0.8911,0.9257,0.9138,No,Avoidance
Environment_1,CM,35.436,0.517,33.472,-0.215,2.514,-1.238,0.08,-3.132,0.995,5.16,6.392,0.2433,0.1521,Palm_Trunk,,Yes,0.8606,0.9177,0.8883,No,Avoidance
Environment_1,CM,35.453,0.517,33.488,-0.288,2.497,-1.336,0.205,-2.641,0.953,4.676,5.972,0.2792,0.1368,Palm_Trunk,,Yes,0.8063,0.9017,0.822,No,Avoidance
Environment_1,CM,35.577,0.517,33.612,-0.427,2.521,-2.387,0.113,-6.435,0.994,4.107,5.555,0.3858,0.3218,Palm_Trunk,,Yes,0.8945,0.8453,0.8421,No,Avoidance
Environment_1,CM,35.588,0.517,33.623,-0.034,2.527,-0.139,-0.112,-0.891,1.004,6.356,7.621,0.0564,0.0464,,,No,0.9519,0.9619,0.993,No,Cruise
Environment_1,CM,35.670,0.517,33.707,-0.234,2.487,-0.891,0.374,-3.611,1.025,4.967,6.321,0.2262,0.144,Palm_Trunk,,Yes,0.8374,0.9065,0.864,No,Avoidance
Environment_1,CM,35.740,0.517,33.777,-0.637,2.49,-3.358,-0.064,-8.021,1.003,3.866,4.993,0.5892,0.445,Palm_Trunk,,Yes,0.8564,0.9017,0.826,No,Avoidance
Environment_1,CM,35.779,0.517,33.816,-0.506,2.502,-2.753,-0.037,-8.253,1.0,3.974,5.39,0.5218,0.4019,Palm_Trunk,,Yes,0.831,0.8999,0.8052,No,Avoidance
Environment_1,CM,36.027,0.517,34.065,-0.593,2.51,-2.838,-0.059,-8.333,1.004,3.671,4.765,0.5806,0.4732,Palm_Trunk,,Yes,0.8871,0.8805,0.8473,No,Avoidance
Environment_1,CM,36.075,0.517,34.111,-0.085,2.487,-0.296,-0.159,0.282,0.965,6.091,7.591,0.0633,0.0347,,,No,0.9721,0.9606,0.9938,No,Cruise
Environment_1,CM,36.088,0.517,34.124,-0.28,2.502,-0.766,0.22,-3.111,1.008,5.197,6.624,0.2167,0.2125,,,No,0.9226,0.9069,0.9266,No,Cruise
Environment_1,CM,36.206,0.517,34.24,-0.532,2.485,-3.013,-0.089,-9.231,0.976,3.737,5.137,0.5716,0.4802,Palm_Trunk,,Yes,0.8761,0.8812,0.8387,No,Avoidance
Environment_1,CM,36.493,0.517,34.526,0.118,2.518,-0.007,0.001,0.639,0.998,6.157,7.606,0.0671,0.0093,,,No,0.953,0.9582,0.9723,No,Cruise
Environment_1,CM,36.608,0.517,34.642,-0.569,2.461,-2.828,0.071,-6.401,1.007,3.616,4.973,0.5724,0.448,Palm_Trunk,,Yes,0.8585,0.8992,0.8286,No,Avoidance
Environment_1,CM,36.635,0.517,34.669,-0.468,2.498,-2.137,0.177,-6.1,1.018,3.894,5.115,0.5484,0.4266,Palm_Trunk,,Yes,0.8809,0.8647,0.8299,No,Avoidance
Environment_1,CM,36.641,0.517,34.675,-0.153,2.517,-0.643,0.224,-2.441,1.005,5.696,6.895,0.1362,0.0681,Palm_Trunk,,Yes,0.9218,0.9318,0.9495,No,Avoidance
Environment_1,CM,36.773,0.517,34.801,-0.025,2.509,-0.424,0.666,-0.587,0.955,6.377,7.571,0.0489,0.0205,,,No,0.9585,0.9628,0.9851,No,Cruise
Environment_1,CM,36.904,0.517,34.932,-0.019,2.479,0.057,0.13,0.484,0.997,6.254,7.572,0.0646,0.0,,,No,0.9676,0.9645,0.9833,No,Cruise
Environment_1,CM,36.928,0.517,34.956,-0.218,2.489,-0.488,-0.137,-2.791,1.007,5.61,6.842,0.183,0.1379,Palm_Trunk,,Yes,0.9041,0.9426,0.9407,No,Avoidance
Environment_1,CM,37.129,0.517,35.152,-0.395,2.488,-1.956,-0.302,-5.989,0.975,4.058,5.453,0.3797,0.3327,Palm_Trunk,,Yes,0.8103,0.8931,0.8071,No,Avoidance
Environment_1,CM,37.153,0.517,35.176,-0.495,2.481,-2.569,0.377,-6.305,1.0,3.811,5.348,0.4681,0.3962,Palm_Trunk,,Yes,0.8862,0.864,0.7945,No,Avoidance
Environment_1,CM,37.162,0.517,35.185,-0.611,2.529,-3.129,0.038,-7.157,1.006,3.7,5.121,0.5867,0.4544,Palm_Trunk,,Yes,0.8603,0.8932,0.8088,No,Avoidance
Environment_1,CM,37.233,0.517,35.257,-0.546,2.506,-3.043,0.124,-8.329,1.012,3.818,5.315,0.5231,0.4184,Palm_Trunk,,Yes,0.8698,0.8842,0.8229,No,Avoidance
Environment_1,CM,37.321,0.517,35.345,-0.173,2.514,-0.71,-0.026,-0.655,0.999,5.874,7.019,0.1228,0.12,Palm_Trunk,,Yes,0.9085,0.9262,0.9462,No,Avoidance
Environment_1,CM,37.447,0.517,35.471,0.035,2.513,0.362,-0.226,0.727,1.002,6.191,7.699,0.0686,0.0385,,,No,0.941,0.9761,0.9909,No,Cruise
Environment_1,CM,37.529,0.517,35.552,-0.535,2.491,-2.597,0.004,-8.451,0.991,3.633,5.077,0.5482,0.4438,Palm_Trunk,,Yes,0.8441,0.9106,0.8361,No,Avoidance
Environment_1,CM,37.641,0.517,35.666,0.04,2.516,0.415,0.17,-0.192,1.018,6.28,7.818,0.0,0.035,,,No,0.9498,0.9514,0.9739,No,Cruise
Environment_1,CM,37.689,0.517,35.714,-0.038,2.488,-0.04,-0.038,0.516,0.999,6.443,7.709,0.0435,0.061,,,No,0.9615,0.9665,0.9811,No,Cruise
Environment_1,CM,37.754,0.517,35.779,0.008,2.483,-0.205,-0.152,-0.031,0.995,6.254,7.833,0.0186,0.0471,,,No,0.9495,0.9682,0.9939,No,Cruise
Environment_1,CM,37.757,0.517,35.782,0.005,2.492,0.072,0.166,0.157,1.017,6.418,7.81,0.0075,0.0365,,,No,0.9473,0.9618,0.9746,No,Cruise
Environment_1,CM,37.807,0.517,35.831,-0.105,2.504,0.13,-0.219,0.808,0.986,6.091,7.774,0.0258,0.02,,,No,0.958,0.9656,0.9875,No,Cruise
Environment_1,CM,37.846,0.517,35.87,-0.006,2.524,0.165,-0.023,-0.353,0.986,6.219,7.76,0.0593,0.0,,,No,0.9719,0.9718,0.9937,No,Cruise
Environment_1,CM,37.928,0.517,35.951,-0.041,2.517,-0.415,0.023,-1.159,0.985,5.892,7.299,0.0569,0.063,,,No,0.935,0.9557,0.9777,No,Cruise
Environment_1,CM,37.948,0.517,35.97,-0.047,2.479,-0.2,-0.032,-1.06,0.958,6.535,7.833,0.0149,0.0041,,,No,0.9447,0.9703,0.9904,No,Cruise
Environment_1,CM,38.012,0.517,36.033,-0.477,2.5,-2.425,-0.166,-6.878,0.982,3.761,4.9,0.5034,0.4155,Palm_Trunk,,Yes,0.8899,0.8525,0.8038,No,Avoidance
Environment_1,CM,38.171,0.517,36.188,-0.03,2.496,-0.003,0.182,-0.975,0.98,6.234,7.495,0.0582,0.0,,,No,0.9717,0.9509,0.9807,No,Cruise
Environment_1,CM,38.265,0.517,36.28,0.08,2.492,0.041,0.033,0.759,0.974,6.477,7.683,0.064,0.0,,,No,0.954,0.964,0.9738,No,Cruise
Environment_1,CM,38.267,0.517,36.282,0.033,2.523,0.242,-0.115,-0.331,1.019,6.237,7.876,0.0527,0.0373,,,No,0.961,0.9678,0.9942,No,Cruise
Environment_1,CM,38.334,0.517,36.348,-0.292,2.509,-1.759,0.083,-4.339,0.986,4.499,5.754,0.3197,0.1961,Palm_Trunk,,Yes,0.8168,0.8955,0.8569,No,Avoidance
Environment_1,CM,38.447,0.517,36.461,-0.326,2.494,-1.928,0.043,-5.051,1.003,4.481,5.759,0.3631,0.2666,Palm_Trunk,,Yes,0.8333,0.9013,0.8307,No,Avoidance
Environment_1,CM,38.463,0.517,36.478,-0.103,2.52,-0.058,0.002,0.076,1.022,6.078,7.478,0.0681,0.039,,,No,0.9693,0.9701,0.9891,No,Cruise
Environment_1,CM,38.626,0.517,36.642,-0.026,2.488,0.292,0.081,-0.122,1.005,6.356,7.723,0.043,0.0136,,,No,0.9533,0.9656,0.9951,No,Cruise
Environment_1,CM,38.667,0.517,36.681,-0.59,2.507,-2.949,0.015,-7.556,0.948,3.787,5.225,0.5745,0.3965,Palm_Trunk,,Yes,0.8707,0.8967,0.8331,No,Avoidance
Environment_1,CM,38.688,0.517,36.701,-0.069,2.508,-0.165,0.262,-0.983,0.987,6.3,7.456,0.0384,0.0043,,,No,0.9825,0.964,0.9885,No,Cruise
Environment_1,CM,38.778,0.517,36.791,-0.535,2.497,-2.857,0.253,-6.358,0.999,3.37,4.787,0.5717,0.4482,Palm_Trunk,,Yes,0.8417,0.9054,0.8254,No,Avoidance
Environment_1,CM,38.918,0.517,36.931,-0.034,2.518,-0.328,0.084,-0.799,0.996,6.411,7.673,0.0215,0.0113,,,No,0.9554,0.9704,0.9758,No,Cruise
Environment_1,CM,39.023,0.517,37.037,-0.035,2.496,0.346,0.27,-0.288,1.01,6.321,7.707,0.0198,0.0726,,,No,0.9616,0.9613,0.9758,No,Cruise
Environment_1,CM,39.267,0.517,37.277,-0.376,2.511,-1.852,-0.352,-4.195,0.983,4.301,5.773,0.3685,0.3003,Palm_Trunk,,Yes,0.828,0.9066,0.8302,No,Avoidance
Environment_1,CM,39.315,0.517,37.325,0.093,2.493,0.603,0.049,0.936,1.008,6.175,7.41,0.0737,0.0067,,,No,0.9462,0.9662,0.9763,No,Cruise
Environment_1,CM,39.388,0.517,37.399,-0.202,2.532,-0.333,-0.11,-0.731,1.012,5.562,6.71,0.1678,0.1171,Palm_Trunk,,Yes,0.9049,0.9396,0.9354,No,Avoidance
Environment_1,CM,39.837,0.517,37.839,-0.198,2.527,-1.042,0.119,-1.145,0.981,5.771,6.913,0.1543,0.1192,Palm_Trunk,,Yes,0.9138,0.9319,0.9483,No,Avoidance
Environment_1,CM,39.846,0.517,37.848,0.038,2.491,0.3,-0.072,-0.68,0.994,6.268,7.629,0.0554,0.0412,,,No,0.9536,0.9698,0.9897,No,Cruise
Environment_1,CM,39.870,0.517,37.873,0.063,2.501,0.03,0.048,1.248,1.016,6.135,7.812,0.0519,0.0242,,,No,0.9645,0.962,0.9837,No,Cruise
Environment_1,CM,39.898,0.517,37.9,0.109,2.522,0.141,-0.182,0.791,0.995,6.211,7.507,0.0683,0.0,,,No,0.9454,0.9668,0.9745,No,Cruise
Environment_1,CM,39.961,0.517,37.963,-0.049,2.494,-0.323,0.402,-1.1,0.994,5.935,7.288,0.025,0.0389,,,No,0.9482,0.9526,0.9762,No,Cruise
Environment_1,CM,40.018,0.517,38.021,-0.053,2.504,-0.082,0.215,0.267,1.014,6.126,7.76,0.0427,0.0048,,,No,0.9772,0.973,0.9903,No,Cruise
Environment_1,CM,40.022,0.517,38.025,-0.105,2.481,-0.836,-0.225,-1.423,1.001,5.777,7.114,0.0901,0.0925,Palm_Trunk,,Yes,0.9142,0.9398,0.9522,No,Avoidance
Environment_1,CM,40.043,0.517,38.046,-0.01,2.485,0.523,0.052,0.08,0.993,6.437,7.757,0.019,0.0,,,No,0.9548,0.9614,0.9858,No,Cruise
Environment_1,CM,40.048,0.517,38.051,0.026,2.497,0.606,-0.051,0.683,1.008,6.347,7.68,0.0707,0.0898,,,No,0.9381,0.9693,0.9836,No,Cruise
Environment_1,CM,40.141,0.517,38.143,-0.127,2.502,-0.575,-0.209,-0.687,0.988,5.956,7.124,0.105,0.0582,Palm_Trunk,,Yes,0.9294,0.9301,0.9507,No,Avoidance
Environment_1,CM,40.179,0.517,38.182,-0.027,2.51,-0.4,-0.073,-0.361,1.024,6.194,7.582,0.0302,0.0533,,,No,0.9741,0.9776,0.986,No,Cruise
Environment_1,CM,40.196,0.517,38.199,0.049,2.487,0.358,0.055,0.517,1.014,5.961,7.652,0.0594,0.0431,,,No,0.9469,0.9648,0.9858,No,Cruise
Environment_1,CM,40.262,0.517,38.263,-0.089,2.477,-0.526,0.104,-0.43,0.976,5.723,7.073,0.0399,0.0813,Palm_Trunk,,Yes,0.9174,0.9396,0.9365,No,Avoidance
Environment_1,CM,40.274,0.517,38.275,-0.112,2.494,-0.15,0.094,1.341,0.964,6.009,7.924,0.0422,0.0,,,No,0.9795,0.9619,0.9929,No,Cruise
Environment_1,CM,40.351,0.517,38.351,-0.012,2.511,-0.115,0.11,-0.691,0.986,6.525,7.907,0.0,0.0,,,No,0.9384,0.9667,0.9879,No,Cruise
Environment_1,CM,41.035,0.517,39.035,-0.022,2.504,-0.253,-0.165,-0.761,1.001,6.231,7.717,0.0125,0.0,,,No,0.943,0.9823,0.9789,No,Cruise
Environment_1,CM,41.110,0.517,39.11,-0.009,2.478,-0.211,0.095,-0.553,0.991,6.49,7.754,0.0,0.0,,,No,0.9461,0.9884,1.0035,No,Cruise
Environment_1,CM,41.153,0.517,39.153,0.004,2.507,-0.29,-0.058,0.358,1.005,6.225,7.502,0.0,0.0,,,No,0.9389,0.9633,0.9705,No,Cruise
Environment_1,CM,41.160,0.517,39.16,0.085,2.478,0.068,0.13,1.835,0.981,6.182,7.703,0.0392,0.0394,,,No,0.949,0.9665,0.9843,No,Cruise
Environment_1,CM,41.269,0.517,39.266,-0.025,2.514,0.116,0.086,0.638,0.975,6.394,7.743,0.0,0.011,,,No,0.9514,0.9635,0.9679,No,Cruise
Environment_1,CM,42.083,0.517,40.052,0.121,2.504,0.924,-0.129,0.837,0.965,6.189,7.62,0.0449,0.0971,,,No,0.9482,0.9437,0.9843,No,Cruise
Environment_1,CM,42.317,0.517,40.286,-0.024,2.482,0.094,0.006,0.821,1.003,6.408,7.586,0.0205,0.0,,,No,0.9479,0.9718,0.9967,No,Cruise
Environment_1,CM,42.348,0.517,40.318,0.007,2.509,0.444,-0.218,0.477,1.008,6.1,7.576,0.0786,0.0728,,,No,0.9488,0.9657,0.9934,No,Cruise
Environment_1,CM,42.423,0.517,40.391,-0.038,2.5,-0.131,0.116,-0.276,0.985,6.414,7.726,0.0046,0.0263,,,No,0.9509,0.9691,0.9687,No,Cruise
Environment_1,CM,42.850,0.517,40.82,0.034,2.493,0.568,-0.069,-0.014,1.004,6.28,7.392,0.0931,0.1367,,,No,0.9506,0.9713,0.9877,No,Cruise
Environment_1,CM,42.975,0.517,40.944,0.087,2.493,0.088,0.328,1.43,0.99,6.065,7.627,0.0637,0.1315,,,No,0.9456,0.9453,0.9967,No,Cruise
Environment_1,CM,43.003,0.517,40.97,0.096,2.509,0.404,-0.039,1.571,0.948,6.105,7.619,0.0549,0.0372,,,No,0.9455,0.954,0.989,No,Cruise
Environment_1,CM,43.098,0.517,41.067,0.045,2.469,0.205,-0.336,0.912,1.021,6.104,7.796,0.063,0.0387,,,No,0.9284,0.9553,0.9835,No,Cruise
Environment_1,CM,43.164,0.517,41.131,-0.018,2.488,0.044,0.181,-1.63,0.958,6.398,7.612,0.005,0.0264,,,No,0.9599,0.9662,0.9667,No,Cruise
Environment_1,CM,43.215,0.517,41.182,0.016,2.493,0.704,-0.151,0.506,1.007,6.081,7.468,0.0539,0.0269,,,No,0.949,0.9521,0.9958,No,Cruise
Environment_1,CM,43.396,0.517,41.366,0.067,2.498,0.62,0.047,0.958,1.018,6.15,7.507,0.1133,0.0752,,,No,0.9451,0.9505,0.9982,No,Cruise
Environment_1,CM,43.464,0.517,41.435,0.076,2.493,0.253,0.461,0.526,1.008,5.977,7.514,0.1059,0.0841,,,No,0.9451,0.9571,0.9963,No,Cruise
Environment_1,CM,43.531,0.517,41.503,0.028,2.486,-0.169,-0.076,0.268,1.024,6.219,7.693,0.0451,0.0205,,,No,0.9387,0.9668,0.9784,No,Cruise
Environment_1,CM,43.596,0.517,41.568,0.062,2.504,0.187,0.083,1.15,1.001,6.437,7.5,0.0763,0.0526,,,No,0.9331,0.9674,0.9947,No,Cruise
Environment_1,CM,43.601,0.517,41.573,0.052,2.492,-0.14,-0.064,2.053,1.015,6.179,7.58,0.0725,0.06,,,No,0.9393,0.9458,0.9926,No,Cruise
Environment_1,CM,43.642,0.517,41.616,0.112,2.505,0.574,-0.077,1.443,1.038,6.076,7.511,0.0514,0.0,,,No,0.949,0.9492,0.9879,No,Cruise
Environment_1,CM,43.879,0.517,41.846,0.024,2.538,0.447,-0.09,0.044,0.969,6.085,7.472,0.0392,0.0073,,,No,0.9313,0.9464,0.9851,No,Cruise
Environment_1,CM,43.889,0.517,41.856,0.028,2.491,0.761,0.403,0.66,1.021,6.143,7.587,0.0437,0.0723,,,No,0.9362,0.9537,0.9873,No,Cruise
Environment_1,CM,43.922,0.517,41.889,0.056,2.506,0.318,0.131,-1.688,1.0,6.098,7.561,0.0848,0.0264,,,No,0.9507,0.9536,0.9934,No,Cruise
Environment_1,CM,43.997,0.517,41.966,0.108,2.483,0.577,0.38,1.429,1.025,6.17,7.421,0.0765,0.1446,,,No,0.9314,0.9492,0.9837,No,Cruise
Environment_1,CM,44.030,0.517,41.999,0.043,2.517,0.387,0.023,1.32,1.008,5.991,7.67,0.038,0.0394,,,No,0.9413,0.9495,0.9822,No,Cruise
Environment_1,CM,44.124,0.517,42.095,0.034,2.512,0.213,0.235,-0.474,1.019,6.466,7.726,0.0759,0.1112,,,No,0.942,0.967,0.9848,No,Cruise
Environment_1,CM,44.130,0.517,42.101,0.162,2.509,0.258,0.075,1.216,0.982,6.273,7.397,0.0597,0.1297,,,No,0.942,0.9553,0.9784,No,Cruise
Environment_1,CM,44.142,0.517,42.112,0.091,2.509,0.327,0.031,1.444,0.978,6.211,7.587,0.0943,0.0732,,,No,0.9258,0.9526,0.9991,No,Cruise
Environment_1,CM,44.151,0.517,42.122,0.034,2.515,-0.458,0.125,1.189,1.013,6.01,7.513,0.0682,0.0539,,,No,0.9494,0.9685,0.9859,No,Cruise
Environment_1,CM,44.174,0.517,42.144,0.073,2.491,-0.171,0.22,0.923,0.992,6.238,7.498,0.0886,0.0549,,,No,0.9471,0.9707,0.9875,No,Cruise
Environment_1,CM,44.259,0.517,42.23,0.023,2.509,0.591,-0.243,0.376,1.003,6.189,7.587,0.0639,0.0525,,,No,0.9441,0.9591,0.9809,No,Cruise
Environment_1,CM,44.467,0.517,42.436,0.06,2.509,1.057,0.209,-0.181,0.992,5.857,7.466,0.0905,0.0994,,,No,0.9463,0.9531,0.9944,No,Cruise
Environment_1,CM,44.625,0.517,42.596,0.079,2.543,0.394,0.058,1.181,1.014,6.105,7.377,0.1049,0.0721,,,No,0.9327,0.9549,1.0011,No,Cruise
Environment_1,CM,44.678,0.517,42.65,0.065,2.505,0.473,-0.298,3.235,1.019,6.133,7.618,0.0821,0.0542,,,No,0.9265,0.9577,0.997,No,Cruise
Environment_1,CM,44.757,0.517,42.728,0.058,2.527,0.313,0.008,-0.089,0.986,6.263,7.798,0.0247,0.0267,,,No,0.9504,0.9603,0.9897,No,Cruise
Environment_1,CM,44.768,0.517,42.739,0.025,2.533,-0.616,-0.081,1.154,1.015,6.023,7.457,0.0611,0.0384,,,No,0.9441,0.9495,0.9818,No,Cruise
Environment_1,CM,44.902,0.517,42.875,0.15,2.504,0.463,-0.018,2.042,1.009,6.067,7.427,0.0999,0.0844,,,No,0.9446,0.944,0.9823,No,Cruise
Environment_1,CM,45.002,0.517,42.973,0.089,2.503,0.593,0.035,-0.566,0.98,6.159,7.724,0.067,0.0805,,,No,0.9583,0.9681,0.9904,No,Cruise
Environment_1,CM,45.165,0.517,43.136,0.175,2.486,0.646,0.306,1.936,1.006,6.13,7.42,0.0589,0.1089,,,No,0.9573,0.9527,0.9848,No,Cruise
Environment_1,CM,45.745,0.517,43.73,0.158,2.523,0.529,-0.142,1.612,1.023,5.867,7.507,0.1636,0.0637,,,No,0.9511,0.9545,0.9742,No,Cruise
Environment_1,CM,45.756,0.517,43.741,-0.012,2.47,0.945,-0.315,0.431,0.971,6.01,7.606,0.0733,0.0622,,,No,0.9552,0.9602,0.9896,No,Cruise
Environment_1,CM,45.880,0.517,43.86,0.092,2.503,0.379,0.054,1.368,0.967,6.298,7.52,0.0963,0.0718,,,No,0.9411,0.9587,0.9905,No,Cruise
