Environment,Lighting,Timestamp_s,Wind_mps,Pos_X_m,Pos_Y_m,Altitude_m,Roll_deg,Pitch_deg,Yaw_deg,Velocity_mps,Depth_Min_m,Depth_Mean_m,Lateral_Error_m,Corridor_Center_Error_m,Obstacle_Type,Obstacle_Distance_m,AGSS_Activated,CAMR_Confidence,SACR_Score,Path_Clear_Probability,Collision,Mission_State
Environment_1,CM,0.000,0.517,-2.242,0.075,2.508,-0.327,-0.315,-0.499,0.996,6.13,7.66,0.0259,0.1022,,,No,0.9529,0.9578,0.9674,No,Cruise
Environment_1,CM,0.003,0.517,-2.239,0.036,2.488,-0.689,-0.187,0.846,1.014,6.295,7.692,0.0481,0.0115,,,No,0.9597,0.9744,0.9971,No,Cruise
Environment_1,CM,0.366,0.517,-1.88,0.028,2.51,0.295,0.141,1.459,0.988,6.499,7.642,0.0,0.0086,,,No,0.9576,0.9624,0.991,No,Cruise
Environment_1,CM,0.457,0.517,-1.789,0.032,2.507,-0.26,0.357,-1.103,1.003,6.364,7.5,0.0279,0.0512,,,No,0.9627,0.9731,0.9762,No,Cruise
Environment_1,CM,0.643,0.517,-1.604,0.029,2.495,-0.01,-0.105,-0.057,0.996,6.203,7.678,0.0209,0.0,,,No,0.9509,0.9785,0.9942,No,Cruise
Environment_1,CM,1.115,0.517,-1.133,0.04,2.498,-0.164,-0.01,-0.896,0.997,6.29,7.588,0.0384,0.0026,,,No,0.9569,0.965,0.9894,No,Cruise
Environment_1,CM,1.236,0.517,-1.008,0.008,2.494,0.377,-0.229,1.881,1.032,6.051,7.718,0.0608,0.0655,,,No,0.9631,0.9751,0.9865,No,Cruise
Environment_1,CM,1.262,0.517,-0.982,0.053,2.507,0.121,-0.448,1.24,1.017,6.532,7.615,0.0037,0.0256,,,No,0.9508,0.9679,0.9845,No,Cruise
Environment_1,CM,1.827,0.517,-0.425,0.068,2.524,0.382,0.298,0.602,0.986,6.082,7.623,0.0233,0.0715,,,No,0.9541,0.9654,0.9894,No,Cruise
Environment_1,CM,1.843,0.517,-0.408,-0.02,2.482,-0.152,0.101,0.993,1.048,6.352,7.657,0.0573,0.0,,,No,0.9586,0.9778,0.9839,No,Cruise
Environment_1,CM,2.112,0.517,-0.144,-0.037,2.486,0.445,0.08,-0.286,0.981,6.156,7.556,0.049,0.0379,,,No,0.9659,0.9768,0.9775,No,Cruise
Environment_1,CM,2.194,0.517,-0.062,0.049,2.516,-0.457,0.014,0.384,0.996,6.17,7.555,0.0618,0.0705,,,No,0.9586,0.9658,0.9812,No,Cruise
Environment_1,CM,2.343,0.517,0.084,0.068,2.522,-0.19,-0.086,0.305,0.982,6.264,7.667,0.0008,0.021,,,No,0.9598,0.978,0.9805,No,Cruise
Environment_1,CM,2.352,0.517,0.093,0.036,2.512,-0.452,0.199,1.185,1.007,6.295,7.63,0.0366,0.0077,,,No,0.9613,0.9674,0.9875,No,Cruise
Environment_1,CM,2.411,0.517,0.151,0.069,2.492,0.055,-0.035,-1.025,0.981,6.26,7.455,0.0096,0.006,,,No,0.9512,0.9652,0.9931,No,Cruise
Environment_1,CM,2.450,0.517,0.19,0.023,2.5,0.211,0.186,0.758,1.003,6.154,7.653,0.0059,0.0155,,,No,0.961,0.9632,0.9876,No,Cruise
Environment_1,CM,2.548,0.517,0.29,-0.005,2.485,0.245,0.128,1.177,1.018,6.074,7.864,0.0356,0.058,,,No,0.9728,0.9697,0.9805,No,Cruise
Environment_1,CM,2.828,0.517,0.553,0.04,2.516,-0.105,0.198,0.309,0.941,6.127,7.777,0.0407,0.0258,,,No,0.9513,0.9839,0.9959,No,Cruise
Environment_1,CM,2.850,0.517,0.576,0.02,2.506,-0.349,-0.05,-0.344,1.016,6.324,7.896,0.0596,0.0617,,,No,0.9531,0.9684,0.9704,No,Cruise
Environment_1,CM,3.290,0.517,1.014,0.014,2.515,-0.188,0.082,0.501,0.997,6.316,7.66,0.0671,0.0297,,,No,0.9524,0.977,0.9742,No,Cruise
Environment_1,CM,3.391,0.517,1.115,0.056,2.5,-0.035,0.08,0.166,0.996,6.058,7.543,0.0161,0.0275,,,No,0.9585,0.9654,0.99,No,Cruise
Environment_1,CM,3.541,0.517,1.269,0.118,2.501,-0.435,-0.163,2.344,1.025,6.254,7.503,0.0509,0.0736,,,No,0.9672,0.9618,0.978,No,Cruise
Environment_1,CM,3.581,0.517,1.307,0.003,2.513,0.197,0.18,-0.255,0.962,6.287,7.968,0.0635,0.0476,,,No,0.9556,0.985,0.9968,No,Cruise
Environment_1,CM,3.721,0.517,1.448,0.014,2.5,-0.139,0.145,0.496,1.005,6.215,7.636,0.0542,0.0206,,,No,0.9614,0.9798,0.9841,No,Cruise
Environment_1,CM,3.728,0.517,1.455,-0.013,2.484,0.228,-0.035,0.126,0.968,6.341,7.768,0.0513,0.0477,,,No,0.9557,0.9741,0.9941,No,Cruise
Environment_1,CM,3.781,0.517,1.506,0.052,2.497,-0.313,-0.003,0.509,0.972,6.372,7.587,0.0682,0.0165,,,No,0.9565,0.9689,0.9767,No,Cruise
Environment_1,CM,3.890,0.517,1.615,0.017,2.502,-0.145,0.128,-0.112,1.002,6.307,7.722,0.0253,0.0238,,,No,0.9555,0.9738,0.9914,No,Cruise
Environment_1,CM,3.946,0.517,1.671,0.035,2.51,-0.05,0.38,0.868,0.99,6.169,7.655,0.0587,0.1021,,,No,0.9563,0.957,0.973,No,Cruise
Environment_1,CM,4.354,0.517,2.095,0.007,2.481,0.184,-0.557,-0.026,1.04,6.372,7.816,0.0421,0.041,,,No,0.9577,0.9678,0.9894,No,Cruise
Environment_1,CM,4.388,0.517,2.128,0.058,2.498,0.514,-0.027,1.308,0.964,6.186,7.472,0.0528,0.0503,,,No,0.9612,0.9644,0.9652,No,Cruise
Environment_1,CM,4.449,0.517,2.189,0.088,2.53,0.419,0.082,2.731,0.996,6.371,7.581,0.0727,0.0454,,,No,0.9645,0.9652,0.9891,No,Cruise
Environment_1,CM,4.643,0.517,2.379,0.039,2.5,0.015,0.055,1.864,0.984,6.263,7.856,0.0438,0.0306,,,No,0.9613,0.9791,0.9832,No,Cruise
Environment_1,CM,4.872,0.517,2.61,0.089,2.489,0.85,0.065,1.094,1.008,5.962,7.442,0.096,0.0677,,,No,0.9607,0.9713,1.0009,No,Cruise
Environment_1,CM,4.917,0.517,2.655,0.146,2.525,0.967,0.192,0.525,0.996,5.955,7.357,0.0937,0.0352,,,No,0.969,0.9837,0.9739,No,Cruise
Environment_1,CM,4.970,0.517,2.708,0.093,2.471,-0.322,0.247,0.987,0.996,6.189,7.477,0.0173,0.0627,,,No,0.9649,0.9633,0.9781,No,Cruise
Environment_1,CM,5.006,0.517,2.743,0.092,2.497,0.125,-0.087,1.089,0.968,5.898,7.451,0.0978,0.0726,,,No,0.9689,0.9672,0.9777,No,Cruise
Environment_1,CM,5.037,0.517,2.772,0.083,2.507,0.364,0.556,1.273,0.954,6.302,7.647,0.0506,0.0563,,,No,0.9775,0.9535,0.9783,No,Cruise
Environment_1,CM,5.286,0.517,3.02,0.115,2.505,0.754,0.047,2.056,0.994,6.013,7.343,0.1041,0.0575,,,No,0.9575,0.9619,0.9798,No,Cruise
Environment_1,CM,5.340,0.517,3.074,0.083,2.496,0.012,-0.032,2.032,1.0,6.101,7.434,0.0666,0.0057,,,No,0.9598,0.9564,0.9821,No,Cruise
Environment_1,CM,5.455,0.517,3.19,0.076,2.511,-0.027,-0.15,2.01,1.008,6.078,7.641,0.1103,0.0227,,,No,0.9611,0.9708,0.9855,No,Cruise
Environment_1,CM,5.459,0.517,3.194,0.108,2.515,0.187,0.029,2.19,1.015,6.176,7.542,0.1206,0.0761,,,No,0.9758,0.9643,0.9903,No,Cruise
Environment_1,CM,6.060,0.517,3.783,0.082,2.513,0.905,-0.09,2.116,0.981,6.002,7.485,0.1144,0.0591,,,No,0.961,0.9742,0.9986,No,Cruise
Environment_1,CM,6.143,0.517,3.868,0.08,2.488,0.491,-0.2,1.862,1.013,6.22,7.451,0.0829,0.0499,,,No,0.9694,0.9592,0.9883,No,Cruise
Environment_1,CM,6.210,0.517,3.937,0.093,2.483,0.881,-0.035,1.748,1.031,6.253,7.375,0.1553,0.1151,,,No,0.9482,0.9519,0.9795,No,Cruise
Environment_1,CM,6.419,0.517,4.149,0.14,2.485,0.948,0.148,0.912,1.016,6.017,7.407,0.1112,0.1249,,,No,0.9653,0.9667,0.9852,No,Cruise
Environment_1,CM,6.642,0.517,4.37,0.08,2.5,0.288,0.045,-0.016,0.992,6.47,7.61,0.0606,0.0443,,,No,0.9712,0.9741,0.9923,No,Cruise
Environment_1,CM,6.674,0.517,4.402,0.075,2.5,0.26,0.083,0.781,0.985,6.203,7.4,0.0234,0.0666,,,No,0.9721,0.9562,0.9736,No,Cruise
Environment_1,CM,6.875,0.517,4.6,0.109,2.505,0.328,-0.276,0.123,0.985,6.091,7.819,0.0842,0.0712,,,No,0.9631,0.9554,0.9756,No,Cruise
Environment_1,CM,6.920,0.517,4.646,0.099,2.508,0.144,-0.145,0.254,1.022,6.097,7.591,0.0898,0.1038,,,No,0.9602,0.954,0.9801,No,Cruise
Environment_1,CM,7.062,0.517,4.783,0.106,2.516,0.517,-0.307,0.097,0.968,6.197,7.387,0.0399,0.0469,,,No,0.9668,0.9577,0.9848,No,Cruise
Environment_1,CM,7.078,0.517,4.799,0.076,2.507,0.779,-0.167,1.632,0.996,6.211,7.575,0.1072,0.0447,,,No,0.9774,0.9756,0.9943,No,Cruise
Environment_1,CM,7.112,0.517,4.832,0.131,2.495,0.372,0.078,2.305,0.967,6.017,7.426,0.1195,0.0824,,,No,0.9589,0.974,0.9896,No,Cruise
Environment_1,CM,7.141,0.517,4.861,0.108,2.513,0.665,-0.104,1.466,1.008,5.996,7.306,0.0751,0.024,,,No,0.9661,0.9703,0.9856,No,Cruise
Environment_1,CM,7.144,0.517,4.864,0.113,2.516,0.646,-0.037,1.794,1.005,6.104,7.528,0.1187,0.0836,,,No,0.9658,0.9689,0.9857,No,Cruise
Environment_1,CM,7.412,0.517,5.13,0.153,2.496,0.7,-0.082,1.167,0.991,6.12,7.711,0.0687,0.0524,,,No,0.966,0.9622,0.9915,No,Cruise
Environment_1,CM,7.665,0.517,5.39,0.084,2.516,0.398,0.12,2.517,1.028,6.086,7.561,0.0997,0.0868,,,No,0.9556,0.9619,0.9862,No,Cruise
Environment_1,CM,7.689,0.517,5.414,0.052,2.488,0.148,-0.291,0.647,1.011,6.294,7.489,0.0395,0.0555,,,No,0.9615,0.9573,0.9653,No,Cruise
Environment_1,CM,7.710,0.517,5.435,0.089,2.515,0.538,0.034,1.821,0.974,6.106,7.759,0.1118,0.0582,,,No,0.9765,0.9712,0.992,No,Cruise
Environment_1,CM,7.731,0.517,5.455,0.106,2.488,0.671,-0.191,1.218,0.987,6.118,7.525,0.0878,0.1568,,,No,0.9757,0.9634,0.9746,No,Cruise
Environment_1,CM,7.763,0.517,5.487,0.102,2.492,0.855,-0.193,1.629,0.982,6.032,7.648,0.1219,0.0775,,,No,0.9549,0.9778,0.9953,No,Cruise
Environment_1,CM,8.348,0.517,6.061,0.098,2.538,0.749,0.111,3.686,0.982,6.435,7.322,0.0808,0.049,,,No,0.9584,0.969,0.9899,No,Cruise
Environment_1,CM,8.361,0.517,6.074,0.12,2.526,0.448,-0.239,1.895,0.998,5.949,7.524,0.1042,0.1047,,,No,0.9576,0.9666,0.9819,No,Cruise
Environment_1,CM,8.367,0.517,6.08,0.062,2.518,0.334,-0.052,0.929,1.038,6.095,7.619,0.0663,0.0486,,,No,0.9792,0.9746,0.9769,No,Cruise
Environment_1,CM,8.516,0.517,6.23,0.102,2.503,0.447,-0.138,1.846,1.001,6.034,7.68,0.1272,0.0805,,,No,0.9647,0.9557,0.9886,No,Cruise
Environment_1,CM,8.550,0.517,6.264,0.18,2.501,0.617,0.095,1.541,1.022,6.091,7.546,0.094,0.093,,,No,0.9663,0.962,0.9772,No,Cruise
Environment_1,CM,8.608,0.517,6.321,0.094,2.512,0.553,0.039,1.424,0.979,5.871,7.502,0.0581,0.06,,,No,0.9584,0.9534,0.9638,No,Cruise
Environment_1,CM,8.625,0.517,6.338,0.1,2.519,0.314,0.123,2.278,0.974,5.883,7.479,0.1254,0.0899,,,No,0.9706,0.9651,0.9985,No,Cruise
Environment_1,CM,8.634,0.517,6.346,0.11,2.511,0.029,0.085,0.841,0.984,6.107,7.591,0.0979,0.0359,,,No,0.9878,0.9723,0.9901,No,Cruise
Environment_1,CM,8.640,0.517,6.353,0.102,2.493,0.704,0.093,1.262,1.01,6.184,7.58,0.0827,0.0937,,,No,0.9682,0.9659,0.9977,No,Cruise
Environment_1,CM,8.727,0.517,6.441,0.118,2.507,0.402,0.188,2.17,1.018,6.19,7.638,0.1532,0.0958,,,No,0.9737,0.9542,0.986,No,Cruise
Environment_1,CM,8.995,0.517,6.711,0.072,2.487,0.051,-0.019,1.895,1.009,6.052,7.583,0.1161,0.1007,,,No,0.9848,0.9737,0.9865,No,Cruise
Environment_1,CM,9.155,0.517,6.875,0.078,2.493,0.502,0.037,1.385,1.023,5.979,7.482,0.1005,0.11,,,No,0.9778,0.9616,0.9951,No,Cruise
Environment_1,CM,9.175,0.517,6.896,0.119,2.496,1.279,-0.123,2.686,1.031,6.242,7.514,0.1198,0.0705,,,No,0.9522,0.9484,0.9829,No,Cruise
Environment_1,CM,9.205,0.517,6.926,0.115,2.519,-0.059,-0.036,0.536,0.999,6.134,7.593,0.1201,0.1148,,,No,0.9793,0.9586,0.9989,No,Cruise
Environment_1,CM,9.505,0.517,7.236,0.121,2.506,0.86,-0.119,2.15,1.035,6.15,7.1,0.1029,0.0459,,,No,0.9724,0.9596,0.9838,No,Cruise
Environment_1,CM,9.628,0.517,7.358,0.094,2.498,1.1,0.3,2.722,0.993,6.061,7.323,0.1083,0.0646,,,No,0.956,0.9641,0.9991,No,Cruise
Environment_1,CM,9.688,0.517,7.419,0.132,2.529,0.328,0.222,0.676,1.003,6.046,7.372,0.1187,0.1516,,,No,0.9582,0.9562,0.9965,No,Cruise
Environment_1,CM,9.728,0.517,7.459,0.062,2.533,0.657,0.418,1.727,1.001,6.1,7.347,0.0791,0.0912,,,No,0.9602,0.9621,0.9872,No,Cruise
Environment_1,CM,9.873,0.517,7.605,0.134,2.502,0.88,-0.329,0.051,1.008,6.086,7.457,0.066,0.0807,,,No,0.9738,0.9637,0.9853,No,Cruise
Environment_1,CM,9.877,0.517,7.609,0.095,2.516,0.697,-0.031,1.062,0.997,6.129,7.258,0.0992,0.121,,,No,0.9602,0.9592,0.9851,No,Cruise
Environment_1,CM,9.948,0.517,7.679,0.048,2.498,0.318,0.063,0.687,0.99,5.932,7.491,0.0457,0.0366,,,No,0.9615,0.966,0.9762,No,Cruise
Environment_1,CM,10.109,0.517,7.837,0.082,2.523,0.862,-0.124,0.682,0.979,6.16,7.531,0.1284,0.0979,,,No,0.9522,0.9579,0.991,No,Cruise
Environment_1,CM,10.254,0.517,7.981,0.13,2.525,0.992,-0.007,1.752,0.998,6.096,7.485,0.097,0.1339,,,No,0.9714,0.9597,0.9691,No,Cruise
Environment_1,CM,10.255,0.517,7.982,0.114,2.489,0.791,0.098,0.259,0.985,5.893,7.392,0.1118,0.0649,,,No,0.9601,0.9573,0.978,No,Cruise
Environment_1,CM,10.285,0.517,8.012,0.108,2.489,0.743,0.17,1.524,0.986,6.105,7.475,0.1157,0.0965,,,No,0.968,0.9774,0.9935,No,Cruise
Environment_1,CM,10.437,0.517,8.164,0.134,2.506,0.456,0.039,1.662,0.998,6.042,7.613,0.1441,0.1104,,,No,0.9594,0.9547,0.99,No,Cruise
Environment_1,CM,10.679,0.517,8.4,0.113,2.464,0.984,-0.053,2.631,0.976,5.987,7.312,0.1462,0.1043,,,No,0.9581,0.9599,0.9666,No,Cruise
Environment_1,CM,10.805,0.517,8.521,0.093,2.494,1.021,0.25,0.63,0.963,6.015,7.646,0.1472,0.0983,,,No,0.954,0.9533,0.9762,No,Cruise
Environment_1,CM,10.837,0.517,8.553,0.117,2.524,0.064,-0.047,1.727,0.988,6.232,7.722,0.1246,0.0905,,,No,0.9712,0.9554,0.9935,No,Cruise
Environment_1,CM,10.881,0.517,8.597,0.116,2.487,0.784,-0.226,2.476,1.003,5.971,7.316,0.142,0.1372,,,No,0.9532,0.9546,0.9908,No,Cruise
Environment_1,CM,10.905,0.517,8.621,0.123,2.489,0.945,-0.425,1.58,0.997,6.37,7.423,0.1347,0.0783,,,No,0.9592,0.9569,0.9929,No,Cruise
Environment_1,CM,11.047,0.517,8.765,0.081,2.511,0.297,0.045,1.394,1.016,6.148,7.343,0.1557,0.0735,,,No,0.9668,0.9543,0.9859,No,Cruise
Environment_1,CM,11.050,0.517,8.768,0.119,2.504,0.87,0.274,1.633,0.979,6.054,7.42,0.1,0.0922,,,No,0.9527,0.9442,0.9829,No,Cruise
Environment_1,CM,11.096,0.517,8.814,0.136,2.483,0.822,0.05,1.568,1.002,6.082,7.58,0.1039,0.0969,,,No,0.966,0.9584,0.9837,No,Cruise
Environment_1,CM,11.121,0.517,8.839,0.153,2.489,0.61,0.205,2.579,0.992,6.149,7.571,0.1203,0.0917,,,No,0.9733,0.972,0.9641,No,Cruise
Environment_1,CM,11.324,0.517,9.043,0.107,2.505,0.217,-0.069,1.864,1.003,5.932,7.493,0.1351,0.112,,,No,0.9607,0.9596,0.9955,No,Cruise
Environment_1,CM,11.342,0.517,9.06,0.115,2.502,0.968,0.18,2.528,0.984,6.201,7.497,0.1079,0.097,,,No,0.9699,0.9693,1.0081,No,Cruise
Environment_1,CM,11.492,0.517,9.215,0.134,2.518,0.727,-0.126,1.602,1.032,6.16,7.438,0.1289,0.1224,,,No,0.958,0.9679,0.9888,No,Cruise
Environment_1,CM,11.519,0.517,9.241,0.088,2.509,0.552,-0.151,0.958,0.971,6.22,7.484,0.0934,0.1277,,,No,0.9644,0.9728,0.9937,No,Cruise
Environment_1,CM,11.525,0.517,9.247,0.106,2.486,0.758,0.016,1.658,1.01,6.232,7.649,0.1078,0.1081,,,No,0.9585,0.9498,0.9796,No,Cruise
Environment_1,CM,11.606,0.517,9.328,0.157,2.49,1.063,0.324,0.153,1.001,6.098,7.357,0.1073,0.1159,,,No,0.9622,0.9559,0.9778,No,Cruise
Environment_1,CM,11.613,0.517,9.335,0.117,2.457,0.752,-0.121,1.828,0.975,6.074,7.297,0.0829,0.1045,,,No,0.9696,0.9641,0.9941,No,Cruise
Environment_1,CM,11.694,0.517,9.417,0.148,2.51,1.096,-0.038,1.331,1.007,6.159,7.667,0.1593,0.0991,,,No,0.9691,0.9474,0.9837,No,Cruise
Environment_1,CM,11.736,0.517,9.458,0.114,2.503,0.894,-0.15,1.56,0.986,6.401,7.473,0.1219,0.1469,,,No,0.9686,0.96,0.9886,No,Cruise
Environment_1,CM,11.738,0.517,9.46,0.12,2.524,0.845,0.164,1.611,0.967,6.111,7.492,0.1223,0.1087,,,No,0.9521,0.9509,0.9711,No,Cruise
Environment_1,CM,11.786,0.517,9.508,0.075,2.506,0.279,-0.126,1.728,1.0,6.08,7.471,0.0907,0.0736,,,No,0.9642,0.9515,0.9823,No,Cruise
Environment_1,CM,11.804,0.517,9.526,0.115,2.488,1.095,0.046,1.493,0.998,6.37,7.689,0.0953,0.0245,,,No,0.9563,0.9593,0.9872,No,Cruise
Environment_1,CM,11.834,0.517,9.557,0.14,2.511,0.746,-0.117,1.627,1.028,6.271,7.545,0.111,0.1135,,,No,0.9607,0.969,0.9796,No,Cruise
Environment_1,CM,11.889,0.517,9.614,0.08,2.514,0.487,0.113,2.134,1.031,6.262,7.547,0.1191,0.1134,,,No,0.956,0.9563,0.9964,No,Cruise
Environment_1,CM,11.995,0.517,9.721,0.127,2.484,0.996,-0.26,1.255,1.01,6.145,7.356,0.0983,0.0981,,,No,0.9535,0.964,0.9843,No,Cruise
Environment_1,CM,12.200,0.517,9.928,0.08,2.488,0.565,-0.033,1.974,1.011,6.257,7.359,0.1249,0.1232,,,No,0.9595,0.9544,0.9958,No,Cruise
Environment_1,CM,12.336,0.517,10.063,0.119,2.512,1.117,-0.212,0.989,0.99,6.163,7.715,0.1607,0.0685,,,No,0.9441,0.9566,0.9941,No,Cruise
Environment_1,CM,12.422,0.517,10.151,0.126,2.509,-0.066,0.414,1.757,1.023,6.269,7.439,0.1169,0.1251,,,No,0.9659,0.9602,0.9872,No,Cruise
Environment_1,CM,12.471,0.517,10.199,0.154,2.486,0.86,0.159,0.398,0.98,6.172,7.561,0.1067,0.1071,,,No,0.9576,0.9645,0.9885,No,Cruise
Environment_1,CM,12.549,0.517,10.275,0.12,2.492,0.777,-0.202,2.437,0.981,6.023,7.5,0.1289,0.0994,,,No,0.9782,0.9647,0.9952,No,Cruise
Environment_1,CM,12.589,0.517,10.315,0.121,2.506,0.805,0.164,1.803,1.006,6.012,7.405,0.1126,0.106,,,No,0.9648,0.9489,0.9901,No,Cruise
Environment_1,CM,12.666,0.517,10.394,0.084,2.501,0.474,-0.193,1.616,1.024,5.879,7.374,0.1371,0.0981,,,No,0.9675,0.9617,0.9796,No,Cruise
Environment_1,CM,12.790,0.517,10.517,0.073,2.507,0.298,-0.022,0.733,0.989,6.138,7.75,0.0835,0.034,,,No,0.9488,0.9489,0.9883,No,Cruise
Environment_1,CM,12.959,0.517,10.689,0.15,2.508,0.961,0.275,2.169,1.018,6.063,7.501,0.1615,0.1198,,,No,0.9631,0.9604,0.9814,No,Cruise
Environment_1,CM,13.056,0.517,10.787,0.147,2.516,0.583,0.012,1.845,1.011,5.968,7.413,0.1721,0.0831,,,No,0.9705,0.9575,0.9748,No,Cruise
Environment_1,CM,13.082,0.517,10.813,0.115,2.528,0.73,-0.148,1.166,1.005,5.971,7.598,0.0982,0.0982,,,No,0.9674,0.9637,0.9973,No,Cruise
Environment_1,CM,13.096,0.517,10.827,0.143,2.517,0.595,0.378,1.106,0.988,6.094,7.554,0.1382,0.0733,,,No,0.958,0.9659,0.9803,No,Cruise
Environment_1,CM,13.225,0.517,10.956,0.123,2.492,0.306,-0.225,0.705,0.999,6.143,7.341,0.0954,0.0628,,,No,0.9605,0.9524,0.9951,No,Cruise
Environment_1,CM,13.350,0.517,11.077,0.112,2.515,0.896,-0.044,0.963,0.973,6.155,7.61,0.138,0.0292,,,No,0.9564,0.9474,0.9846,No,Cruise
Environment_1,CM,13.475,0.517,11.204,0.101,2.508,0.938,-0.07,3.173,1.011,6.182,7.578,0.1172,0.0819,,,No,0.977,0.9639,0.9855,No,Cruise
Environment_1,CM,13.542,0.517,11.272,0.092,2.491,0.816,0.233,1.856,1.023,6.034,7.533,0.1395,0.1088,,,No,0.9641,0.9502,0.9833,No,Cruise
Environment_1,CM,13.671,0.517,11.398,0.141,2.519,0.313,-0.137,1.692,0.977,6.117,7.315,0.1405,0.0539,,,No,0.9644,0.9505,0.991,No,Cruise
Environment_1,CM,13.788,0.517,11.512,0.101,2.497,0.712,-0.393,1.871,0.975,6.046,7.459,0.0924,0.0209,,,No,0.9454,0.956,0.986,No,Cruise
Environment_1,CM,13.818,0.517,11.542,0.121,2.504,0.731,0.082,2.529,0.996,6.177,7.416,0.0959,0.036,,,No,0.9593,0.9483,0.9866,No,Cruise
Environment_1,CM,13.903,0.517,11.627,0.11,2.514,0.227,0.206,1.91,0.991,6.299,7.645,0.0701,0.0549,,,No,0.944,0.9634,0.9744,No,Cruise
Environment_1,CM,13.912,0.517,11.636,0.015,2.53,0.115,-0.002,1.046,1.015,6.134,7.58,0.0806,0.0993,,,No,0.9546,0.94,0.9863,No,Cruise
Environment_1,CM,14.039,0.517,11.763,0.071,2.497,0.394,-0.084,-1.843,0.999,6.401,7.738,0.0366,0.04,,,No,0.958,0.9611,0.9866,No,Cruise
Environment_1,CM,14.096,0.517,11.82,0.112,2.496,1.472,-0.01,1.944,1.003,6.058,7.503,0.098,0.1062,,,No,0.9614,0.945,0.999,No,Cruise
Environment_1,CM,14.206,0.517,11.928,0.069,2.488,0.755,0.011,2.558,0.98,6.103,7.575,0.082,0.1181,,,No,0.9552,0.9575,0.986,No,Cruise
Environment_1,CM,14.436,0.517,12.16,0.05,2.514,-0.037,-0.036,0.516,1.011,6.195,7.461,0.0723,0.0665,,,No,0.9565,0.9445,0.978,No,Cruise
Environment_1,CM,14.535,0.517,12.257,0.142,2.502,0.727,-0.276,2.27,0.979,6.138,7.375,0.0735,0.027,,,No,0.9541,0.9552,0.9878,No,Cruise
Environment_1,CM,14.605,0.517,12.324,0.107,2.488,0.531,0.2,2.079,0.958,6.104,7.494,0.1174,0.0711,,,No,0.9532,0.9508,0.9913,No,Cruise
Environment_1,CM,14.689,0.517,12.412,0.15,2.503,0.607,-0.025,2.246,1.048,6.176,7.396,0.0891,0.0606,,,No,0.9501,0.9539,0.9838,No,Cruise
Environment_1,CM,14.756,0.517,12.481,0.082,2.512,0.038,-0.178,0.759,1.024,6.195,7.604,0.0623,0.0445,,,No,0.9477,0.9587,0.9779,No,Cruise
Environment_1,CM,14.763,0.517,12.488,0.039,2.497,0.628,0.135,0.111,1.005,6.123,7.777,0.1062,0.0747,,,No,0.95,0.9595,0.9736,No,Cruise
Environment_1,CM,14.783,0.517,12.508,0.134,2.476,0.365,-0.065,2.222,0.997,6.18,7.362,0.119,0.0817,,,No,0.9591,0.9555,0.9928,No,Cruise
Environment_1,CM,14.832,0.517,12.557,0.047,2.493,0.433,0.092,0.69,0.998,6.319,7.65,0.07,0.1231,,,No,0.9539,0.9546,0.9662,No,Cruise
Environment_1,CM,14.839,0.517,12.564,0.026,2.496,-0.06,0.106,-0.364,0.999,6.615,7.83,0.0166,0.0365,,,No,0.9638,0.9582,0.9869,No,Cruise
Environment_1,CM,14.917,0.517,12.64,0.076,2.521,0.13,0.164,1.787,0.978,6.459,7.729,0.0948,0.044,,,No,0.9494,0.9466,0.9829,No,Cruise
Environment_1,CM,15.086,0.517,12.81,0.132,2.492,0.812,-0.16,0.306,1.009,5.937,7.328,0.0832,0.0248,,,No,0.9573,0.9538,0.9833,No,Cruise
Environment_1,CM,15.114,0.517,12.838,0.058,2.501,0.399,-0.411,0.979,1.002,6.147,7.314,0.0446,0.0545,,,No,0.9567,0.9524,0.9733,No,Cruise
Environment_1,CM,15.117,0.517,12.842,0.104,2.501,0.326,0.141,0.453,1.013,6.168,7.586,0.1012,0.033,,,No,0.954,0.9527,0.9807,No,Cruise
Environment_1,CM,15.245,0.517,12.967,0.049,2.508,0.773,0.025,0.306,0.984,6.388,7.88,0.0327,0.0561,,,No,0.9584,0.9607,0.9872,No,Cruise
Environment_1,CM,15.423,0.517,13.138,0.054,2.49,0.849,-0.097,0.502,0.959,6.109,7.485,0.0768,0.0885,,,No,0.9563,0.9559,0.9835,No,Cruise
Environment_1,CM,15.657,0.517,13.379,0.034,2.487,0.264,-0.131,1.555,1.027,6.116,7.658,0.0505,0.0542,,,No,0.9642,0.9515,0.9745,No,Cruise
Environment_1,CM,15.686,0.517,13.406,0.033,2.474,-0.273,0.272,-0.062,0.952,6.149,7.568,0.0415,0.0566,,,No,0.9497,0.9566,0.9631,No,Cruise
Environment_1,CM,15.829,0.517,13.548,0.077,2.521,0.174,-0.014,-0.042,0.995,6.285,7.639,0.0198,0.005,,,No,0.9461,0.9575,0.9915,No,Cruise
Environment_1,CM,15.892,0.517,13.611,0.03,2.483,-0.188,0.222,0.978,0.992,6.111,7.65,0.0679,0.0682,,,No,0.9667,0.9504,0.9666,No,Cruise
Environment_1,CM,15.953,0.517,13.671,0.076,2.511,0.335,-0.009,1.596,0.98,6.061,7.599,0.1066,0.1008,,,No,0.9632,0.961,0.997,No,Cruise
Environment_1,CM,15.977,0.517,13.695,0.092,2.515,-0.204,0.056,0.047,1.02,6.284,7.472,0.0381,0.0324,,,No,0.9378,0.9597,0.9931,No,Cruise
Environment_1,CM,16.661,0.517,14.357,0.169,2.513,0.839,0.068,-0.447,0.967,6.138,7.658,0.0766,0.0744,,,No,0.939,0.9609,0.9764,No,Cruise
Environment_1,CM,17.089,0.517,14.785,0.065,2.477,0.335,0.322,-0.205,1.0,6.34,7.73,0.0288,0.0125,,,No,0.9558,0.9591,1.001,No,Cruise
Environment_1,CM,17.104,0.517,14.799,0.096,2.484,0.804,-0.127,1.416,0.99,6.081,7.613,0.0943,0.0771,,,No,0.9402,0.9611,0.9768,No,Cruise
Environment_1,CM,17.260,0.517,14.953,0.073,2.487,0.436,0.094,1.803,0.984,6.501,7.79,0.0541,0.0579,,,No,0.9428,0.96,0.9809,No,Cruise
Environment_1,CM,17.364,0.517,15.06,0.069,2.514,0.326,-0.277,0.351,1.025,6.157,7.6,0.0296,0.0343,,,No,0.964,0.9525,0.9857,No,Cruise
Environment_1,CM,17.461,0.517,15.155,0.056,2.515,0.493,0.058,-0.309,0.983,6.301,7.614,0.0,0.0561,,,No,0.9606,0.9596,0.9949,No,Cruise
Environment_1,CM,17.565,0.517,15.259,0.104,2.482,0.25,-0.069,0.91,0.997,6.102,7.667,0.1223,0.1144,,,No,0.9475,0.9389,0.9749,No,Cruise
Environment_1,CM,17.612,0.517,15.305,0.082,2.498,0.462,0.18,0.337,0.988,6.514,7.464,0.0703,0.0973,,,No,0.9497,0.9475,0.9791,No,Cruise
Environment_1,CM,18.031,0.517,15.724,0.061,2.512,1.014,0.392,0.888,1.0,6.153,7.489,0.0767,0.0461,,,No,0.9454,0.9489,0.9808,No,Cruise
Environment_1,CM,18.045,0.517,15.738,0.075,2.484,0.685,0.198,0.404,0.982,5.658,6.876,0.0563,0.0897,,,No,0.935,0.9231,0.9338,No,Cruise
Environment_1,CM,18.063,0.517,15.755,0.069,2.501,0.659,-0.032,0.551,0.977,6.254,7.792,0.0728,0.0096,,,No,0.9617,0.9518,0.993,No,Cruise
Environment_1,CM,18.111,0.517,15.803,0.102,2.5,0.716,-0.175,0.323,0.988,6.17,7.867,0.0625,0.0681,,,No,0.9428,0.9564,0.9769,No,Cruise
Environment_1,CM,18.146,0.517,15.838,0.096,2.499,1.007,0.193,1.216,1.009,6.144,7.609,0.1566,0.1077,,,No,0.9515,0.958,0.9863,No,Cruise
Environment_1,CM,18.202,0.517,15.893,0.103,2.489,0.019,0.138,1.875,0.975,6.264,7.847,0.0958,0.0691,,,No,0.9463,0.9562,0.9851,No,Cruise
Environment_1,CM,18.216,0.517,15.907,0.065,2.485,0.1,-0.046,0.917,1.024,6.478,7.77,0.0198,0.0,,,No,0.928,0.971,0.9973,No,Cruise
Environment_1,CM,18.290,0.517,15.981,0.068,2.49,0.406,-0.425,1.51,0.997,6.394,7.662,0.0259,0.0747,,,No,0.9407,0.9575,0.9806,No,Cruise
Environment_1,CM,18.654,0.517,16.338,0.043,2.485,0.196,0.38,0.981,0.982,6.363,8.007,0.06,0.0416,,,No,0.9474,0.9509,0.9768,No,Cruise
Environment_1,CM,18.852,0.517,16.538,0.056,2.514,-0.362,0.369,0.318,1.008,6.511,7.7,0.0609,0.0127,,,No,0.9496,0.9633,0.9834,No,Cruise
Environment_1,CM,19.303,0.517,16.989,0.109,2.502,0.264,-0.266,-1.471,1.001,5.95,7.511,0.1166,0.0947,,,No,0.9395,0.9551,0.982,No,Cruise
Environment_1,CM,19.480,0.517,17.17,0.129,2.543,0.727,-0.055,1.795,1.023,5.191,6.447,0.1202,0.1152,,,No,0.9069,0.8966,0.9037,No,Cruise
Environment_1,CM,19.484,0.517,17.174,0.07,2.533,0.761,0.436,0.86,1.005,5.712,7.084,0.0334,0.0406,,,No,0.9338,0.9223,0.9561,No,Cruise
Environment_1,CM,19.668,0.517,17.361,0.194,2.495,0.953,-0.261,3.641,1.013,4.954,6.243,0.1796,0.1657,,,No,0.8992,0.8915,0.8647,No,Cruise
Environment_1,CM,19.806,0.517,17.497,0.65,2.533,3.083,0.079,9.544,0.984,3.718,4.921,0.6582,0.4919,Human,,Yes,0.8132,0.8925,0.8542,No,Avoidance
Environment_1,CM,19.863,0.517,17.552,0.69,2.519,3.592,0.14,9.014,0.975,3.457,4.911,0.6486,0.5159,Human,,Yes,0.8077,0.9038,0.7971,No,Avoidance
Environment_1,CM,19.996,0.517,17.687,0.068,2.476,0.356,-0.069,1.252,1.014,5.709,7.097,0.0246,0.0711,,,No,0.9312,0.9163,0.939,No,Cruise
Environment_1,CM,20.239,0.517,17.924,0.102,2.514,0.233,-0.091,-0.151,0.977,4.75,6.524,0.1402,0.1158,Human,,Yes,0.8509,0.8543,0.8688,No,Avoidance
Environment_1,CM,20.296,0.517,17.981,0.157,2.506,1.254,0.125,2.57,0.997,4.969,6.39,0.1428,0.1473,,,No,0.894,0.8896,0.8796,No,Cruise
Environment_1,CM,20.486,0.517,18.168,0.048,2.501,-0.011,-0.434,0.771,0.984,6.137,7.598,0.0067,0.0016,,,No,0.9443,0.934,0.9701,No,Cruise
Environment_1,CM,20.568,0.517,18.249,0.641,2.51,3.59,-0.121,8.744,0.982,3.619,5.022,0.6105,0.5125,Human,,Yes,0.8131,0.8922,0.8188,No,Avoidance
Environment_1,CM,20.620,0.517,18.301,0.684,2.458,3.717,0.306,9.284,1.0,3.494,5.124,0.654,0.534,Human,,Yes,0.8251,0.9036,0.8053,No,Avoidance
Environment_1,CM,20.707,0.517,18.388,0.042,2.491,0.333,-0.06,0.442,1.0,6.294,7.861,0.0426,0.0579,,,No,0.964,0.9538,0.9849,No,Cruise
Environment_1,CM,20.783,0.517,18.463,0.543,2.478,3.226,0.09,6.519,0.996,3.749,5.15,0.4866,0.4067,Human,,Yes,0.8531,0.8868,0.8248,No,Avoidance
Environment_1,CM,20.787,0.517,18.467,0.512,2.503,2.144,-0.023,7.641,0.995,3.862,5.326,0.4415,0.3681,Human,,Yes,0.8567,0.8878,0.8114,No,Avoidance
Environment_1,CM,20.842,0.517,18.521,0.14,2.526,0.814,-0.07,2.248,0.967,5.475,6.83,0.1183,0.0898,,,No,0.9367,0.9337,0.9427,No,Cruise
Environment_1,CM,20.847,0.517,18.526,0.096,2.485,-0.022,-0.149,0.323,0.998,6.232,7.517,0.0823,0.0101,,,No,0.9595,0.9488,0.9851,No,Cruise
Environment_1,CM,21.004,0.517,18.681,0.076,2.496,0.397,-0.078,-1.482,0.988,6.198,7.558,0.0241,0.0514,,,No,0.9426,0.9479,0.9831,No,Cruise
Environment_1,CM,21.033,0.517,18.71,0.061,2.497,0.148,-0.05,1.283,1.01,5.767,7.145,0.0738,0.0297,,,No,0.9285,0.9256,0.9635,No,Cruise
Environment_1,CM,21.072,0.517,18.75,0.646,2.535,2.679,0.179,7.88,1.017,3.678,5.09,0.6037,0.491,Human,,Yes,0.8226,0.9064,0.8351,No,Avoidance
Environment_1,CM,21.299,0.517,18.976,0.63,2.511,3.32,-0.211,8.437,0.998,3.652,5.193,0.6794,0.5054,Human,,Yes,0.8089,0.8966,0.8377,No,Avoidance
Environment_1,CM,21.345,0.517,19.021,0.197,2.521,0.845,0.146,2.051,0.965,4.948,5.943,0.2404,0.2202,,,No,0.8998,0.9104,0.8526,No,Cruise
Environment_1,CM,21.673,0.517,19.348,0.603,2.5,2.856,0.284,9.942,0.999,3.419,4.708,0.6614,0.5142,Human,,Yes,0.7937,0.8758,0.8294,No,Avoidance
Environment_1,CM,21.676,0.517,19.351,0.313,2.504,1.943,0.13,3.532,1.0,4.197,5.554,0.318,0.3311,Human,,Yes,0.8774,0.8932,0.804,No,Avoidance
Environment_1,CM,21.683,0.517,19.358,0.014,2.492,-0.177,0.129,2.421,1.03,6.336,7.609,0.0244,0.0,,,No,0.9583,0.9539,0.9901,No,Cruise
Environment_1,CM,21.917,0.517,19.596,0.518,2.496,2.864,0.212,8.026,1.017,3.551,4.961,0.5644,0.4827,Human,,Yes,0.7949,0.8718,0.8093,No,Avoidance
Environment_1,CM,22.034,0.517,19.715,0.148,2.498,0.164,-0.313,1.651,1.011,4.85,6.491,0.182,0.1056,Human,,Yes,0.8439,0.8611,0.8718,No,Avoidance
Environment_1,CM,22.085,0.517,19.766,0.13,2.526,0.815,0.106,1.096,1.007,5.449,6.516,0.1003,0.1127,,,No,0.9104,0.9232,0.9143,No,Cruise
Environment_1,CM,22.086,0.517,19.767,0.445,2.467,2.39,0.135,5.597,0.97,3.743,5.127,0.4675,0.3384,Human,,Yes,0.779,0.8634,0.814,No,Avoidance
Environment_1,CM,22.093,0.517,19.774,0.188,2.502,0.501,0.039,2.242,0.973,4.579,6.148,0.2117,0.1641,Human,,Yes,0.8276,0.8575,0.8309,No,Avoidance
Environment_1,CM,22.132,0.517,19.813,0.249,2.51,0.99,0.16,2.73,0.992,4.524,6.158,0.22,0.2467,Human,,Yes,0.8335,0.8527,0.856,No,Avoidance
Environment_1,CM,22.188,0.517,19.868,0.271,2.49,0.749,-0.017,3.779,0.988,4.837,5.794,0.3018,0.2848,,,No,0.8883,0.8937,0.8633,No,Cruise
Environment_1,CM,22.236,0.517,19.915,0.639,2.489,2.946,0.31,7.463,0.988,3.548,5.004,0.6607,0.5179,Human,,Yes,0.822,0.895,0.8203,No,Avoidance
Environment_1,CM,22.468,0.517,20.141,0.052,2.509,-0.121,0.001,1.095,0.971,6.075,7.374,0.0,0.0297,,,No,0.9263,0.9436,0.9782,No,Cruise
Environment_1,CM,22.557,0.517,20.23,0.262,2.495,1.404,-0.32,2.914,1.01,4.404,5.81,0.2749,0.2484,Human,,Yes,0.8231,0.8571,0.8242,No,Avoidance
Environment_1,CM,22.666,0.517,20.334,0.075,2.493,0.335,0.077,0.844,0.954,5.196,6.635,0.0784,0.0733,Human,,Yes,0.8805,0.8839,0.8919,No,Avoidance
Environment_1,CM,22.728,0.517,20.395,0.497,2.48,2.697,0.011,4.707,0.985,4.096,5.414,0.4588,0.2885,Human,,Yes,0.8648,0.893,0.8012,No,Avoidance
Environment_1,CM,22.878,0.517,20.548,0.068,2.479,0.622,-0.344,0.364,1.014,5.767,7.212,0.0095,0.0343,,,No,0.9205,0.9272,0.9521,No,Cruise
Environment_1,CM,22.983,0.517,20.652,0.628,2.519,3.365,-0.195,8.457,0.996,3.503,4.948,0.6461,0.4478,Human,,Yes,0.807,0.8908,0.8355,No,Avoidance
Environment_1,CM,23.279,0.517,20.947,0.377,2.511,2.528,0.293,4.783,0.996,3.833,5.277,0.3932,0.3281,Human,,Yes,0.8643,0.888,0.8253,No,Avoidance
Environment_1,CM,23.444,0.517,21.114,0.484,2.497,2.198,-0.411,6.501,1.014,3.68,5.029,0.5237,0.3978,Human,,Yes,0.7856,0.8561,0.8358,No,Avoidance
Environment_1,CM,23.445,0.517,21.115,0.382,2.51,2.08,0.304,5.138,1.0,4.435,5.773,0.418,0.301,Human,,Yes,0.8091,0.8652,0.811,No,Avoidance
Environment_1,CM,23.539,0.517,21.21,0.596,2.485,3.325,0.209,7.712,1.003,3.872,4.991,0.5271,0.4159,Human,,Yes,0.8622,0.9139,0.8035,No,Avoidance
Environment_1,CM,23.796,0.517,21.47,-0.111,2.505,0.232,-0.098,-1.001,1.015,6.169,7.347,0.0856,0.0208,,,No,0.9569,0.9592,0.9824,No,Cruise
Environment_1,CM,23.830,0.517,21.505,0.544,2.509,3.556,-0.164,7.992,1.009,3.67,5.053,0.564,0.4816,Human,,Yes,0.774,0.883,0.8414,No,Avoidance
Environment_1,CM,23.866,0.517,21.541,0.644,2.499,2.953,0.016,9.258,1.006,3.743,5.032,0.6043,0.526,Human,,Yes,0.8346,0.8932,0.8209,No,Avoidance
Environment_1,CM,24.249,0.517,21.927,0.368,2.474,1.656,-0.457,6.053,1.007,4.281,5.78,0.3735,0.2925,Human,,Yes,0.8061,0.8553,0.8376,No,Avoidance
Environment_1,CM,24.392,0.517,22.07,-0.083,2.476,0.029,-0.298,-1.057,1.005,6.091,7.543,0.0687,0.0285,,,No,0.9573,0.9654,0.9875,No,Cruise
Environment_1,CM,24.479,0.517,22.156,-0.111,2.505,-0.029,0.409,-2.469,0.989,6.171,7.49,0.0813,0.0787,,,No,0.9509,0.9495,0.9828,No,Cruise
Environment_1,CM,24.605,0.517,22.28,0.34,2.487,2.393,-0.034,3.904,0.978,4.004,5.253,0.3848,0.3428,Human,,Yes,0.8743,0.8914,0.791,No,Avoidance
Environment_1,CM,24.639,0.517,22.315,-0.07,2.49,-0.384,0.139,-1.043,1.037,6.025,7.397,0.113,0.0436,,,No,0.9414,0.9715,0.9796,No,Cruise
Environment_1,CM,24.806,0.517,22.479,0.495,2.513,3.064,-0.095,6.709,0.984,3.754,5.067,0.5454,0.4539,Human,,Yes,0.7832,0.8685,0.8343,No,Avoidance
Environment_1,CM,24.836,0.517,22.51,0.561,2.522,2.91,0.01,7.578,1.027,3.757,4.793,0.5708,0.468,Human,,Yes,0.8256,0.8989,0.8403,No,Avoidance
Environment_1,CM,24.949,0.517,22.624,0.032,2.5,0.237,-0.012,0.864,1.006,6.431,7.329,0.0362,0.0598,,,No,0.9462,0.9461,0.9793,No,Cruise
Environment_1,CM,24.997,0.517,22.673,-0.057,2.509,0.164,0.089,-1.945,1.024,5.907,7.314,0.0883,0.08,,,No,0.9521,0.9646,0.9731,No,Cruise
Environment_1,CM,25.038,0.517,22.715,0.319,2.49,1.29,-0.055,3.708,1.036,4.746,6.04,0.2872,0.2908,,,No,0.896,0.9027,0.8625,No,Cruise
Environment_1,CM,25.111,0.517,22.792,-0.065,2.485,-0.07,-0.174,-0.743,1.049,6.052,7.504,0.0883,0.0,,,No,0.9706,0.9632,0.9811,No,Cruise
Environment_1,CM,25.266,0.517,22.948,0.401,2.517,2.583,-0.295,5.284,1.01,4.27,5.455,0.4531,0.3243,Human,,Yes,0.8107,0.8785,0.8387,No,Avoidance
Environment_1,CM,25.394,0.517,23.075,0.071,2.478,-0.251,0.361,0.255,0.992,5.098,6.781,0.1135,0.0597,Human,,Yes,0.8788,0.8997,0.8895,No,Avoidance
Environment_1,CM,25.418,0.517,23.099,0.041,2.507,0.153,0.242,1.784,0.994,6.248,7.43,0.0475,0.0439,,,No,0.9545,0.9455,0.9742,No,Cruise
Environment_1,CM,25.608,0.517,23.293,0.59,2.489,3.125,-0.271,11.219,1.02,3.745,5.044,0.6098,0.4812,Human,,Yes,0.7774,0.8834,0.812,No,Avoidance
Environment_1,CM,25.617,0.517,23.302,0.015,2.473,-0.228,0.017,0.111,1.021,6.417,7.354,0.0353,0.0007,,,No,0.9626,0.9484,0.9726,No,Cruise
Environment_1,CM,25.762,0.517,23.448,-0.098,2.511,-0.024,0.137,-1.652,1.007,6.126,7.649,0.1037,0.0781,,,No,0.9439,0.9628,0.9877,No,Cruise
Environment_1,CM,25.853,0.517,23.539,0.319,2.495,1.4,-0.107,4.211,0.999,4.221,5.842,0.3328,0.2554,Human,,Yes,0.7978,0.8574,0.8296,No,Avoidance
Environment_1,CM,25.956,0.517,23.641,-0.054,2.494,-0.164,0.25,-1.281,0.985,5.87,7.228,0.1464,0.1681,,,No,0.9519,0.9632,0.9994,No,Cruise
Environment_1,CM,26.069,0.517,23.752,-0.103,2.498,0.042,-0.3,-1.691,0.985,6.308,7.56,0.1285,0.0891,,,No,0.9353,0.9741,0.9803,No,Cruise
Environment_1,CM,26.112,0.517,23.796,0.041,2.482,-0.347,-0.041,0.58,1.014,6.253,7.537,0.0342,0.0032,,,No,0.9547,0.9493,0.9751,No,Cruise
Environment_1,CM,26.186,0.517,23.868,-0.082,2.484,-0.406,-0.309,-3.184,0.983,6.179,7.507,0.148,0.1379,,,No,0.9614,0.9579,0.9973,No,Cruise
Environment_1,CM,26.436,0.517,24.113,-0.134,2.528,-0.062,0.202,-1.788,0.979,6.187,7.526,0.1025,0.088,,,No,0.9661,0.9684,0.9822,No,Cruise
Environment_1,CM,26.460,0.517,24.137,-0.108,2.496,-1.0,-0.138,-0.676,0.992,5.904,7.403,0.1089,0.1166,,,No,0.9603,0.9677,1.0121,No,Cruise
Environment_1,CM,26.495,0.517,24.172,-0.11,2.52,-0.726,0.053,-0.31,1.019,5.923,7.424,0.0931,0.0239,,,No,0.956,0.9737,0.9804,No,Cruise
Environment_1,CM,26.552,0.517,24.23,-0.134,2.488,-0.378,0.112,-0.75,1.012,6.206,7.601,0.1207,0.0766,,,No,0.9622,0.9651,0.9728,No,Cruise
Environment_1,CM,26.648,0.517,24.324,-0.113,2.499,-0.86,0.233,-2.047,0.975,5.975,7.392,0.1012,0.066,,,No,0.9599,0.9748,0.9859,No,Cruise
Environment_1,CM,26.651,0.517,24.327,-0.119,2.526,-0.586,0.044,-1.222,0.987,6.16,7.551,0.1046,0.0548,,,No,0.9505,0.9751,0.9753,No,Cruise
Environment_1,CM,26.813,0.517,24.488,0.017,2.503,-0.2,0.056,0.905,0.996,5.079,6.773,0.1002,0.0681,Human,,Yes,0.8822,0.8899,0.8912,No,Avoidance
Environment_1,CM,26.862,0.517,24.536,-0.105,2.501,-0.053,0.192,-1.287,0.988,5.899,7.337,0.0559,0.0769,,,No,0.9352,0.956,0.9633,No,Cruise
Environment_1,CM,27.021,0.517,24.694,0.426,2.484,2.005,-0.154,7.211,0.988,4.144,5.332,0.4804,0.3424,Human,,Yes,0.8088,0.8718,0.8243,No,Avoidance
Environment_1,CM,27.074,0.517,24.748,-0.069,2.51,-0.562,0.121,-1.261,1.032,6.096,7.296,0.0918,0.0602,,,No,0.9634,0.9676,0.9912,No,Cruise
Environment_1,CM,27.483,0.517,25.174,-0.056,2.491,-0.681,0.083,-1.87,1.041,5.897,7.313,0.128,0.1203,,,No,0.9461,0.9595,1.0,No,Cruise
Environment_1,CM,27.503,0.517,25.194,-0.134,2.514,-0.505,-0.086,-2.861,1.0,5.927,7.508,0.0781,0.1198,,,No,0.9671,0.9642,0.992,No,Cruise
Environment_1,CM,27.519,0.517,25.21,-0.113,2.481,-0.124,-0.044,-2.383,0.993,5.965,7.493,0.064,0.1127,,,No,0.9568,0.9695,0.9945,No,Cruise
Environment_1,CM,27.735,0.517,25.426,-0.045,2.516,-0.136,-0.232,-0.968,1.002,6.152,7.472,0.0986,0.0796,,,No,0.9616,0.9675,0.9888,No,Cruise
Environment_1,CM,27.758,0.517,25.45,-0.14,2.493,-0.689,-0.386,-2.375,1.025,6.109,7.375,0.1122,0.1302,,,No,0.9667,0.9689,0.9797,No,Cruise
Environment_1,CM,27.760,0.517,25.452,-0.139,2.513,-0.597,0.109,-1.348,1.004,5.608,7.172,0.1168,0.1054,,,No,0.9445,0.9509,0.9524,No,Cruise
Environment_1,CM,27.925,0.517,25.615,-0.08,2.519,-0.235,-0.095,-0.44,0.99,6.137,7.635,0.1076,0.0966,,,No,0.9626,0.9744,0.9851,No,Cruise
Environment_1,CM,27.996,0.517,25.688,-0.485,2.49,-1.934,0.025,-5.35,1.018,4.105,5.526,0.4047,0.3115,Palm_Trunk,,Yes,0.8676,0.8502,0.8237,No,Avoidance
Environment_1,CM,28.003,0.517,25.695,-0.068,2.517,-0.346,-0.065,-0.468,0.999,6.068,7.454,0.0899,0.1605,,,No,0.9582,0.9517,0.9867,No,Cruise
Environment_1,CM,28.017,0.517,25.709,-0.101,2.495,0.222,0.199,-2.016,0.995,6.281,7.77,0.1068,0.1276,,,No,0.9542,0.974,1.0047,No,Cruise
Environment_1,CM,28.076,0.517,25.77,-0.061,2.476,-0.718,0.417,-1.762,1.043,6.093,7.4,0.0804,0.1415,,,No,0.9537,0.9491,0.9947,No,Cruise
Environment_1,CM,28.079,0.517,25.773,-0.101,2.52,-0.677,0.054,-2.827,0.978,6.055,7.361,0.1266,0.0945,,,No,0.9613,0.9614,0.9959,No,Cruise
Environment_1,CM,28.154,0.517,25.849,-0.093,2.508,-0.268,0.133,-1.525,1.019,6.071,7.545,0.1211,0.0842,,,No,0.9659,0.971,0.9905,No,Cruise
Environment_1,CM,28.196,0.517,25.891,-0.072,2.513,-0.379,-0.297,-0.498,0.985,5.939,7.457,0.0536,0.0681,,,No,0.9272,0.9543,0.9397,No,Cruise
Environment_1,CM,28.281,0.517,25.976,-0.083,2.485,-0.232,-0.02,-1.465,1.0,6.244,7.701,0.1094,0.0604,,,No,0.9563,0.9678,0.9807,No,Cruise
Environment_1,CM,28.332,0.517,26.027,-0.135,2.522,-0.446,-0.091,-2.382,1.009,5.893,7.331,0.0961,0.1373,,,No,0.9671,0.9711,0.9814,No,Cruise
Environment_1,CM,28.355,0.517,26.05,-0.115,2.486,-0.7,0.005,-1.596,0.974,6.163,7.35,0.1282,0.0771,,,No,0.9673,0.9749,0.9922,No,Cruise
Environment_1,CM,28.379,0.517,26.074,-0.112,2.484,-0.123,-0.21,-0.666,1.023,6.067,7.489,0.1228,0.093,,,No,0.9586,0.9715,0.9897,No,Cruise
Environment_1,CM,28.426,0.517,26.119,-0.161,2.503,-0.683,-0.389,-1.451,0.955,6.047,7.605,0.113,0.1275,,,No,0.9633,0.9611,0.9919,No,Cruise
Environment_1,CM,28.440,0.517,26.133,-0.133,2.484,-0.662,-0.033,-0.733,1.009,6.006,7.471,0.0933,0.036,,,No,0.9497,0.9614,0.991,No,Cruise
Environment_1,CM,28.546,0.517,26.237,-0.151,2.495,-0.478,-0.144,-2.232,0.976,6.054,7.655,0.0878,0.0925,,,No,0.9588,0.9766,0.992,No,Cruise
Environment_1,CM,28.670,0.517,26.359,-0.259,2.508,-1.465,-0.137,-4.138,0.987,4.352,5.923,0.2731,0.2374,Palm_Trunk,,Yes,0.8876,0.8578,0.8347,No,Avoidance
Environment_1,CM,28.705,0.517,26.393,-0.082,2.528,-0.29,0.122,-1.509,0.987,6.19,7.555,0.1143,0.0777,,,No,0.9714,0.9718,1.0001,No,Cruise
Environment_1,CM,28.887,0.517,26.574,-0.118,2.513,-0.057,-0.14,-1.387,0.993,5.926,7.386,0.101,0.126,,,No,0.9542,0.9642,1.0075,No,Cruise
Environment_1,CM,28.929,0.517,26.617,-0.083,2.468,-0.806,-0.232,-1.181,1.028,5.799,7.42,0.0846,0.1168,,,No,0.9594,0.9736,0.9851,No,Cruise
Environment_1,CM,29.020,0.517,26.707,-0.146,2.468,-0.267,-0.014,-2.29,0.981,5.891,7.406,0.0946,0.061,,,No,0.9576,0.9783,0.9854,No,Cruise
Environment_1,CM,29.039,0.517,26.726,-0.485,2.481,-2.358,0.393,-6.007,0.998,4.013,5.319,0.423,0.3423,Palm_Trunk,,Yes,0.8921,0.8613,0.8001,No,Avoidance
Environment_1,CM,29.188,0.517,26.872,-0.161,2.491,-0.283,-0.012,-1.824,0.985,6.041,7.421,0.1029,0.0737,,,No,0.956,0.9611,0.9869,No,Cruise
Environment_1,CM,29.238,0.517,26.922,-0.066,2.487,-0.587,0.008,-0.987,0.989,5.821,7.11,0.0808,0.0293,Human,,Yes,0.9161,0.9363,0.929,No,Avoidance
Environment_1,CM,29.395,0.517,27.079,-0.163,2.514,-0.305,-0.368,-1.845,1.001,6.075,7.391,0.1477,0.1435,,,No,0.9664,0.9627,0.9893,No,Cruise
Environment_1,CM,29.441,0.517,27.125,-0.08,2.499,-0.753,-0.037,-0.217,0.997,6.098,7.799,0.0844,0.1024,,,No,0.96,0.9757,0.9993,No,Cruise
Environment_1,CM,29.463,0.517,27.147,-0.126,2.491,-0.493,0.155,-2.729,1.025,6.019,7.437,0.1013,0.0799,,,No,0.9602,0.9754,1.0031,No,Cruise
Environment_1,CM,29.493,0.517,27.178,-0.109,2.508,-0.463,0.06,-0.635,1.015,6.048,7.434,0.1457,0.097,,,No,0.9579,0.9636,0.988,No,Cruise
Environment_1,CM,29.566,0.517,27.249,-0.142,2.496,-0.774,-0.224,-1.115,0.978,5.912,7.307,0.1258,0.0639,,,No,0.9671,0.9669,0.9915,No,Cruise
Environment_1,CM,29.593,0.517,27.276,-0.094,2.473,-0.427,-0.031,-1.727,0.995,5.948,7.492,0.1325,0.1039,,,No,0.9627,0.9803,0.9711,No,Cruise
Environment_1,CM,29.602,0.517,27.285,-0.132,2.509,-0.843,-0.226,-1.794,0.993,5.503,6.998,0.1464,0.0794,,,No,0.9444,0.9332,0.9613,No,Cruise
Environment_1,CM,29.625,0.517,27.308,-0.114,2.489,-0.775,0.092,-1.885,1.012,6.115,7.516,0.1325,0.0713,,,No,0.9652,0.9691,0.987,No,Cruise
Environment_1,CM,29.715,0.517,27.4,-0.084,2.482,-0.168,-0.397,-1.442,1.018,6.176,7.538,0.093,0.0761,,,No,0.957,0.9744,0.9904,No,Cruise
Environment_1,CM,29.964,0.517,27.649,-0.098,2.488,-0.732,0.005,-1.295,1.0,6.069,7.475,0.1174,0.0843,,,No,0.9686,0.9704,1.0053,No,Cruise
Environment_1,CM,30.005,0.517,27.69,-0.092,2.51,-0.044,0.07,-2.077,0.993,6.215,7.518,0.1031,0.0839,,,No,0.956,0.9642,0.9935,No,Cruise
Environment_1,CM,30.047,0.517,27.733,-0.105,2.511,-0.552,0.04,-2.233,1.021,5.878,7.389,0.1325,0.061,,,No,0.9598,0.9707,0.98,No,Cruise
Environment_1,CM,30.074,0.517,27.759,-0.114,2.507,-0.554,0.049,-1.332,0.979,5.781,7.308,0.1186,0.0818,,,No,0.9302,0.9518,0.9563,No,Cruise
Environment_1,CM,30.113,0.517,27.798,-0.035,2.501,-0.986,0.164,-1.871,0.993,6.139,7.249,0.0871,0.0801,,,No,0.9631,0.965,0.9953,No,Cruise
Environment_1,CM,30.125,0.517,27.81,-0.068,2.505,-0.468,0.182,-2.163,0.999,5.78,7.562,0.0811,0.1113,,,No,0.9608,0.9765,0.9819,No,Cruise
Environment_1,CM,30.127,0.517,27.812,-0.083,2.496,-0.854,-0.237,-2.03,1.023,6.045,7.834,0.1007,0.0752,,,No,0.9676,0.9717,0.9894,No,Cruise
Environment_1,CM,30.169,0.517,27.854,-0.109,2.482,-0.935,-0.125,-2.088,0.997,5.908,7.607,0.0699,0.1065,,,No,0.9561,0.9716,0.9915,No,Cruise
Environment_1,CM,30.245,0.517,27.93,0.004,2.508,-0.112,-0.079,0.432,0.999,5.538,6.855,0.0718,0.0476,Human,,Yes,0.9067,0.9135,0.9135,No,Avoidance
Environment_1,CM,30.342,0.517,28.025,-0.483,2.501,-2.556,-0.182,-6.635,0.983,3.957,4.934,0.4791,0.3464,Palm_Trunk,,Yes,0.8832,0.8619,0.8062,No,Avoidance
Environment_1,CM,30.368,0.517,28.05,-0.122,2.483,-0.604,0.132,-1.139,0.969,5.46,7.04,0.1162,0.095,,,No,0.9331,0.9327,0.9346,No,Cruise
Environment_1,CM,30.571,0.517,28.251,-0.118,2.498,-0.776,0.341,-1.799,0.988,6.113,7.449,0.1266,0.1455,,,No,0.9758,0.9727,0.9604,No,Cruise
Environment_1,CM,31.159,0.517,28.837,-0.443,2.523,-2.248,0.074,-7.049,0.997,4.125,5.63,0.3955,0.2992,Palm_Trunk,,Yes,0.8815,0.8393,0.8332,No,Avoidance
Environment_1,CM,31.219,0.517,28.896,-0.188,2.503,-1.026,-0.185,-4.1,0.985,4.562,5.865,0.247,0.1748,Palm_Trunk,,Yes,0.8821,0.8673,0.8502,No,Avoidance
Environment_1,CM,31.297,0.517,28.975,-0.129,2.516,-0.664,0.21,-1.561,1.013,5.544,6.9,0.1636,0.0575,,,No,0.9369,0.925,0.9564,No,Cruise
Environment_1,CM,31.520,0.517,29.198,-0.381,2.498,-1.706,-0.229,-4.857,1.002,4.201,5.661,0.3623,0.2763,Palm_Trunk,,Yes,0.8739,0.8539,0.807,No,Avoidance
Environment_1,CM,31.876,0.517,29.56,-0.096,2.496,-0.954,-0.036,-1.796,1.015,6.151,7.623,0.1503,0.1112,,,No,0.9579,0.958,0.9924,No,Cruise
Environment_1,CM,31.876,0.517,29.56,-0.006,2.476,-0.015,0.095,0.412,1.002,6.406,7.657,0.0381,0.0114,,,No,0.9357,0.9655,0.9974,No,Cruise
Environment_1,CM,31.937,0.517,29.621,-0.333,2.498,-1.627,0.152,-5.663,1.007,4.277,5.737,0.323,0.3151,Palm_Trunk,,Yes,0.8868,0.8636,0.8442,No,Avoidance
Environment_1,CM,32.033,0.517,29.718,-0.087,2.507,0.219,0.242,-1.93,1.012,5.954,7.45,0.1231,0.1175,,,No,0.9658,0.9795,0.9628,No,Cruise
Environment_1,CM,32.057,0.517,29.742,-0.107,2.512,-0.31,-0.07,-2.003,0.989,5.788,7.253,0.0889,0.0807,,,No,0.9442,0.9511,0.9643,No,Cruise
Environment_1,CM,32.069,0.517,29.754,-0.075,2.472,-0.497,-0.052,-2.797,0.998,6.151,7.453,0.1,0.0533,,,No,0.9576,0.9739,0.9913,No,Cruise
Environment_1,CM,32.164,0.517,29.85,-0.545,2.507,-3.029,0.001,-7.991,1.005,3.594,4.865,0.538,0.4388,Palm_Trunk,,Yes,0.8796,0.8634,0.842,No,Avoidance
Environment_1,CM,32.173,0.517,29.858,-0.09,2.487,-0.703,0.163,-2.063,0.976,6.001,7.329,0.123,0.0733,,,No,0.9736,0.9826,0.9742,No,Cruise
Environment_1,CM,32.569,0.517,30.26,-0.513,2.5,-2.374,0.185,-6.844,1.015,4.066,5.317,0.5039,0.3686,Palm_Trunk,,Yes,0.8767,0.8663,0.8203,No,Avoidance
Environment_1,CM,32.577,0.517,30.268,-0.584,2.508,-3.249,-0.161,-8.471,0.997,3.721,5.069,0.5749,0.4597,Palm_Trunk,,Yes,0.893,0.8741,0.8184,No,Avoidance
Environment_1,CM,32.693,0.517,30.381,-0.593,2.48,-3.195,-0.073,-8.84,0.969,3.462,4.901,0.5868,0.432,Palm_Trunk,,Yes,0.8871,0.8719,0.8377,No,Avoidance
Environment_1,CM,32.821,0.517,30.51,-0.565,2.463,-2.718,0.124,-6.826,1.008,3.555,5.114,0.5578,0.4571,Palm_Trunk,,Yes,0.8376,0.8939,0.833,No,Avoidance
Environment_1,CM,32.886,0.517,30.574,-0.416,2.511,-2.103,-0.306,-5.303,0.982,4.263,5.837,0.3726,0.2715,Palm_Trunk,,Yes,0.82,0.8967,0.8308,No,Avoidance
Environment_1,CM,33.025,0.517,30.71,-0.021,2.493,0.145,0.116,-1.514,0.981,6.276,7.59,0.029,0.038,,,No,0.9488,0.9678,0.9921,No,Cruise
Environment_1,CM,33.118,0.517,30.804,-0.278,2.532,-1.59,-0.106,-2.586,1.014,4.187,5.593,0.2931,0.2704,Palm_Trunk,,Yes,0.8802,0.8483,0.8158,No,Avoidance
Environment_1,CM,33.317,0.517,31.002,0.046,2.478,-0.056,0.117,0.546,0.995,6.286,7.621,0.0289,0.0157,,,No,0.9392,0.9655,0.9667,No,Cruise
Environment_1,CM,33.338,0.517,31.023,-0.026,2.519,0.097,-0.056,-0.983,0.991,6.502,7.792,0.0294,0.0056,,,No,0.9492,0.9653,0.9885,No,Cruise
Environment_1,CM,33.453,0.517,31.138,-0.581,2.5,-3.093,-0.075,-8.519,0.997,3.642,5.169,0.5988,0.4463,Palm_Trunk,,Yes,0.8511,0.893,0.8175,No,Avoidance
Environment_1,CM,33.581,0.517,31.268,-0.494,2.497,-2.844,-0.057,-8.414,1.019,3.882,5.008,0.49,0.4129,Palm_Trunk,,Yes,0.8812,0.8695,0.8256,No,Avoidance
Environment_1,CM,33.590,0.517,31.277,-0.59,2.53,-3.005,0.071,-7.168,1.009,3.644,5.053,0.6042,0.416,Palm_Trunk,,Yes,0.8454,0.8976,0.8129,No,Avoidance
Environment_1,CM,33.680,0.517,31.366,-0.357,2.513,-1.909,0.128,-4.636,0.989,4.472,5.923,0.314,0.2087,Palm_Trunk,,Yes,0.8145,0.8974,0.8553,No,Avoidance
Environment_1,CM,34.050,0.517,31.716,-0.587,2.504,-3.236,0.001,-8.426,0.946,3.505,5.059,0.5976,0.4916,Palm_Trunk,,Yes,0.8747,0.8954,0.8396,No,Avoidance
Environment_1,CM,34.064,0.517,31.73,0.009,2.483,-0.146,-0.059,0.286,0.958,6.174,7.644,0.035,0.0028,,,No,0.948,0.968,0.974,No,Cruise
Environment_1,CM,34.352,0.517,32.015,0.009,2.515,-0.214,0.091,-0.543,0.991,6.288,7.748,0.0251,0.0149,,,No,0.9492,0.9651,0.9695,No,Cruise
Environment_1,CM,34.411,0.517,32.074,-0.087,2.495,-0.101,0.423,-0.364,1.0,5.894,7.377,0.0429,0.0506,,,No,0.9504,0.9478,0.9534,No,Cruise
Environment_1,CM,34.427,0.517,32.09,-0.239,2.503,-1.509,0.247,-2.552,1.007,5.19,6.697,0.2227,0.1233,,,No,0.9097,0.9024,0.9164,No,Cruise
Environment_1,CM,34.687,0.517,32.339,-0.33,2.501,-1.543,0.235,-3.732,0.959,4.723,6.063,0.2823,0.1909,Palm_Trunk,,Yes,0.8029,0.8962,0.8189,No,Avoidance
Environment_1,CM,34.727,0.517,32.378,-0.528,2.484,-3.109,0.021,-8.965,0.972,3.628,5.182,0.5594,0.4714,Palm_Trunk,,Yes,0.8331,0.9078,0.8219,No,Avoidance
Environment_1,CM,34.789,0.517,32.44,-0.346,2.496,-2.126,0.169,-5.45,1.002,4.371,5.918,0.3313,0.2573,Palm_Trunk,,Yes,0.8203,0.8983,0.8198,No,Avoidance
Environment_1,CM,34.820,0.517,32.472,-0.001,2.518,-0.324,-0.01,-0.174,1.021,6.329,7.796,0.0342,0.0655,,,No,0.9534,0.964,0.9848,No,Cruise
Environment_1,CM,34.877,0.517,32.53,-0.202,2.496,-0.905,0.234,-4.119,1.009,5.348,6.669,0.2364,0.1899,,,No,0.9171,0.9051,0.9305,No,Cruise
Environment_1,CM,34.907,0.517,32.56,-0.578,2.487,-3.138,-0.356,-7.89,1.004,3.622,4.919,0.6337,0.4426,Palm_Trunk,,Yes,0.8664,0.889,0.8278,No,Avoidance
Environment_1,CM,34.949,0.517,32.603,-0.247,2.489,-0.414,-0.275,-3.742,1.023,5.073,6.898,0.2385,0.1098,,,No,0.9088,0.9141,0.9213,No,Cruise
Environment_1,CM,34.975,0.517,32.628,-0.005,2.483,-0.596,-0.145,0.596,0.966,6.381,7.681,0.0519,0.044,,,No,0.9505,0.9528,0.9861,No,Cruise
Environment_1,CM,35.085,0.517,32.738,-0.191,2.51,-0.485,0.137,-1.691,1.006,5.518,6.995,0.1742,0.0427,,,No,0.9341,0.9249,0.9491,No,Cruise
Environment_1,CM,35.178,0.517,32.832,-0.527,2.503,-3.106,0.16,-8.043,1.01,3.669,5.069,0.5826,0.378,Palm_Trunk,,Yes,0.8755,0.887,0.8318,No,Avoidance
Environment_1,CM,35.228,0.517,32.882,0.093,2.527,0.275,0.069,0.448,0.987,6.237,7.566,0.034,0.0,,,No,0.9517,0.9685,0.973,No,Cruise
Environment_1,CM,35.345,0.517,33.001,0.007,2.517,0.622,0.174,-1.197,1.015,6.245,7.775,0.034,0.0319,,,No,0.9498,0.9564,0.9828,No,Cruise
Environment_1,CM,35.408,0.517,33.064,-0.083,2.533,-0.358,-0.152,-0.418,1.012,5.739,6.957,0.1365,0.1207,Palm_Trunk,,Yes,0.908,0.958,0.9222,No,Avoidance
Environment_1,CM,35.488,0.517,33.145,-0.014,2.524,-0.102,-0.123,-0.755,1.008,6.34,7.712,0.0334,0.0526,,,No,0.9371,0.9736,0.9864,No,Cruise
Environment_1,CM,35.506,0.517,33.163,-0.574,2.493,-2.441,-0.034,-8.453,0.997,3.748,5.319,0.5521,0.4195,Palm_Trunk,,Yes,0.8245,0.8986,0.8412,No,Avoidance
Environment_1,CM,35.566,0.517,33.222,-0.048,2.517,-0.225,0.047,0.076,0.992,5.945,7.342,0.0567,0.0739,,,No,0.9452,0.941,0.9468,No,Cruise
Environment_1,CM,35.597,0.517,33.254,0.026,2.509,-0.219,-0.078,-0.436,1.015,6.263,7.866,0.015,0.0499,,,No,0.9423,0.9658,0.9871,No,Cruise
Environment_1,CM,35.624,0.517,33.281,-0.051,2.515,-0.315,0.243,-1.77,1.014,5.668,6.761,0.0592,0.0543,Palm_Trunk,,Yes,0.9164,0.9296,0.93,No,Avoidance
Environment_1,CM,35.846,0.517,33.504,-0.107,2.513,-0.68,-0.027,-0.047,1.004,5.7,6.951,0.098,0.0675,Palm_Trunk,,Yes,0.9104,0.932,0.9304,No,Avoidance
Environment_1,CM,36.079,0.517,33.732,-0.058,2.476,-0.349,0.133,0.435,0.979,5.884,7.278,0.065,0.0447,Palm_Trunk,,Yes,0.9268,0.9242,0.9261,No,Avoidance
Environment_1,CM,36.204,0.517,33.857,-0.556,2.507,-3.225,0.279,-8.909,0.997,3.55,4.955,0.6261,0.4396,Palm_Trunk,,Yes,0.8575,0.9018,0.8386,No,Avoidance
Environment_1,CM,36.246,0.517,33.899,-0.564,2.489,-3.671,-0.064,-8.618,1.002,3.636,4.988,0.6347,0.4795,Palm_Trunk,,Yes,0.8657,0.9014,0.8184,No,Avoidance
Environment_1,CM,36.263,0.517,33.916,-0.18,2.486,-0.944,0.396,-4.26,1.031,4.889,6.299,0.1889,0.1768,Palm_Trunk,,Yes,0.8344,0.8982,0.8727,No,Avoidance
Environment_1,CM,36.350,0.517,34.004,-0.505,2.502,-2.337,-0.078,-8.709,1.005,3.704,5.148,0.5218,0.4623,Palm_Trunk,,Yes,0.8291,0.8971,0.8058,No,Avoidance
Environment_1,CM,36.360,0.517,34.014,-0.559,2.496,-2.629,0.238,-6.784,0.997,3.483,5.036,0.5809,0.457,Palm_Trunk,,Yes,0.8351,0.9,0.8298,No,Avoidance
Environment_1,CM,36.496,0.517,34.149,-0.068,2.503,-0.099,-0.223,-0.43,0.993,5.804,7.315,0.0816,0.0624,Palm_Trunk,,Yes,0.9183,0.9221,0.9385,No,Avoidance
Environment_1,CM,36.601,0.517,34.251,0.015,2.503,-0.047,-0.212,0.278,0.971,6.172,7.849,0.0,0.0,,,No,0.9437,0.9654,0.9815,No,Cruise
Environment_1,CM,36.606,0.517,34.256,-0.166,2.486,-0.642,0.344,-3.12,1.02,5.063,6.735,0.135,0.1486,Palm_Trunk,,Yes,0.86,0.9105,0.8982,No,Avoidance
Environment_1,CM,36.808,0.517,34.458,-0.456,2.498,-1.981,-0.188,-6.774,0.999,3.846,5.367,0.4676,0.3605,Palm_Trunk,,Yes,0.8209,0.8883,0.814,No,Avoidance
Environment_1,CM,36.914,0.517,34.563,-0.189,2.511,-1.232,0.097,-4.065,0.996,4.87,6.581,0.171,0.1835,Palm_Trunk,,Yes,0.8624,0.9152,0.8869,No,Avoidance
Environment_1,CM,36.920,0.517,34.569,-0.407,2.49,-2.169,-0.239,-6.964,0.975,3.85,5.356,0.4085,0.2967,Palm_Trunk,,Yes,0.7999,0.8842,0.8029,No,Avoidance
Environment_1,CM,37.094,0.517,34.743,0.031,2.512,0.163,-0.006,1.048,0.998,6.198,7.51,0.0304,0.0139,,,No,0.9541,0.961,0.9641,No,Cruise
Environment_1,CM,37.138,0.517,34.785,0.064,2.493,0.018,-0.002,0.518,0.952,6.248,7.6,0.0456,0.0371,,,No,0.9539,0.9738,0.9722,No,Cruise
Environment_1,CM,37.140,0.517,34.787,-0.43,2.476,-2.554,0.158,-6.35,1.022,3.767,5.318,0.4468,0.3423,Palm_Trunk,,Yes,0.812,0.893,0.8249,No,Avoidance
Environment_1,CM,37.161,0.517,34.807,-0.033,2.49,-0.45,0.064,0.727,0.965,6.387,8.023,0.0141,0.044,,,No,0.9615,0.9538,0.9796,No,Cruise
Environment_1,CM,37.200,0.517,34.845,-0.098,2.528,-0.912,0.083,-0.403,0.983,5.587,7.004,0.097,0.0867,Palm_Trunk,,Yes,0.9136,0.9462,0.9375,No,Avoidance
Environment_1,CM,37.265,0.517,34.909,0.081,2.464,0.629,-0.309,1.296,0.974,6.133,7.522,0.0801,0.101,,,No,0.9565,0.9595,0.9843,No,Cruise
Environment_1,CM,37.397,0.517,35.043,-0.003,2.495,0.199,0.122,-0.635,1.017,6.242,7.692,0.0285,0.009,,,No,0.9429,0.965,0.9748,No,Cruise
Environment_1,CM,37.461,0.517,35.108,-0.139,2.489,-0.728,0.103,-1.71,1.016,5.387,6.709,0.1476,0.1155,Palm_Trunk,,Yes,0.886,0.929,0.9372,No,Avoidance
Environment_1,CM,37.490,0.517,35.137,0.038,2.496,0.767,0.047,1.341,1.009,6.18,7.57,0.026,0.0,,,No,0.9486,0.9596,0.9912,No,Cruise
Environment_1,CM,37.582,0.517,35.228,-0.08,2.511,-0.183,0.217,-0.625,0.986,6.338,7.739,0.0386,0.1118,,,No,0.9707,0.9543,0.9846,No,Cruise
Environment_1,CM,37.608,0.517,35.254,0.045,2.488,0.131,-0.015,1.381,1.002,6.548,7.631,0.0715,0.0,,,No,0.9468,0.9569,0.9894,No,Cruise
Environment_1,CM,37.687,0.517,35.333,-0.115,2.489,-0.92,-0.163,-2.738,1.006,5.785,7.025,0.144,0.0983,Palm_Trunk,,Yes,0.9108,0.951,0.9474,No,Avoidance
Environment_1,CM,37.779,0.517,35.424,-0.018,2.506,-0.053,-0.253,0.206,0.982,6.31,7.936,0.0063,0.0221,,,No,0.9579,0.9467,0.9826,No,Cruise
Environment_1,CM,37.836,0.517,35.481,-0.085,2.484,-0.618,-0.216,-0.062,1.007,5.818,7.274,0.0509,0.0606,Palm_Trunk,,Yes,0.9148,0.9311,0.9353,No,Avoidance
Environment_1,CM,37.943,0.517,35.589,0.059,2.506,0.113,-0.132,0.458,1.004,6.074,7.584,0.0418,0.0198,,,No,0.9467,0.9661,0.9795,No,Cruise
Environment_1,CM,38.065,0.517,35.709,-0.502,2.514,-2.316,0.061,-7.576,0.984,3.819,5.212,0.48,0.3887,Palm_Trunk,,Yes,0.8263,0.8926,0.8016,No,Avoidance
Environment_1,CM,38.162,0.517,35.806,0.101,2.51,0.53,0.191,-0.739,1.002,5.874,7.375,0.0443,0.0107,,,No,0.9526,0.9635,0.9814,No,Cruise
Environment_1,CM,38.327,0.517,35.968,0.01,2.516,-0.082,0.062,0.232,0.985,6.378,7.9,0.0361,0.0445,,,No,0.952,0.9684,0.9781,No,Cruise
Environment_1,CM,38.545,0.517,36.179,0.09,2.49,-0.062,0.002,0.752,0.965,6.121,7.452,0.0182,0.0335,,,No,0.9489,0.9692,0.9686,No,Cruise
Environment_1,CM,38.612,0.517,36.245,0.047,2.523,0.299,-0.192,0.827,0.995,6.136,7.668,0.0064,0.0087,,,No,0.9488,0.9554,0.9818,No,Cruise
Environment_1,CM,38.669,0.517,36.304,-0.125,2.513,-0.404,-0.074,-0.456,1.024,6.305,7.857,0.0205,0.0618,,,No,0.9605,0.9584,0.9785,No,Cruise
Environment_1,CM,38.892,0.517,36.527,0.033,2.481,0.411,0.087,-0.095,1.001,6.2,7.895,0.0339,0.0333,,,No,0.9513,0.9608,0.9748,No,Cruise
Environment_1,CM,39.015,0.517,36.652,0.072,2.49,0.502,-0.165,0.214,1.014,6.29,7.511,0.0659,0.072,,,No,0.9496,0.9493,0.9871,No,Cruise
Environment_1,CM,39.042,0.517,36.679,-0.078,2.506,-0.267,0.167,0.07,1.013,6.416,7.782,0.0237,0.0977,,,No,0.955,0.9488,0.9852,No,Cruise
Environment_1,CM,39.333,0.517,36.967,-0.233,2.515,-1.52,0.283,-4.671,0.989,4.567,6.063,0.2545,0.2184,Palm_Trunk,,Yes,0.8079,0.8917,0.8547,No,Avoidance
Environment_1,CM,39.363,0.517,36.997,0.03,2.497,0.364,0.247,0.747,1.012,6.394,7.601,0.0389,0.0,,,No,0.9528,0.9608,0.9839,No,Cruise
Environment_1,CM,39.376,0.517,37.01,0.006,2.478,0.201,-0.012,0.959,1.009,6.133,7.679,0.0135,0.021,,,No,0.9491,0.966,0.9763,No,Cruise
Environment_1,CM,39.394,0.517,37.028,0.026,2.497,0.164,0.17,0.966,0.985,6.36,7.707,0.0234,0.0213,,,No,0.9602,0.9682,0.98,No,Cruise
Environment_1,CM,39.740,0.517,37.38,0.042,2.518,0.429,0.021,1.843,1.016,6.03,7.646,0.0552,0.0738,,,No,0.9457,0.9543,0.9824,No,Cruise
Environment_1,CM,40.148,0.517,37.783,0.065,2.493,0.449,-0.21,1.01,0.988,6.239,7.704,0.019,0.0181,,,No,0.9537,0.9535,0.9958,No,Cruise
Environment_1,CM,40.280,0.517,37.915,0.096,2.504,0.156,-0.025,1.212,1.006,6.107,7.275,0.0869,0.055,,,No,0.9641,0.9556,0.9813,No,Cruise
Environment_1,CM,40.301,0.517,37.936,0.022,2.515,-0.234,0.027,1.101,0.996,6.504,7.503,0.0458,0.0,,,No,0.9535,0.9665,0.9822,No,Cruise
Environment_1,CM,40.438,0.517,38.078,0.067,2.465,0.26,-0.293,1.161,1.032,6.202,7.61,0.034,0.0748,,,No,0.9339,0.9516,0.9883,No,Cruise
Environment_1,CM,40.455,0.517,38.094,0.069,2.51,0.436,0.034,1.121,0.948,6.051,7.748,0.0509,0.0497,,,No,0.9549,0.9596,0.9883,No,Cruise
Environment_1,CM,40.646,0.517,38.277,0.017,2.484,0.106,0.197,-0.058,0.959,6.25,7.543,0.0425,0.0,,,No,0.9535,0.9674,0.9801,No,Cruise
Environment_1,CM,40.661,0.517,38.292,0.047,2.504,0.635,-0.004,-0.853,0.983,6.272,7.678,0.0158,0.004,,,No,0.9646,0.9679,0.9889,No,Cruise
Environment_1,CM,40.663,0.517,38.294,0.051,2.514,0.346,0.01,1.371,0.983,6.021,7.488,0.0548,0.0598,,,No,0.9497,0.9505,0.9894,No,Cruise
Environment_1,CM,40.813,0.517,38.442,0.063,2.517,0.191,-0.077,0.456,0.991,6.186,7.65,0.0281,0.0118,,,No,0.958,0.9458,0.977,No,Cruise
Environment_1,CM,41.205,0.517,38.843,0.037,2.498,-0.261,0.041,1.783,1.021,6.284,7.741,0.0277,0.0125,,,No,0.9473,0.9645,0.9718,No,Cruise
Environment_1,CM,41.207,0.517,38.845,0.082,2.527,-0.458,-0.112,1.039,1.028,6.101,7.549,0.0125,0.0322,,,No,0.9484,0.9563,0.9896,No,Cruise
Environment_1,CM,41.417,0.517,39.056,0.053,2.51,0.293,-0.26,0.899,1.005,6.083,7.612,0.0575,0.0258,,,No,0.9515,0.9597,0.9784,No,Cruise
Environment_1,CM,41.694,0.517,39.344,0.065,2.501,0.599,-0.075,0.726,1.041,5.981,7.892,0.0574,0.0432,,,No,0.957,0.9545,0.99,No,Cruise
Environment_1,CM,41.721,0.517,39.37,0.055,2.495,0.201,0.011,1.15,0.975,6.383,7.8,0.0121,0.0,,,No,0.9592,0.9578,0.9869,No,Cruise
Environment_1,CM,41.911,0.517,39.566,0.055,2.524,-0.057,-0.152,0.726,1.027,6.265,7.666,0.0031,0.024,,,No,0.9531,0.9711,0.9747,No,Cruise
Environment_1,CM,41.920,0.517,39.574,0.073,2.531,0.448,-0.17,-0.697,0.975,6.045,7.748,0.0414,0.0761,,,No,0.9442,0.952,0.9964,No,Cruise
Environment_1,CM,42.139,0.517,39.791,0.08,2.488,-0.201,-0.088,-0.08,0.99,5.983,7.488,0.0765,0.0443,,,No,0.9652,0.9593,0.9915,No,Cruise
Environment_1,CM,42.155,0.517,39.807,0.066,2.511,-0.344,0.584,0.019,0.964,6.511,7.641,0.0244,0.0089,,,No,0.9581,0.9627,0.9814,No,Cruise
Environment_1,CM,42.156,0.517,39.808,0.094,2.49,0.094,0.039,0.879,1.01,6.356,7.655,0.0664,0.0261,,,No,0.9545,0.9674,0.9845,No,Cruise
Environment_1,CM,42.212,0.517,39.863,0.031,2.479,0.413,0.118,0.584,0.983,6.337,7.56,0.0322,0.0094,,,No,0.9612,0.9667,0.9891,No,Cruise
Environment_1,CM,42.217,0.517,39.868,0.031,2.483,-0.213,-0.176,0.62,1.0,6.373,7.707,0.0,0.064,,,No,0.9575,0.9769,0.9847,No,Cruise
Environment_1,CM,42.270,0.517,39.921,0.063,2.525,0.241,0.101,1.74,1.0,6.029,7.459,0.0574,0.0387,,,No,0.9539,0.9546,0.9867,No,Cruise
Environment_1,CM,42.312,0.517,39.964,0.04,2.511,0.022,0.215,0.408,1.021,6.209,7.677,0.059,0.0486,,,No,0.9442,0.957,0.9723,No,Cruise
Environment_1,CM,42.488,0.517,40.14,0.054,2.506,0.111,-0.208,0.672,1.004,6.054,7.191,0.071,0.0691,,,No,0.9476,0.9579,0.9792,No,Cruise
Environment_1,CM,42.682,0.517,40.336,0.051,2.477,0.041,-0.002,1.422,1.008,6.002,7.607,0.0638,0.0221,,,No,0.9423,0.9508,0.9826,No,Cruise
Environment_1,CM,42.770,0.517,40.426,0.06,2.486,-0.223,-0.093,0.205,1.029,6.172,7.506,0.0294,0.0,,,No,0.9456,0.9798,0.9772,No,Cruise
Environment_1,CM,42.910,0.517,40.568,0.024,2.492,0.703,-0.059,-0.33,1.009,6.308,7.501,0.047,0.0215,,,No,0.9509,0.9482,0.9817,No,Cruise
Environment_1,CM,43.154,0.517,40.81,0.038,2.518,-0.187,-0.459,0.802,0.994,6.144,7.485,0.0545,0.0407,,,No,0.9487,0.9632,0.9864,No,Cruise
Environment_1,CM,43.237,0.517,40.894,0.085,2.51,0.065,-0.221,1.302,1.005,6.033,7.733,0.0353,0.0084,,,No,0.9472,0.9792,0.9819,No,Cruise
Environment_1,CM,43.271,0.517,40.928,0.107,2.497,0.34,-0.066,0.934,1.004,6.104,7.69,0.073,0.049,,,No,0.95,0.9662,0.9694,No,Cruise
Environment_1,CM,43.314,0.517,40.97,0.053,2.488,0.325,-0.144,1.066,0.992,6.226,7.379,0.095,0.0691,,,No,0.9499,0.9544,0.9848,No,Cruise
Environment_1,CM,43.527,0.517,41.186,0.041,2.514,-0.097,0.125,1.268,1.012,6.073,7.286,0.0895,0.0206,,,No,0.9486,0.9656,0.9775,No,Cruise
Environment_1,CM,43.754,0.517,41.41,0.072,2.491,-0.175,0.225,1.209,0.989,6.097,7.257,0.0971,0.0886,,,No,0.9583,0.9498,0.977,No,Cruise
Environment_1,CM,43.785,0.517,41.442,0.099,2.508,1.251,0.206,1.421,1.009,6.005,7.44,0.1473,0.0762,,,No,0.9439,0.9618,0.9725,No,Cruise
Environment_1,CM,44.268,0.517,41.91,0.146,2.501,0.691,0.292,-0.108,0.97,6.213,7.402,0.0874,0.1035,,,No,0.9459,0.9602,0.9897,No,Cruise
Environment_1,CM,44.677,0.517,42.326,0.09,2.489,0.081,-0.011,-0.032,1.017,6.048,7.376,0.0635,0.0062,,,No,0.9536,0.969,0.9919,No,Cruise
Environment_1,CM,44.811,0.517,42.461,0.131,2.514,0.448,0.106,0.403,1.008,5.988,7.224,0.1043,0.0801,,,No,0.9346,0.9565,0.9784,No,Cruise
Environment_1,CM,44.836,0.517,42.487,0.083,2.485,0.626,0.317,1.005,1.02,6.22,7.343,0.0948,0.1203,,,No,0.9457,0.9552,0.9804,No,Cruise
Environment_1,CM,45.038,0.517,42.69,0.048,2.502,0.558,0.08,0.759,1.004,6.106,7.422,0.0646,0.0537,,,No,0.9332,0.9551,0.9943,No,Cruise
Environment_1,CM,45.076,0.517,42.729,0.128,2.523,0.627,-0.093,1.841,1.027,6.02,7.429,0.107,0.1206,,,No,0.9535,0.9548,0.9763,No,Cruise
Environment_1,CM,45.317,0.517,42.976,0.102,2.525,0.821,0.172,1.813,1.027,6.061,7.372,0.1012,0.0868,,,No,0.9474,0.9546,0.9838,No,Cruise
Environment_1,CM,45.489,0.517,43.148,0.168,2.48,0.817,0.212,1.811,1.001,6.087,7.45,0.1386,0.0605,,,No,0.9535,0.946,0.9799,No,Cruise
