Environment,Lighting,Timestamp_s,Wind_mps,Pos_X_m,Pos_Y_m,Altitude_m,Roll_deg,Pitch_deg,Yaw_deg,Velocity_mps,Depth_Min_m,Depth_Mean_m,Lateral_Error_m,Corridor_Center_Error_m,Obstacle_Type,Obstacle_Distance_m,AGSS_Activated,CAMR_Confidence,SACR_Score,Path_Clear_Probability,Collision,Mission_State
Environment_1,CM,0.0,0.517,2.096,0.011,2.497,-0.327,-0.038,-1.641,0.993,6.144,7.556,0.0488,0.0206,,,No,0.9595,0.9716,0.989,No,Cruise
Environment_1,CM,0.98,0.517,0.079,0.031,2.498,-0.04,0.163,-0.852,1.005,6.179,7.711,0.0184,0.0,,,No,0.9558,0.9769,0.996,No,Cruise
Environment_1,CM,0.926,0.517,0.695,0.018,2.496,-0.026,-0.133,-1.175,0.995,6.23,7.65,0.0043,0.0089,,,No,0.9545,0.9795,0.9961,No,Cruise
Environment_1,CM,2.718,0.517,2.182,0.031,2.49,-0.559,-0.221,-0.398,1.013,6.422,7.622,0.0,0.0154,,,No,0.948,0.9669,1.0023,No,Cruise
Environment_1,CM,2.521,0.517,3.173,0.019,2.515,-0.15,0.158,0.487,0.941,6.369,7.57,0.0235,0.0644,,,No,0.9496,0.9669,0.9956,No,Cruise
Environment_1,CM,0.0,0.517,2.716,0.022,2.495,0.027,0.141,0.605,1.004,6.41,7.565,0.0417,0.0282,,,No,0.9633,0.9622,0.9812,No,Cruise
Environment_1,CM,0.0,0.517,0.596,0.003,2.48,-0.088,-0.546,-0.35,1.034,6.39,7.639,0.0,0.0,,,No,0.9627,0.9587,0.982,No,Cruise
Environment_1,CM,0.342,0.517,2.567,0.001,2.51,0.203,0.115,0.651,0.985,6.43,7.59,0.0,0.0088,,,No,0.9592,0.9569,0.9862,No,Cruise
Environment_1,CM,0.074,0.517,5.277,0.019,2.511,-0.49,0.169,1.236,1.004,6.229,7.574,0.0107,0.0148,,,No,0.9561,0.9629,0.9884,No,Cruise
Environment_1,CM,1.842,0.517,4.499,0.016,2.504,-0.088,-0.038,0.926,0.986,6.26,7.568,0.0439,0.0267,,,No,0.9629,0.9616,0.993,No,Cruise
Environment_1,CM,1.842,0.517,4.537,0.003,2.489,0.059,-0.144,0.329,0.973,6.102,7.48,0.0,0.0,,,No,0.9652,0.9599,0.9917,No,Cruise
Environment_1,CM,0.313,0.517,0.772,0.011,2.519,0.081,0.129,0.244,0.956,6.091,7.627,0.0039,0.0094,,,No,0.9676,0.9733,0.9912,No,Cruise
Environment_1,CM,1.397,0.517,-1.039,0.05,2.501,0.274,-0.23,1.653,1.027,6.015,7.604,0.0369,0.0186,,,No,0.9656,0.9717,0.9811,No,Cruise
Environment_1,CM,0.0,0.517,-0.936,0.026,2.487,0.404,0.093,1.728,1.014,5.957,7.699,0.0634,0.0135,,,No,0.9721,0.9672,0.9903,No,Cruise
Environment_1,CM,0.0,0.517,0.532,0.061,2.487,0.485,0.096,0.303,0.97,6.068,7.51,0.0374,0.0,,,No,0.9608,0.9729,0.9919,No,Cruise
Environment_1,CM,0.957,0.517,-0.229,0.008,2.481,-0.14,0.106,1.446,1.038,6.187,7.589,0.0344,0.0,,,No,0.9563,0.9667,0.9805,No,Cruise
Environment_1,CM,2.744,0.517,-0.482,-0.009,2.518,0.293,0.072,0.361,0.994,6.043,7.665,0.0384,0.0,,,No,0.9635,0.9651,0.9861,No,Cruise
Environment_1,CM,1.985,0.517,3.404,0.034,2.509,0.178,0.321,-1.557,1.0,6.024,7.572,0.0342,0.0,,,No,0.9779,0.9597,0.9715,No,Cruise
Environment_1,CM,0.906,0.517,1.396,0.028,2.509,0.381,-0.398,1.315,1.02,6.325,7.669,0.0287,0.004,,,No,0.9778,0.9546,0.9739,No,Cruise
Environment_1,CM,1.4,0.517,0.734,0.071,2.522,0.1,-0.044,0.428,0.984,6.122,7.596,0.0473,0.0,,,No,0.9747,0.9643,0.9716,No,Cruise
Environment_1,CM,0.814,0.517,5.691,0.051,2.503,-0.032,0.213,1.147,1.005,6.271,7.66,0.0478,0.0171,,,No,0.9779,0.9644,0.9781,No,Cruise
Environment_1,CM,0.0,0.517,4.287,0.013,2.501,-0.05,0.14,0.108,0.998,6.229,7.688,0.0155,0.0358,,,No,0.9654,0.9742,0.9818,No,Cruise
Environment_1,CM,0.0,0.517,3.775,-0.005,2.495,0.058,-0.019,-0.911,0.99,6.128,7.706,0.0392,0.0119,,,No,0.9597,0.9778,0.9854,No,Cruise
Environment_1,CM,0.0,0.517,3.323,0.032,2.523,0.55,0.288,0.832,0.99,6.217,7.634,0.0114,0.0589,,,No,0.9607,0.9709,0.9816,No,Cruise
Environment_1,CM,0.0,0.517,0.443,0.057,2.512,-0.061,-0.307,0.985,1.0,6.291,7.728,0.0255,0.069,,,No,0.9738,0.9624,0.9844,No,Cruise
Environment_1,CM,0.715,0.517,0.795,0.049,2.517,-0.354,0.039,1.549,0.999,6.296,7.432,0.0596,0.0383,,,No,0.9684,0.9651,0.9861,No,Cruise
Environment_1,CM,1.157,0.517,1.915,0.045,2.518,0.194,0.404,1.375,0.993,6.434,7.619,0.0671,0.0417,,,No,0.9576,0.9737,0.9761,No,Cruise
Environment_1,CM,2.254,0.517,0.793,0.021,2.506,-0.295,-0.04,-0.268,1.01,6.268,7.823,0.032,0.002,,,No,0.9569,0.9789,0.9776,No,Cruise
Environment_1,CM,2.094,0.517,0.543,0.054,2.498,-0.029,-0.028,0.912,0.966,6.196,7.776,0.0851,0.0413,,,No,0.9614,0.9811,0.9783,No,Cruise
Environment_1,CM,3.207,0.517,1.679,0.043,2.496,0.284,0.058,-0.353,0.981,6.123,7.636,0.0702,0.0,,,No,0.9641,0.9779,0.9745,No,Cruise
Environment_1,CM,0.633,0.517,0.495,0.072,2.526,0.383,0.098,2.31,0.991,6.071,7.493,0.0616,0.0318,,,No,0.9703,0.9698,0.9779,No,Cruise
Environment_1,CM,0.0,0.517,0.323,0.065,2.499,-0.462,-0.072,1.024,1.017,5.925,7.304,0.0626,0.0493,,,No,0.9724,0.969,0.9801,No,Cruise
Environment_1,CM,0.0,0.517,4.876,0.005,2.469,-0.037,0.273,0.187,0.991,6.038,7.434,0.0458,0.0679,,,No,0.9655,0.9768,0.9819,No,Cruise
Environment_1,CM,0.0,0.517,3.787,0.022,2.498,0.56,0.085,-0.59,0.974,6.154,7.481,0.0458,0.0345,,,No,0.9797,0.9641,0.982,No,Cruise
Environment_1,CM,1.269,0.517,4.084,0.056,2.488,0.185,-0.279,-0.21,0.999,6.124,7.604,0.0284,0.0446,,,No,0.9698,0.9606,0.9795,No,Cruise
Environment_1,CM,3.853,0.517,1.66,0.088,2.497,0.563,-0.011,0.258,0.956,6.017,7.197,0.0681,0.0769,,,No,0.9647,0.9724,0.9864,No,Cruise
Environment_1,CM,3.312,0.517,0.97,0.076,2.503,0.182,0.568,0.97,0.947,6.028,7.524,0.0694,0.0557,,,No,0.968,0.9592,0.9735,No,Cruise
Environment_1,CM,2.98,0.517,0.525,0.042,2.512,0.315,-0.311,-0.998,0.965,5.867,7.351,0.0323,0.0087,,,No,0.9634,0.9727,0.9811,No,Cruise
Environment_1,CM,1.444,0.517,0.433,0.091,2.505,0.291,-0.093,0.418,1.032,5.878,7.202,0.0619,0.032,,,No,0.9746,0.9716,0.9793,No,Cruise
Environment_1,CM,1.072,0.517,6.147,0.094,2.541,0.522,0.119,1.91,0.982,6.055,7.464,0.0367,0.0314,,,No,0.973,0.9726,0.98,No,Cruise
Environment_1,CM,2.36,0.517,5.219,0.078,2.514,0.752,-0.105,0.761,1.006,5.982,7.382,0.0837,0.046,,,No,0.9699,0.9611,0.9845,No,Cruise
Environment_1,CM,2.207,0.517,6.889,0.114,2.525,0.982,0.258,-0.121,0.996,5.984,7.337,0.1012,0.0321,,,No,0.9716,0.9748,0.9863,No,Cruise
Environment_1,CM,2.502,0.517,8.886,0.063,2.512,0.156,-0.109,1.528,1.01,6.188,7.587,0.103,0.0206,,,No,0.9594,0.967,0.9826,No,Cruise
Environment_1,CM,2.68,0.517,7.651,0.052,2.498,0.341,-0.006,0.947,1.0,6.007,7.278,0.0949,0.0547,,,No,0.9584,0.9645,0.9969,No,Cruise
Environment_1,CM,0.0,0.517,5.056,0.086,2.489,0.636,-0.17,1.205,1.01,6.161,7.235,0.0725,0.0583,,,No,0.9604,0.9649,0.9905,No,Cruise
Environment_1,CM,0.0,0.517,5.678,0.131,2.496,0.795,-0.081,1.223,0.991,6.071,7.408,0.0902,0.0569,,,No,0.9626,0.9767,0.9822,No,Cruise
Environment_1,CM,0.0,0.517,6.886,0.11,2.505,0.17,-0.157,0.517,1.019,6.039,7.191,0.0495,0.0376,,,No,0.9585,0.9779,0.9838,No,Cruise
Environment_1,CM,0.0,0.517,6.499,0.105,2.504,0.574,0.017,1.307,0.98,5.828,7.307,0.0559,0.0644,,,No,0.9512,0.977,0.9855,No,Cruise
Environment_1,CM,3.355,0.517,4.786,0.113,2.496,0.43,0.058,1.446,0.984,6.011,7.47,0.0507,0.0978,,,No,0.9507,0.9791,0.9926,No,Cruise
Environment_1,CM,5.369,0.517,3.842,0.127,2.52,0.262,-0.012,1.905,1.034,6.1,7.546,0.0897,0.0705,,,No,0.9663,0.9777,0.9974,No,Cruise
Environment_1,CM,7.48,0.517,5.262,0.108,2.506,0.396,-0.24,0.859,0.985,6.322,7.462,0.0775,0.0484,,,No,0.9656,0.9592,1.0029,No,Cruise
Environment_1,CM,4.189,0.517,3.812,0.092,2.526,0.709,-0.199,1.796,0.99,6.047,7.339,0.1155,0.0385,,,No,0.9651,0.9688,0.9968,No,Cruise
Environment_1,CM,5.049,0.517,4.463,0.058,2.5,0.257,-0.047,0.685,0.96,6.015,7.262,0.0962,0.0,,,No,0.9641,0.9722,0.9867,No,Cruise
Environment_1,CM,4.184,0.517,3.934,0.135,2.501,0.784,0.089,1.146,0.993,6.188,7.368,0.0997,0.0327,,,No,0.9593,0.962,0.9854,No,Cruise
Environment_1,CM,4.372,0.517,4.39,0.111,2.508,0.387,0.149,0.311,0.983,6.18,7.404,0.0585,0.0502,,,No,0.9731,0.9713,0.9849,No,Cruise
Environment_1,CM,2.009,0.517,3.196,0.089,2.512,0.532,0.054,2.101,1.011,6.117,7.245,0.0836,0.0617,,,No,0.9746,0.9606,0.9775,No,Cruise
Environment_1,CM,2.528,0.517,0.868,0.084,2.503,1.102,-0.15,1.728,0.993,6.1,7.226,0.114,0.0478,,,No,0.97,0.9686,0.9847,No,Cruise
Environment_1,CM,2.582,0.517,4.163,0.061,2.514,0.682,0.076,1.638,0.971,6.026,7.508,0.1161,0.0309,,,No,0.9647,0.9572,0.9874,No,Cruise
Environment_1,CM,3.676,0.517,7.377,0.087,2.487,0.25,-0.007,1.616,1.01,5.96,7.58,0.0842,0.0597,,,No,0.9782,0.9583,0.99,No,Cruise
Environment_1,CM,4.826,0.517,8.174,0.115,2.487,1.019,0.15,1.653,0.984,5.959,7.442,0.0678,0.0794,,,No,0.9719,0.9695,1.0015,No,Cruise
Environment_1,CM,5.156,0.517,7.835,0.116,2.518,0.432,-0.104,0.863,1.032,6.078,7.453,0.0858,0.0605,,,No,0.9671,0.9693,0.9938,No,Cruise
Environment_1,CM,5.054,0.517,5.336,0.134,2.505,0.713,-0.178,1.14,0.984,6.072,7.415,0.0889,0.0686,,,No,0.9661,0.9716,0.9902,No,Cruise
Environment_1,CM,5.493,0.517,6.533,0.164,2.501,-0.273,0.334,1.512,1.019,6.022,7.466,0.0855,0.0651,,,No,0.9688,0.968,0.9853,No,Cruise
Environment_1,CM,4.295,0.517,8.969,0.146,2.505,0.196,-0.223,1.37,0.967,5.989,7.82,0.0555,0.0658,,,No,0.9678,0.9685,0.9857,No,Cruise
Environment_1,CM,5.125,0.517,7.363,0.133,2.508,0.135,0.122,3.174,1.023,5.883,7.835,0.039,0.052,,,No,0.9642,0.9544,0.9901,No,Cruise
Environment_1,CM,4.977,0.517,8.175,0.124,2.489,0.745,-0.16,1.996,0.979,5.899,7.912,0.0422,0.0349,,,No,0.9559,0.966,0.9828,No,Cruise
Environment_1,CM,3.795,0.517,7.239,0.175,2.489,0.698,0.04,0.654,1.008,5.755,7.506,0.0846,0.071,,,No,0.9641,0.9609,0.9737,No,Cruise
Environment_1,CM,5.948,0.517,5.607,0.159,2.511,0.77,-0.115,1.195,0.981,5.672,7.455,0.0652,0.0257,,,No,0.9669,0.9654,0.9715,No,Cruise
Environment_1,CM,4.562,0.517,5.581,0.158,2.493,0.131,0.061,1.507,0.967,5.844,7.426,0.1304,0.0124,,,No,0.9518,0.9745,0.9692,No,Cruise
Environment_1,CM,6.584,0.517,4.534,0.127,2.5,0.669,0.26,1.468,0.99,5.983,7.445,0.0994,0.0298,,,No,0.9589,0.9609,0.9816,No,Cruise
Environment_1,CM,4.8,0.517,7.995,0.112,2.532,0.15,0.393,1.224,1.001,5.949,7.35,0.0897,0.0211,,,No,0.9762,0.9538,0.9821,No,Cruise
Environment_1,CM,1.376,0.517,7.843,0.108,2.495,0.191,0.002,0.893,1.025,5.97,7.564,0.1433,0.0836,,,No,0.9841,0.959,0.9877,No,Cruise
Environment_1,CM,1.521,0.517,7.255,0.116,2.504,0.845,0.138,2.136,0.981,6.007,7.496,0.1151,0.0959,,,No,0.9721,0.9702,0.9865,No,Cruise
Environment_1,CM,5.111,0.517,6.926,0.093,2.49,0.492,-0.233,2.416,0.978,5.909,7.462,0.137,0.0996,,,No,0.9715,0.9687,0.99,No,Cruise
Environment_1,CM,5.889,0.517,4.278,0.115,2.512,0.162,-0.083,0.68,0.975,6.055,7.562,0.1237,0.0953,,,No,0.9541,0.9627,0.9969,No,Cruise
Environment_1,CM,7.17,0.517,6.002,0.087,2.503,0.81,-0.163,2.468,1.007,6.015,7.432,0.1229,0.0967,,,No,0.9643,0.9623,0.9869,No,Cruise
Environment_1,CM,5.042,0.517,8.053,0.095,2.519,0.132,-0.121,0.453,0.986,6.139,7.675,0.1379,0.0232,,,No,0.9464,0.9627,0.9881,No,Cruise
Environment_1,CM,6.729,0.517,8.199,0.129,2.514,0.305,-0.089,0.143,1.001,6.016,7.648,0.1532,0.0585,,,No,0.9508,0.9734,0.9934,No,Cruise
Environment_1,CM,4.417,0.517,4.819,0.09,2.493,0.857,0.082,0.693,1.012,6.063,7.711,0.117,0.0652,,,No,0.9611,0.9726,1.0006,No,Cruise
Environment_1,CM,5.949,0.517,6.901,0.109,2.459,0.879,-0.141,1.635,0.978,6.0,7.568,0.1097,0.121,,,No,0.9659,0.9725,0.9997,No,Cruise
Environment_1,CM,6.682,0.517,7.648,0.031,2.503,0.762,-0.387,-0.228,1.01,6.11,7.541,0.1392,0.0729,,,No,0.9633,0.9674,0.9983,No,Cruise
Environment_1,CM,6.623,0.517,4.835,0.069,2.501,0.706,0.063,1.658,1.023,5.96,7.462,0.1608,0.0752,,,No,0.9543,0.9664,0.98,No,Cruise
Environment_1,CM,8.959,0.517,9.456,0.073,2.493,0.572,0.157,2.179,0.99,5.988,7.329,0.1439,0.0666,,,No,0.9648,0.9726,0.9787,No,Cruise
Environment_1,CM,5.452,0.517,7.937,0.076,2.53,0.855,-0.035,2.19,1.001,5.966,7.429,0.1407,0.1025,,,No,0.9616,0.9634,0.9922,No,Cruise
Environment_1,CM,5.716,0.517,6.949,0.098,2.489,0.663,-0.202,1.031,0.99,5.974,7.389,0.1224,0.1541,,,No,0.9508,0.9615,0.9807,No,Cruise
Environment_1,CM,3.448,0.517,7.179,0.137,2.486,1.004,0.156,1.136,1.006,6.011,7.156,0.1195,0.1143,,,No,0.9502,0.9641,0.9787,No,Cruise
Environment_1,CM,3.905,0.517,9.694,0.102,2.519,0.436,-0.037,1.875,0.998,6.118,7.524,0.0897,0.0893,,,No,0.9618,0.9616,0.9813,No,Cruise
Environment_1,CM,8.907,0.517,8.296,0.117,2.503,0.346,0.191,2.834,1.014,5.968,7.462,0.1075,0.1123,,,No,0.9637,0.952,0.9719,No,Cruise
Environment_1,CM,8.74,0.517,8.855,0.139,2.511,0.795,0.014,3.067,1.004,6.056,7.498,0.1276,0.0934,,,No,0.9546,0.9653,0.9672,No,Cruise
Environment_1,CM,7.446,0.517,6.464,0.111,2.458,1.169,-0.028,3.418,0.974,6.162,7.529,0.1096,0.0941,,,No,0.9485,0.9568,0.9607,No,Cruise
Environment_1,CM,7.143,0.517,7.62,0.112,2.49,1.036,0.216,1.102,0.958,6.14,7.729,0.0954,0.095,,,No,0.9519,0.95,0.9822,No,Cruise
Environment_1,CM,8.048,0.517,12.388,0.147,2.503,0.283,-0.214,2.271,1.019,6.013,7.409,0.1286,0.0814,,,No,0.9697,0.9588,0.9912,No,Cruise
Environment_1,CM,8.141,0.517,10.717,0.038,2.491,0.377,-0.031,2.811,0.978,6.168,7.463,0.1162,0.0797,,,No,0.9606,0.9557,0.9816,No,Cruise
Environment_1,CM,7.905,0.517,8.191,0.011,2.512,0.392,0.095,1.985,1.027,6.049,7.672,0.1445,0.1189,,,No,0.9573,0.9573,0.9735,No,Cruise
Environment_1,CM,9.44,0.517,9.611,0.074,2.49,0.52,-0.042,1.258,1.004,6.105,7.602,0.125,0.1172,,,No,0.9669,0.9533,0.9796,No,Cruise
Environment_1,CM,9.911,0.517,12.408,0.134,2.51,0.072,0.037,0.137,1.007,6.088,7.619,0.1324,0.105,,,No,0.9677,0.9618,0.9824,No,Cruise
Environment_1,CM,9.84,0.517,7.74,0.117,2.486,0.624,-0.409,0.369,0.992,6.066,7.572,0.1345,0.104,,,No,0.9614,0.959,0.9854,No,Cruise
Environment_1,CM,11.196,0.517,8.125,0.115,2.493,0.752,-0.07,2.061,1.023,5.968,7.425,0.1298,0.1065,,,No,0.9676,0.96,0.9748,No,Cruise
Environment_1,CM,10.368,0.517,7.006,0.112,2.481,0.481,-0.052,2.397,1.023,5.78,7.079,0.111,0.155,,,No,0.9664,0.9617,0.985,No,Cruise
Environment_1,CM,9.289,0.517,9.439,0.104,2.521,0.276,-0.151,1.154,0.975,5.935,7.299,0.1074,0.1275,,,No,0.9546,0.9609,0.9856,No,Cruise
Environment_1,CM,9.92,0.517,8.041,0.133,2.501,0.045,-0.129,1.814,0.996,5.931,7.556,0.1055,0.1193,,,No,0.9556,0.9643,0.9745,No,Cruise
Environment_1,CM,9.643,0.517,8.262,0.181,2.503,0.467,-0.068,1.774,0.997,6.008,7.443,0.1472,0.1765,,,No,0.9522,0.9665,0.974,No,Cruise
Environment_1,CM,7.679,0.517,5.872,0.137,2.521,0.363,0.094,2.805,0.974,5.859,7.418,0.1173,0.1235,,,No,0.9577,0.9633,0.9856,No,Cruise
Environment_1,CM,8.97,0.517,7.503,0.156,2.491,0.681,-0.253,2.625,1.004,5.941,7.279,0.0948,0.1162,,,No,0.9515,0.9624,0.9858,No,Cruise
Environment_1,CM,11.229,0.517,10.298,0.133,2.528,0.03,0.206,0.668,0.999,5.862,7.32,0.1015,0.1373,,,No,0.9472,0.9563,0.9929,No,Cruise
Environment_1,CM,10.654,0.517,11.168,0.128,2.528,0.309,-0.136,1.32,1.004,5.979,7.521,0.1024,0.0843,,,No,0.9485,0.9652,0.9872,No,Cruise
Environment_1,CM,10.17,0.517,11.234,0.151,2.496,0.985,0.063,1.181,1.0,5.88,7.271,0.1196,0.1148,,,No,0.9559,0.9564,0.999,No,Cruise
Environment_1,CM,11.53,0.517,11.998,0.094,2.484,0.395,0.22,1.62,0.961,5.945,7.182,0.0875,0.1141,,,No,0.9643,0.9593,0.9892,No,Cruise
Environment_1,CM,10.08,0.517,13.296,0.057,2.511,1.053,-0.01,-0.082,0.976,5.919,7.485,0.115,0.1021,,,No,0.9649,0.9549,0.9843,No,Cruise
Environment_1,CM,8.976,0.517,12.054,0.107,2.511,0.924,-0.224,1.298,0.985,6.133,7.657,0.0967,0.0924,,,No,0.9572,0.9616,0.9788,No,Cruise
Environment_1,CM,10.229,0.517,10.822,0.104,2.508,1.22,-0.056,1.22,1.002,6.159,7.489,0.0979,0.0817,,,No,0.975,0.9609,0.9749,No,Cruise
Environment_1,CM,9.084,0.517,12.09,0.148,2.491,1.449,0.346,0.145,0.998,5.917,7.266,0.1011,0.0516,,,No,0.9656,0.9563,0.9784,No,Cruise
Environment_1,CM,9.539,0.517,8.277,0.142,2.509,1.15,0.334,2.227,1.014,6.1,7.414,0.1033,0.0533,,,No,0.9676,0.9542,0.9713,No,Cruise
Environment_1,CM,9.428,0.517,6.984,0.068,2.516,0.585,0.405,0.492,0.987,6.041,7.383,0.0946,0.0896,,,No,0.9653,0.9634,0.9771,No,Cruise
Environment_1,CM,10.254,0.517,6.554,0.056,2.487,0.711,0.135,0.041,0.991,6.088,7.169,0.0921,0.0916,,,No,0.9539,0.9526,0.9899,No,Cruise
Environment_1,CM,11.926,0.517,9.189,0.107,2.503,0.439,0.076,1.84,0.999,6.169,7.475,0.0967,0.068,,,No,0.9581,0.9503,0.9974,No,Cruise
Environment_1,CM,13.738,0.517,7.675,0.153,2.48,0.55,0.088,1.26,1.003,6.226,7.349,0.0893,0.0994,,,No,0.9586,0.9514,1.0077,No,Cruise
Environment_1,CM,14.71,0.517,9.194,0.123,2.487,0.596,0.154,0.713,0.98,6.125,7.44,0.078,0.088,,,No,0.9704,0.9479,0.985,No,Cruise
Environment_1,CM,12.652,0.517,9.895,0.135,2.511,0.518,-0.111,1.602,1.026,6.125,7.515,0.0806,0.0634,,,No,0.9765,0.9559,0.9947,No,Cruise
Environment_1,CM,11.276,0.517,7.919,0.095,2.516,0.239,-0.002,1.671,0.99,6.131,7.255,0.1087,0.0547,,,No,0.9808,0.9488,0.9898,No,Cruise
Environment_1,CM,13.134,0.517,9.097,0.077,2.507,0.708,0.166,1.664,0.999,5.957,7.223,0.1239,0.0489,,,No,0.9822,0.9445,0.9777,No,Cruise
Environment_1,CM,10.691,0.517,11.122,0.063,2.501,0.3,-0.124,1.059,0.99,6.156,7.29,0.1084,0.0699,,,No,0.9653,0.9554,0.9751,No,Cruise
Environment_1,CM,12.432,0.517,10.97,0.075,2.515,0.57,-0.113,0.754,0.965,6.046,7.217,0.1261,0.0665,,,No,0.9591,0.9625,0.9842,No,Cruise
Environment_1,CM,12.758,0.517,8.589,0.111,2.501,0.796,0.067,1.458,0.99,6.135,7.421,0.0954,0.0797,,,No,0.9565,0.9612,0.9818,No,Cruise
Environment_1,CM,14.549,0.517,11.858,0.127,2.502,0.362,-0.269,1.128,0.971,6.039,7.462,0.1052,0.0991,,,No,0.9445,0.9715,0.9673,No,Cruise
Environment_1,CM,15.013,0.517,14.823,0.085,2.505,0.365,-0.005,0.942,1.038,6.034,7.365,0.1122,0.0641,,,No,0.9402,0.9712,0.9799,No,Cruise
Environment_1,CM,12.212,0.517,13.858,0.096,2.487,0.939,0.104,1.129,0.99,6.184,7.608,0.0848,0.0848,,,No,0.9465,0.9717,0.9916,No,Cruise
Environment_1,CM,11.905,0.517,15.779,0.097,2.503,0.73,0.366,2.043,0.968,6.135,7.415,0.0759,0.0563,,,No,0.9536,0.9643,0.9909,No,Cruise
Environment_1,CM,11.688,0.517,14.325,0.14,2.525,0.804,0.254,1.599,0.962,6.046,7.44,0.0737,0.0894,,,No,0.9511,0.9571,0.981,No,Cruise
Environment_1,CM,13.053,0.517,14.953,0.142,2.483,0.856,0.079,1.61,1.004,6.195,7.564,0.0892,0.0374,,,No,0.9597,0.9568,0.9794,No,Cruise
Environment_1,CM,14.184,0.517,13.586,0.114,2.482,1.115,-0.258,0.581,1.005,6.249,7.547,0.0865,0.0608,,,No,0.9552,0.9651,0.9744,No,Cruise
Environment_1,CM,15.564,0.517,12.893,0.075,2.49,0.304,-0.216,0.596,0.994,6.259,7.385,0.1116,0.0943,,,No,0.9566,0.9512,0.9724,No,Cruise
Environment_1,CM,14.254,0.517,13.244,0.109,2.474,0.309,-0.052,2.105,0.993,6.116,7.566,0.0909,0.1324,,,No,0.9716,0.9537,0.9734,No,Cruise
Environment_1,CM,11.486,0.517,13.203,0.08,2.494,0.819,-0.377,2.268,0.97,6.096,7.436,0.0886,0.0361,,,No,0.9463,0.9447,0.9924,No,Cruise
Environment_1,CM,13.993,0.517,9.849,0.075,2.492,0.868,-0.13,1.768,1.001,6.006,7.325,0.1094,0.0612,,,No,0.9647,0.9538,0.9887,No,Cruise
Environment_1,CM,11.6,0.517,8.923,0.072,2.5,0.382,0.14,0.408,0.997,6.082,7.377,0.1169,0.0585,,,No,0.959,0.9506,0.9825,No,Cruise
Environment_1,CM,11.388,0.517,13.767,0.085,2.521,0.181,0.168,1.316,0.962,6.244,7.495,0.0989,0.0355,,,No,0.9621,0.9532,0.9713,No,Cruise
Environment_1,CM,10.967,0.517,15.812,0.13,2.495,0.799,0.218,2.101,1.015,6.2,7.305,0.1123,0.0724,,,No,0.95,0.9574,0.989,No,Cruise
Environment_1,CM,12.05,0.517,15.116,0.087,2.531,0.368,-0.027,0.487,1.009,6.112,7.304,0.075,0.0718,,,No,0.9643,0.9555,0.9836,No,Cruise
Environment_1,CM,10.298,0.517,15.021,0.094,2.506,0.414,-0.077,0.842,0.991,6.201,7.458,0.0727,0.0511,,,No,0.9539,0.9611,0.9857,No,Cruise
Environment_1,CM,11.375,0.517,14.289,0.076,2.496,0.597,0.084,0.298,1.004,6.307,7.463,0.0763,0.0,,,No,0.9606,0.9709,0.9803,No,Cruise
Environment_1,CM,10.435,0.517,15.26,0.067,2.483,-0.072,-0.066,1.98,0.995,6.344,7.434,0.0887,0.016,,,No,0.9457,0.958,0.995,No,Cruise
Environment_1,CM,12.252,0.517,12.324,0.084,2.499,0.502,0.174,2.706,1.006,6.022,7.549,0.0898,0.0,,,No,0.9578,0.962,0.9955,No,Cruise
Environment_1,CM,12.208,0.517,12.538,0.089,2.5,-0.15,-0.235,0.256,0.997,5.828,7.492,0.0894,0.0524,,,No,0.9381,0.9647,0.9917,No,Cruise
Environment_1,CM,11.662,0.517,16.789,0.082,2.511,0.666,0.117,0.304,0.962,5.839,7.341,0.1022,0.0571,,,No,0.9428,0.9622,0.981,No,Cruise
Environment_1,CM,10.132,0.517,17.652,0.064,2.488,0.45,-0.104,0.901,0.988,6.0,7.262,0.1011,0.0565,,,No,0.9532,0.9643,0.9724,No,Cruise
Environment_1,CM,8.923,0.517,17.421,0.077,2.517,-0.052,0.213,1.334,0.995,6.069,7.316,0.0906,0.0542,,,No,0.9487,0.9566,0.9832,No,Cruise
Environment_1,CM,9.031,0.517,18.169,0.061,2.489,0.029,-0.407,0.888,0.993,6.196,7.449,0.1101,0.0655,,,No,0.954,0.956,0.987,No,Cruise
Environment_1,CM,9.551,0.517,15.862,0.073,2.494,0.42,0.193,-0.257,0.986,6.22,7.565,0.1372,0.0543,,,No,0.9512,0.9533,0.9842,No,Cruise
Environment_1,CM,11.756,0.517,16.751,0.038,2.484,0.58,0.131,0.446,0.976,6.022,7.605,0.1152,0.0355,,,No,0.9486,0.9559,0.994,No,Cruise
Environment_1,CM,12.916,0.517,17.977,0.073,2.507,-0.556,0.399,-0.451,1.0,6.016,7.462,0.0658,0.0065,,,No,0.9508,0.9644,0.98,No,Cruise
Environment_1,CM,11.489,0.517,16.606,0.093,2.479,-0.263,-0.074,0.104,0.993,6.051,7.548,0.1047,0.0158,,,No,0.9703,0.9586,0.9882,No,Cruise
Environment_1,CM,11.322,0.517,14.714,0.076,2.504,0.699,0.403,0.398,0.995,6.023,7.196,0.0856,0.0439,,,No,0.9539,0.9571,0.9879,No,Cruise
Environment_1,CM,10.642,0.517,11.322,0.099,2.478,-0.226,0.28,0.631,0.993,6.029,7.414,0.062,0.0434,,,No,0.9553,0.9499,0.9737,No,Cruise
Environment_1,CM,12.541,0.517,15.932,0.045,2.483,0.454,-0.121,1.351,1.026,6.145,7.541,0.0814,0.0305,,,No,0.9461,0.9593,0.9922,No,Cruise
Environment_1,CM,14.012,0.517,16.517,-0.022,2.498,0.302,-0.428,0.298,1.001,6.143,7.179,0.0794,0.0243,,,No,0.9411,0.9607,0.9807,No,Cruise
Environment_1,CM,15.882,0.517,15.282,0.043,2.511,0.102,-0.028,-0.214,1.01,6.304,7.435,0.1056,0.0,,,No,0.9366,0.9448,0.9773,No,Cruise
Environment_1,CM,17.78,0.517,13.782,0.031,2.486,0.795,-0.13,-0.634,0.962,6.132,7.29,0.0718,0.0075,,,No,0.9475,0.957,0.9909,No,Cruise
Environment_1,CM,15.756,0.517,15.154,0.004,2.489,0.403,0.029,-0.182,1.001,6.168,7.661,0.0648,0.0072,,,No,0.9409,0.947,0.9984,No,Cruise
Environment_1,CM,16.376,0.517,17.747,0.018,2.471,-0.375,0.17,-0.836,0.951,6.066,7.625,0.0693,0.0,,,No,0.939,0.9546,0.9902,No,Cruise
Environment_1,CM,16.581,0.517,16.106,0.032,2.511,-0.151,-0.198,0.198,1.021,6.244,7.645,0.0809,0.0,,,No,0.9458,0.9442,0.9911,No,Cruise
Environment_1,CM,15.124,0.517,17.418,0.0,2.485,0.148,0.317,0.477,0.986,6.334,7.73,0.0675,0.0148,,,No,0.9497,0.9428,0.9927,No,Cruise
Environment_1,CM,16.074,0.517,16.684,-0.007,2.498,0.656,-0.229,-0.105,0.993,6.165,7.636,0.0702,0.0261,,,No,0.9455,0.9542,0.993,No,Cruise
Environment_1,CM,13.428,0.517,16.172,0.046,2.484,0.022,0.093,0.89,0.98,6.283,7.933,0.0516,0.0,,,No,0.9348,0.956,0.9995,No,Cruise
Environment_1,CM,12.462,0.517,15.786,0.032,2.499,0.651,-0.023,1.384,0.979,6.327,7.768,0.0363,0.0,,,No,0.942,0.9549,0.9735,No,Cruise
Environment_1,CM,14.665,0.517,16.533,0.042,2.494,0.259,-0.044,1.129,0.996,6.404,7.619,0.0292,0.0091,,,No,0.9403,0.9542,0.9804,No,Cruise
Environment_1,CM,13.802,0.517,14.787,0.028,2.513,0.288,-0.279,1.011,1.018,6.376,7.423,0.0508,0.0,,,No,0.9479,0.9461,0.9859,No,Cruise
Environment_1,CM,13.445,0.517,16.749,0.037,2.509,0.742,0.054,0.827,0.982,6.33,7.867,0.0577,0.0307,,,No,0.9499,0.9543,0.9832,No,Cruise
Environment_1,CM,13.575,0.517,13.522,0.033,2.495,0.164,-0.093,-1.344,1.0,6.092,7.801,0.0619,0.0046,,,No,0.9437,0.9514,0.9881,No,Cruise
Environment_1,CM,15.771,0.517,14.389,0.011,2.495,-0.276,0.055,0.518,1.0,6.168,7.783,0.0581,0.0,,,No,0.9522,0.9527,0.9887,No,Cruise
Environment_1,CM,17.773,0.517,13.724,0.024,2.51,0.422,0.041,-0.159,0.98,5.952,7.594,0.0466,0.0,,,No,0.9544,0.9543,1.0009,No,Cruise
Environment_1,CM,14.518,0.517,12.997,0.027,2.468,0.216,0.311,0.299,0.997,6.129,7.707,0.0839,0.0198,,,No,0.9507,0.9587,0.9979,No,Cruise
Environment_1,CM,8.817,0.517,15.861,0.055,2.517,0.025,-0.031,-0.33,0.993,5.984,7.562,0.06,0.0039,,,No,0.9447,0.9517,0.983,No,Cruise
Environment_1,CM,12.376,0.517,16.469,0.012,2.481,0.205,-0.029,0.481,1.021,6.162,7.565,0.0615,0.0708,,,No,0.9434,0.97,0.9836,No,Cruise
Environment_1,CM,12.249,0.517,17.794,0.038,2.516,0.072,0.096,-0.226,1.021,6.148,7.53,0.0585,0.0,,,No,0.9436,0.9705,0.9867,No,Cruise
Environment_1,CM,11.899,0.517,18.805,0.052,2.494,0.453,-0.031,-1.347,0.99,6.115,7.374,0.0519,0.0111,,,No,0.9448,0.9539,0.9869,No,Cruise
Environment_1,CM,16.195,0.517,16.94,-0.011,2.483,-0.374,-0.012,0.036,1.013,6.339,7.683,0.0231,0.0036,,,No,0.9454,0.949,0.9863,No,Cruise
Environment_1,CM,15.159,0.517,16.651,0.021,2.47,-0.005,0.043,-0.911,1.02,6.386,7.445,0.0179,0.0,,,No,0.9504,0.9561,0.9932,No,Cruise
Environment_1,CM,16.454,0.517,17.414,0.028,2.5,0.3,-0.014,-0.388,1.0,6.463,7.4,0.019,0.0548,,,No,0.9365,0.9482,0.9874,No,Cruise
Environment_1,CM,16.806,0.517,16.226,0.036,2.506,0.4,0.277,0.653,0.989,6.288,7.532,0.0272,0.0414,,,No,0.9428,0.943,0.9762,No,Cruise
Environment_1,CM,14.44,0.517,17.032,0.017,2.494,0.203,0.141,0.892,1.026,6.3,7.688,0.0271,0.0,,,No,0.9468,0.9489,0.9803,No,Cruise
Environment_1,CM,15.074,0.517,16.234,-0.011,2.501,0.458,-0.385,0.459,0.981,6.028,7.648,0.0438,0.0,,,No,0.9376,0.93,0.9553,No,Cruise
Environment_1,CM,15.514,0.517,16.625,-0.007,2.507,0.209,0.093,-0.062,0.966,5.88,7.558,0.0403,0.0,,,No,0.9211,0.9436,0.9558,No,Cruise
Environment_1,CM,17.761,0.517,17.174,0.044,2.479,1.053,-0.283,0.211,1.012,5.705,7.366,0.0699,0.0037,,,No,0.9147,0.9274,0.9375,No,Cruise
Environment_1,CM,15.862,0.517,21.323,0.037,2.474,0.438,-0.006,1.901,1.014,5.658,7.122,0.0884,0.0266,,,No,0.9285,0.9245,0.9378,No,Cruise
Environment_1,CM,17.182,0.517,19.458,0.048,2.494,0.472,-0.031,0.909,1.009,5.616,7.272,0.1271,0.0124,,,No,0.9238,0.9296,0.9405,No,Cruise
Environment_1,CM,15.948,0.517,19.848,0.065,2.528,0.901,0.435,0.034,1.001,5.586,7.167,0.0964,0.0631,,,No,0.9329,0.9308,0.9556,No,Cruise
Environment_1,CM,12.471,0.517,20.186,0.088,2.479,0.884,0.148,-0.338,0.972,5.532,7.037,0.1173,0.0859,,,No,0.9336,0.9226,0.9279,No,Cruise
Environment_1,CM,14.871,0.517,20.71,0.076,2.526,0.935,-0.118,1.149,0.964,5.625,6.741,0.1011,0.1336,,,No,0.9328,0.927,0.9222,No,Cruise
Environment_1,CM,16.325,0.517,22.686,0.093,2.524,1.214,0.067,-0.208,1.0,5.508,6.51,0.1137,0.1766,,,No,0.9334,0.9089,0.8919,No,Cruise
Environment_1,CM,18.668,0.517,21.828,0.141,2.541,0.838,-0.055,1.853,1.02,5.292,6.377,0.1902,0.166,,,No,0.9171,0.9016,0.8806,No,Cruise
Environment_1,CM,18.437,0.517,18.982,0.174,2.504,1.343,0.181,3.024,0.997,5.144,6.098,0.1915,0.1793,,,No,0.8945,0.8934,0.8483,No,Cruise
Environment_1,CM,18.02,0.517,17.045,0.228,2.495,1.146,-0.244,3.357,1.009,4.903,6.149,0.2246,0.1645,,,No,0.8944,0.9035,0.8533,No,Cruise
Environment_1,CM,17.855,0.517,20.219,0.241,2.52,0.865,0.143,2.029,0.969,4.735,6.073,0.2552,0.1665,,,No,0.9029,0.9136,0.8528,No,Cruise
Environment_1,CM,20.075,0.517,17.819,0.286,2.489,0.765,-0.023,3.964,0.986,4.639,5.942,0.2739,0.1709,,,No,0.895,0.9044,0.8679,No,Cruise
Environment_1,CM,20.479,0.517,22.759,0.295,2.488,1.185,-0.023,4.219,1.031,4.538,6.209,0.3133,0.1709,,,No,0.9055,0.9109,0.8434,No,Cruise
Environment_1,CM,19.048,0.517,22.627,0.343,2.5,1.751,0.175,4.915,0.997,4.174,5.66,0.3529,0.2099,Human,,Yes,0.876,0.905,0.7738,No,Avoidance
Environment_1,CM,19.031,0.517,20.412,0.422,2.487,2.382,0.025,4.706,0.974,3.956,5.335,0.3955,0.2861,Human,,Yes,0.8647,0.9024,0.7786,No,Avoidance
Environment_1,CM,23.632,0.517,19.698,0.396,2.51,2.367,0.362,5.937,0.991,3.723,5.443,0.4103,0.3073,Human,,Yes,0.8581,0.9071,0.8057,No,Avoidance
Environment_1,CM,24.304,0.517,21.388,0.451,2.48,2.572,0.016,5.847,0.977,3.964,5.613,0.4721,0.3621,Human,,Yes,0.8537,0.8995,0.7655,No,Avoidance
Environment_1,CM,18.1,0.517,19.227,0.455,2.505,1.956,0.033,8.407,0.991,3.987,5.335,0.4737,0.3393,Human,,Yes,0.8596,0.8915,0.797,No,Avoidance
Environment_1,CM,18.435,0.517,20.739,0.502,2.481,3.156,0.128,6.925,0.989,3.569,5.295,0.5176,0.4055,Human,,Yes,0.8445,0.8898,0.8098,No,Avoidance
Environment_1,CM,21.079,0.517,24.085,0.563,2.484,3.254,0.257,7.605,1.0,3.57,5.198,0.5614,0.3893,Human,,Yes,0.8552,0.9093,0.8013,No,Avoidance
Environment_1,CM,18.838,0.517,20.421,0.626,2.525,2.679,0.019,7.85,1.024,3.508,4.981,0.5936,0.4153,Human,,Yes,0.8357,0.9061,0.8356,No,Avoidance
Environment_1,CM,19.914,0.517,20.83,0.631,2.501,3.046,0.064,8.241,1.002,3.655,4.983,0.6453,0.4507,Human,,Yes,0.8299,0.8977,0.8061,No,Avoidance
Environment_1,CM,15.155,0.517,19.74,0.64,2.538,2.643,0.199,7.434,1.009,3.6,4.857,0.6047,0.4337,Human,,Yes,0.834,0.9058,0.8297,No,Avoidance
Environment_1,CM,16.646,0.517,22.203,0.673,2.512,3.274,-0.093,7.803,0.977,3.671,4.977,0.6152,0.466,Human,,Yes,0.815,0.8883,0.8203,No,Avoidance
Environment_1,CM,18.846,0.517,19.827,0.632,2.522,3.367,0.2,8.942,0.969,3.664,4.888,0.6623,0.4436,Human,,Yes,0.82,0.9012,0.8091,No,Avoidance
Environment_1,CM,20.626,0.517,21.462,0.656,2.456,3.722,0.399,8.29,0.995,3.676,4.862,0.6614,0.4684,Human,,Yes,0.8145,0.9048,0.8161,No,Avoidance
Environment_1,CM,18.935,0.517,22.211,0.644,2.488,3.041,0.35,6.628,0.988,3.666,4.707,0.6561,0.4637,Human,,Yes,0.8069,0.8925,0.8081,No,Avoidance
Environment_1,CM,19.93,0.517,24.152,0.626,2.513,3.178,-0.172,7.863,0.999,3.675,4.955,0.6309,0.4558,Human,,Yes,0.7997,0.9063,0.8264,No,Avoidance
Environment_1,CM,16.787,0.517,23.836,0.632,2.521,2.947,-0.211,8.128,0.996,3.483,4.916,0.6264,0.4793,Human,,Yes,0.7926,0.9054,0.8344,No,Avoidance
Environment_1,CM,13.586,0.517,24.374,0.647,2.535,3.098,0.072,8.922,0.982,3.519,4.936,0.6343,0.4654,Human,,Yes,0.7875,0.8962,0.8697,No,Avoidance
Environment_1,CM,18.973,0.517,20.657,0.661,2.503,2.784,0.269,9.305,0.996,3.185,4.814,0.6229,0.4815,Human,,Yes,0.7781,0.8837,0.8352,No,Avoidance
Environment_1,CM,18.817,0.517,22.566,0.65,2.488,3.046,-0.266,11.355,1.012,3.53,5.158,0.6178,0.4861,Human,,Yes,0.7777,0.886,0.8167,No,Avoidance
Environment_1,CM,20.28,0.517,22.507,0.593,2.51,3.619,-0.156,8.374,1.004,3.577,4.987,0.5723,0.4597,Human,,Yes,0.7778,0.8773,0.8391,No,Avoidance
Environment_1,CM,20.044,0.517,21.115,0.558,2.496,2.868,0.22,8.062,1.017,3.569,4.959,0.6053,0.4296,Human,,Yes,0.7893,0.8723,0.81,No,Avoidance
Environment_1,CM,19.191,0.517,21.138,0.507,2.512,3.172,-0.094,6.251,0.985,3.696,5.031,0.5462,0.4206,Human,,Yes,0.7813,0.8754,0.8134,No,Avoidance
Environment_1,CM,18.507,0.517,24.21,0.506,2.498,2.407,-0.438,7.27,1.013,3.905,5.16,0.5101,0.4333,Human,,Yes,0.7762,0.8593,0.8156,No,Avoidance
Environment_1,CM,18.934,0.517,24.059,0.464,2.471,2.418,0.206,6.003,0.971,3.911,5.205,0.4686,0.3631,Human,,Yes,0.7808,0.857,0.8068,No,Avoidance
Environment_1,CM,21.387,0.517,25.491,0.433,2.487,1.761,-0.085,7.164,0.988,4.11,5.546,0.4913,0.3848,Human,,Yes,0.8064,0.8724,0.8387,No,Avoidance
Environment_1,CM,21.848,0.517,25.77,0.364,2.523,2.119,-0.217,4.539,1.007,4.28,5.561,0.4273,0.362,Human,,Yes,0.8021,0.8804,0.8542,No,Avoidance
Environment_1,CM,22.149,0.517,22.601,0.323,2.515,2.008,0.375,5.064,0.998,4.601,5.897,0.3892,0.3703,Human,,Yes,0.8012,0.8642,0.82,No,Avoidance
Environment_1,CM,22.981,0.517,22.63,0.292,2.48,1.67,-0.39,5.672,1.004,4.385,5.681,0.365,0.3505,Human,,Yes,0.8034,0.8532,0.834,No,Avoidance
Environment_1,CM,23.017,0.517,21.721,0.277,2.495,1.474,0.014,3.588,0.999,4.349,5.927,0.3516,0.3137,Human,,Yes,0.8057,0.8578,0.8244,No,Avoidance
Environment_1,CM,23.618,0.517,22.124,0.267,2.497,1.696,-0.211,3.222,1.017,4.475,5.844,0.3028,0.2859,Human,,Yes,0.8206,0.8589,0.8462,No,Avoidance
Environment_1,CM,21.83,0.517,22.347,0.199,2.513,1.142,0.242,3.127,0.996,4.424,6.058,0.252,0.2484,Human,,Yes,0.8356,0.8555,0.87,No,Avoidance
Environment_1,CM,22.441,0.517,21.426,0.179,2.502,0.723,0.133,2.255,0.972,4.614,6.165,0.2182,0.2035,Human,,Yes,0.8249,0.8606,0.8301,No,Avoidance
Environment_1,CM,18.819,0.517,19.909,0.128,2.496,0.658,-0.231,1.118,1.009,4.937,6.68,0.1884,0.146,Human,,Yes,0.8416,0.8626,0.862,No,Avoidance
Environment_1,CM,20.74,0.517,23.227,0.07,2.509,0.42,-0.053,-1.379,0.979,4.904,6.599,0.1788,0.1279,Human,,Yes,0.8515,0.8595,0.8736,No,Avoidance
Environment_1,CM,24.146,0.517,24.362,0.038,2.492,0.535,0.094,0.104,0.957,5.004,6.694,0.136,0.114,Human,,Yes,0.8701,0.8869,0.884,No,Avoidance
Environment_1,CM,23.201,0.517,20.78,-0.021,2.472,-0.184,0.357,-1.361,0.997,5.255,6.675,0.102,0.1055,Human,,Yes,0.854,0.8861,0.8934,No,Avoidance
Environment_1,CM,24.93,0.517,20.648,-0.02,2.502,-0.205,0.081,-0.045,1.0,5.309,6.622,0.0943,0.1307,Human,,Yes,0.8543,0.8815,0.8981,No,Avoidance
Environment_1,CM,22.095,0.517,18.806,-0.032,2.506,-0.068,-0.055,-0.713,1.005,5.364,6.927,0.0721,0.1106,Human,,Yes,0.8872,0.9078,0.9213,No,Avoidance
Environment_1,CM,22.771,0.517,21.499,-0.026,2.49,-0.62,0.078,-1.545,0.993,5.654,7.161,0.0781,0.0728,Human,,Yes,0.9037,0.9188,0.935,No,Avoidance
Environment_1,CM,24.179,0.517,21.436,-0.047,2.516,-0.675,-0.248,-1.425,0.984,5.87,7.372,0.0665,0.0277,,,No,0.9286,0.9433,0.9507,No,Cruise
Environment_1,CM,23.189,0.517,20.125,-0.044,2.506,-0.162,0.227,-1.269,0.989,5.84,7.26,0.0611,0.0806,,,No,0.9361,0.9367,0.9532,No,Cruise
Environment_1,CM,27.809,0.517,21.298,-0.129,2.49,-0.749,-0.022,-0.948,1.005,5.946,7.438,0.0801,0.0805,,,No,0.9462,0.9598,0.9827,No,Cruise
Environment_1,CM,23.198,0.517,20.747,-0.072,2.478,-0.249,-0.284,-1.225,1.004,6.151,7.633,0.063,0.0663,,,No,0.9496,0.9547,0.9936,No,Cruise
Environment_1,CM,25.032,0.517,18.145,-0.082,2.506,-0.3,-0.102,-0.884,1.011,6.098,7.487,0.0672,0.0537,,,No,0.9458,0.959,0.9881,No,Cruise
Environment_1,CM,19.905,0.517,19.761,-0.096,2.482,-0.268,-0.207,-1.585,1.043,6.074,7.559,0.071,0.0782,,,No,0.9591,0.9643,0.9906,No,Cruise
Environment_1,CM,22.019,0.517,23.961,-0.09,2.515,-0.958,0.039,-1.819,1.016,6.01,7.598,0.0853,0.0863,,,No,0.9453,0.9729,0.9802,No,Cruise
Environment_1,CM,20.83,0.517,23.424,-0.073,2.485,-0.686,0.114,-0.799,1.033,5.995,7.338,0.0771,0.0489,,,No,0.9363,0.9645,0.9886,No,Cruise
Environment_1,CM,23.267,0.517,22.502,-0.11,2.505,-0.235,0.1,-1.362,1.022,6.02,7.578,0.113,0.0889,,,No,0.944,0.9574,0.9873,No,Cruise
Environment_1,CM,24.059,0.517,24.148,-0.093,2.492,-0.426,-0.267,-1.65,0.986,6.263,7.933,0.1073,0.0876,,,No,0.943,0.9548,0.9813,No,Cruise
Environment_1,CM,22.552,0.517,24.176,-0.101,2.509,-0.259,0.162,-1.872,1.005,6.102,7.547,0.0772,0.1092,,,No,0.9423,0.9686,0.9783,No,Cruise
Environment_1,CM,22.446,0.517,24.511,-0.108,2.505,-0.065,0.374,-2.333,0.988,5.957,7.411,0.097,0.1321,,,No,0.9487,0.9589,0.9868,No,Cruise
Environment_1,CM,22.547,0.517,24.711,-0.093,2.513,-0.21,-0.066,-0.539,1.0,6.051,7.486,0.0932,0.1331,,,No,0.9526,0.9596,0.9871,No,Cruise
Environment_1,CM,20.462,0.517,25.8,-0.124,2.475,-0.444,0.404,-1.357,1.046,6.13,7.478,0.1097,0.1644,,,No,0.9522,0.9585,0.9922,No,Cruise
Environment_1,CM,22.854,0.517,25.913,-0.123,2.507,-0.558,0.11,-1.555,1.036,6.116,7.19,0.1161,0.1182,,,No,0.9514,0.9678,0.9898,No,Cruise
Environment_1,CM,25.19,0.517,23.327,-0.126,2.513,-0.358,-0.211,-1.673,1.003,6.172,7.319,0.0833,0.1054,,,No,0.942,0.9707,0.974,No,Cruise
Environment_1,CM,24.501,0.517,26.746,-0.134,2.513,-0.531,-0.081,-0.554,0.992,6.02,7.389,0.058,0.0578,,,No,0.9363,0.9707,0.9822,No,Cruise
Environment_1,CM,22.204,0.517,22.994,-0.143,2.52,-0.613,0.096,-1.614,0.987,5.837,7.466,0.0712,0.0887,,,No,0.9326,0.9674,0.9815,No,Cruise
Environment_1,CM,27.506,0.517,25.703,-0.151,2.483,-0.467,0.14,-0.539,1.012,5.989,7.782,0.0991,0.0845,,,No,0.9477,0.9631,0.9752,No,Cruise
Environment_1,CM,27.425,0.517,24.823,-0.147,2.481,-0.483,0.018,-0.948,1.003,5.974,7.669,0.1007,0.0685,,,No,0.9474,0.9611,0.9691,No,Cruise
Environment_1,CM,26.756,0.517,25.469,-0.131,2.482,-0.452,-0.357,-1.211,1.012,6.136,7.521,0.0914,0.0091,,,No,0.9536,0.9651,0.9783,No,Cruise
Environment_1,CM,25.786,0.517,26.398,-0.105,2.47,-0.788,-0.069,-1.89,0.994,6.131,7.432,0.0723,0.0,,,No,0.9477,0.9652,0.9846,No,Cruise
Environment_1,CM,26.488,0.517,24.362,-0.135,2.492,-0.407,0.138,-2.211,1.025,5.823,7.308,0.0872,0.0429,,,No,0.9495,0.971,0.9809,No,Cruise
Environment_1,CM,26.847,0.517,24.135,-0.131,2.481,0.05,-0.033,-2.369,0.994,5.903,7.276,0.1065,0.0349,,,No,0.9415,0.9647,0.9843,No,Cruise
Environment_1,CM,26.719,0.517,24.106,-0.16,2.501,-0.538,0.01,-0.486,1.002,5.973,7.399,0.1271,0.092,,,No,0.9374,0.9603,0.9678,No,Cruise
Environment_1,CM,26.158,0.517,25.684,-0.136,2.532,-0.285,0.141,-0.693,0.995,6.03,7.204,0.0847,0.1105,,,No,0.9435,0.9507,0.9677,No,Cruise
Environment_1,CM,27.419,0.517,23.523,-0.101,2.51,-0.031,-0.012,-2.671,0.998,5.999,7.266,0.0843,0.1313,,,No,0.9413,0.9625,0.9732,No,Cruise
Environment_1,CM,27.588,0.517,25.095,-0.147,2.495,0.029,0.198,-1.842,0.997,6.167,7.381,0.0932,0.0973,,,No,0.9362,0.9637,0.9733,No,Cruise
Environment_1,CM,27.782,0.517,25.038,-0.116,2.513,-0.709,0.118,-0.654,1.022,6.169,7.532,0.0829,0.0578,,,No,0.9593,0.9604,0.9695,No,Cruise
Environment_1,CM,28.149,0.517,25.986,-0.106,2.502,-1.377,0.192,-1.402,0.977,6.074,7.374,0.0943,0.064,,,No,0.9563,0.9663,0.9841,No,Cruise
Environment_1,CM,28.23,0.517,23.896,-0.116,2.486,-0.736,-0.188,-0.203,1.035,6.026,7.211,0.0747,0.087,,,No,0.9562,0.9682,0.9931,No,Cruise
Environment_1,CM,25.693,0.517,24.309,-0.151,2.487,-1.251,0.014,-1.18,0.978,5.976,7.119,0.115,0.0808,,,No,0.9619,0.9753,0.9878,No,Cruise
Environment_1,CM,26.348,0.517,25.347,-0.166,2.489,-0.994,0.025,-2.141,1.016,5.971,7.316,0.1043,0.1074,,,No,0.9667,0.9684,0.9854,No,Cruise
Environment_1,CM,27.87,0.517,23.907,-0.166,2.51,-0.392,0.011,-0.945,1.016,5.95,7.31,0.0906,0.0931,,,No,0.9528,0.9732,0.9757,No,Cruise
Environment_1,CM,24.084,0.517,24.907,-0.145,2.496,-1.081,-0.04,-2.796,1.02,6.12,7.473,0.1127,0.0896,,,No,0.9616,0.9637,0.9801,No,Cruise
Environment_1,CM,24.691,0.517,26.719,-0.131,2.484,-0.252,-0.324,-3.972,0.988,6.141,7.45,0.1348,0.0719,,,No,0.9496,0.9627,0.975,No,Cruise
Environment_1,CM,25.33,0.517,27.16,-0.125,2.491,-0.137,0.25,-2.262,0.986,6.132,7.275,0.149,0.0753,,,No,0.9518,0.9687,0.9663,No,Cruise
Environment_1,CM,29.163,0.517,25.999,-0.176,2.49,-0.489,0.08,-2.134,1.041,6.102,7.517,0.1044,0.0455,,,No,0.9581,0.9652,0.9762,No,Cruise
Environment_1,CM,28.954,0.517,28.59,-0.111,2.501,-0.773,0.155,-2.084,0.991,6.124,7.617,0.1115,0.0278,,,No,0.9615,0.9756,0.9848,No,Cruise
Environment_1,CM,31.715,0.517,25.486,-0.133,2.518,-0.598,0.038,-2.502,0.975,6.006,7.454,0.1321,0.0501,,,No,0.9525,0.9673,0.9664,No,Cruise
Environment_1,CM,32.119,0.517,26.105,-0.131,2.512,-0.335,-0.367,-1.854,1.0,6.026,7.532,0.128,0.0797,,,No,0.9556,0.9648,0.9646,No,Cruise
Environment_1,CM,33.481,0.517,24.616,-0.12,2.492,-0.9,-0.173,-1.876,0.972,5.893,7.402,0.1365,0.0462,,,No,0.9706,0.9591,0.9739,No,Cruise
Environment_1,CM,31.415,0.517,25.731,-0.126,2.486,-0.814,0.056,-0.547,0.995,6.046,7.597,0.1225,0.0529,,,No,0.969,0.9553,0.9821,No,Cruise
Environment_1,CM,28.508,0.517,27.643,-0.136,2.496,-1.161,-0.107,-0.519,0.988,6.11,7.424,0.1246,0.066,,,No,0.9681,0.9583,0.9855,No,Cruise
Environment_1,CM,25.263,0.517,27.155,-0.1,2.512,-0.301,-0.131,-1.648,0.991,5.944,7.372,0.1401,0.1069,,,No,0.9627,0.957,0.9871,No,Cruise
Environment_1,CM,26.512,0.517,27.235,-0.073,2.517,-0.835,-0.125,-3.072,1.002,5.956,7.352,0.1242,0.0944,,,No,0.9662,0.9596,0.9898,No,Cruise
Environment_1,CM,27.32,0.517,27.303,-0.041,2.493,-0.639,-0.023,-1.816,0.984,5.968,7.389,0.1223,0.0678,,,No,0.9603,0.9654,0.9886,No,Cruise
Environment_1,CM,27.242,0.517,26.471,-0.057,2.504,-0.801,-0.43,-2.381,0.952,6.082,7.519,0.1217,0.0697,,,No,0.9666,0.9558,0.9813,No,Cruise
Environment_1,CM,26.737,0.517,26.443,-0.109,2.524,-0.8,-0.162,-3.134,1.009,6.029,7.259,0.1325,0.0552,,,No,0.9715,0.9595,0.9796,No,Cruise
Environment_1,CM,25.171,0.517,26.558,-0.066,2.468,-1.082,-0.281,-1.071,1.03,5.976,7.379,0.1152,0.1215,,,No,0.9662,0.956,0.9743,No,Cruise
Environment_1,CM,23.318,0.517,26.045,-0.1,2.505,-0.687,0.197,-2.744,0.993,6.034,7.438,0.0817,0.1097,,,No,0.963,0.9576,0.9764,No,Cruise
Environment_1,CM,27.383,0.517,30.103,-0.081,2.474,-0.421,0.023,-2.017,0.976,5.871,7.304,0.1194,0.143,,,No,0.9503,0.9604,0.9784,No,Cruise
Environment_1,CM,26.748,0.517,28.465,-0.072,2.489,-1.057,-0.076,-1.727,0.994,5.957,7.17,0.1126,0.1252,,,No,0.9641,0.9621,0.9766,No,Cruise
Environment_1,CM,28.796,0.517,29.729,-0.107,2.495,-0.64,-0.119,-2.472,0.977,6.034,7.385,0.0975,0.102,,,No,0.9608,0.9791,0.9776,No,Cruise
Environment_1,CM,26.498,0.517,32.443,-0.161,2.53,-0.341,0.258,-1.04,0.981,6.059,7.429,0.1291,0.1049,,,No,0.9566,0.9754,0.9795,No,Cruise
Environment_1,CM,27.31,0.517,31.164,-0.127,2.497,-0.778,-0.354,-1.605,1.026,6.044,7.303,0.1214,0.0525,,,No,0.9672,0.9663,0.9871,No,Cruise
Environment_1,CM,29.559,0.517,30.366,-0.106,2.497,-0.722,0.375,-1.964,0.988,6.204,7.51,0.1401,0.1068,,,No,0.9752,0.9679,0.9866,No,Cruise
Environment_1,CM,28.551,0.517,33.392,-0.139,2.504,0.126,0.229,-2.372,1.016,5.978,7.403,0.1438,0.0928,,,No,0.9645,0.9658,0.9864,No,Cruise
Environment_1,CM,29.329,0.517,33.661,-0.125,2.486,-0.742,0.092,-2.359,0.98,6.025,7.164,0.1536,0.0662,,,No,0.9791,0.9668,0.9798,No,Cruise
Environment_1,CM,29.251,0.517,31.668,-0.12,2.498,-1.027,-0.263,-2.76,1.029,6.158,7.528,0.1253,0.1063,,,No,0.9753,0.9708,0.9798,No,Cruise
Environment_1,CM,32.256,0.517,31.533,-0.12,2.473,-0.847,-0.05,-1.321,1.0,6.071,7.436,0.1125,0.1378,,,No,0.9636,0.9725,0.9828,No,Cruise
Environment_1,CM,33.279,0.517,28.326,-0.11,2.513,-0.952,-0.001,-2.065,1.025,6.168,7.454,0.1161,0.1224,,,No,0.9694,0.9632,0.9756,No,Cruise
Environment_1,CM,27.565,0.517,26.5,-0.13,2.509,-0.905,0.054,-1.711,0.984,6.017,7.274,0.1053,0.1093,,,No,0.9336,0.9588,0.9476,No,Cruise
Environment_1,CM,30.059,0.517,27.714,-0.145,2.51,-0.473,-0.035,-1.847,0.989,5.909,7.303,0.0845,0.0967,,,No,0.938,0.9522,0.9575,No,Cruise
Environment_1,CM,32.49,0.517,31.079,-0.131,2.516,-0.871,0.09,-0.968,1.004,5.825,7.174,0.119,0.1265,,,No,0.9378,0.9656,0.9559,No,Cruise
Environment_1,CM,32.267,0.517,33.939,-0.104,2.487,-0.813,0.151,-0.562,0.967,5.489,6.92,0.0982,0.1038,,,No,0.9226,0.9456,0.911,No,Cruise
Environment_1,CM,31.706,0.517,33.523,-0.148,2.507,-0.97,-0.225,-1.511,0.988,5.733,7.164,0.121,0.0659,,,No,0.9328,0.9405,0.9385,No,Cruise
Environment_1,CM,31.188,0.517,30.891,-0.132,2.516,-0.818,0.191,-1.242,1.005,5.406,6.957,0.1437,0.0725,,,No,0.9281,0.9236,0.9249,No,Cruise
Environment_1,CM,32.741,0.517,33.68,-0.147,2.508,-0.718,0.066,-1.614,1.002,5.423,6.836,0.1556,0.0891,,,No,0.93,0.919,0.9365,No,Cruise
Environment_1,CM,32.56,0.517,32.142,-0.185,2.505,-1.526,0.207,-3.025,1.002,5.088,6.695,0.1863,0.1371,,,No,0.9103,0.8932,0.9015,No,Cruise
Environment_1,CM,31.492,0.517,29.195,-0.184,2.491,-0.261,-0.318,-4.147,1.018,5.163,6.62,0.197,0.1878,,,No,0.9252,0.9032,0.895,No,Cruise
Environment_1,CM,30.552,0.517,27.865,-0.246,2.497,-0.805,0.188,-3.282,1.01,5.107,6.545,0.2086,0.2194,,,No,0.9259,0.8987,0.9192,No,Cruise
Environment_1,CM,30.054,0.517,28.535,-0.271,2.502,-0.826,-0.191,-3.676,0.984,4.379,5.882,0.252,0.1907,Palm_Trunk,,Yes,0.8932,0.8604,0.8634,No,Avoidance
Environment_1,CM,26.163,0.517,30.178,-0.31,2.512,-1.139,-0.125,-3.431,0.985,4.196,5.666,0.2819,0.2402,Palm_Trunk,,Yes,0.894,0.8552,0.8476,No,Avoidance
Environment_1,CM,27.843,0.517,28.36,-0.327,2.537,-1.357,-0.115,-2.312,1.009,4.151,5.399,0.3014,0.2846,Palm_Trunk,,Yes,0.8742,0.8447,0.8291,No,Avoidance
Environment_1,CM,29.987,0.517,32.57,-0.345,2.501,-1.724,0.227,-6.228,1.003,4.133,5.478,0.357,0.2586,Palm_Trunk,,Yes,0.8759,0.858,0.8465,No,Avoidance
Environment_1,CM,30.105,0.517,30.959,-0.361,2.497,-1.959,-0.216,-4.796,0.995,3.998,5.411,0.3715,0.3087,Palm_Trunk,,Yes,0.8725,0.8452,0.8053,No,Avoidance
Environment_1,CM,33.224,0.517,31.184,-0.38,2.522,-2.29,0.074,-7.112,0.993,4.168,5.368,0.3879,0.3431,Palm_Trunk,,Yes,0.8799,0.839,0.8288,No,Avoidance
Environment_1,CM,31.744,0.517,34.635,-0.397,2.491,-1.978,0.013,-6.048,1.019,3.977,5.404,0.4337,0.3749,Palm_Trunk,,Yes,0.8672,0.853,0.823,No,Avoidance
Environment_1,CM,30.494,0.517,35.887,-0.421,2.482,-2.518,0.405,-6.709,0.996,4.022,5.54,0.4618,0.3855,Palm_Trunk,,Yes,0.8804,0.86,0.8046,No,Avoidance
Environment_1,CM,33.73,0.517,38.02,-0.503,2.501,-2.602,-0.147,-7.503,0.98,3.936,5.252,0.5035,0.3922,Palm_Trunk,,Yes,0.8838,0.8529,0.8203,No,Avoidance
Environment_1,CM,31.553,0.517,37.986,-0.512,2.501,-2.202,0.206,-6.466,1.018,3.977,5.391,0.5384,0.3976,Palm_Trunk,,Yes,0.8665,0.8655,0.8252,No,Avoidance
Environment_1,CM,33.006,0.517,34.811,-0.475,2.498,-2.763,-0.032,-8.265,1.024,3.778,5.102,0.5203,0.3991,Palm_Trunk,,Yes,0.8744,0.8748,0.8325,No,Avoidance
Environment_1,CM,33.189,0.517,30.639,-0.539,2.508,-2.769,-0.055,-8.196,1.009,3.551,4.824,0.5618,0.4523,Palm_Trunk,,Yes,0.8858,0.8727,0.8325,No,Avoidance
Environment_1,CM,33.999,0.517,31.839,-0.581,2.509,-2.93,-0.214,-8.191,1.001,3.81,5.26,0.5675,0.4545,Palm_Trunk,,Yes,0.8894,0.8832,0.8253,No,Avoidance
Environment_1,CM,33.965,0.517,32.397,-0.586,2.484,-3.107,-0.105,-8.992,0.977,3.631,5.088,0.6126,0.492,Palm_Trunk,,Yes,0.8937,0.889,0.8356,No,Avoidance
Environment_1,CM,32.721,0.517,34.482,-0.611,2.505,-3.093,0.146,-8.908,1.014,3.661,4.875,0.6022,0.5189,Palm_Trunk,,Yes,0.8783,0.8945,0.8301,No,Avoidance
Environment_1,CM,27.079,0.517,34.754,-0.602,2.502,-3.095,-0.012,-8.86,0.949,3.5,4.912,0.5894,0.5117,Palm_Trunk,,Yes,0.8854,0.8977,0.8387,No,Avoidance
Environment_1,CM,28.18,0.517,34.027,-0.614,2.487,-3.488,-0.08,-9.561,1.001,3.603,4.886,0.5988,0.4322,Palm_Trunk,,Yes,0.8672,0.9009,0.8084,No,Avoidance
Environment_1,CM,29.615,0.517,32.905,-0.598,2.507,-2.782,0.286,-10.322,0.996,3.553,4.807,0.5694,0.4583,Palm_Trunk,,Yes,0.8609,0.9025,0.814,No,Avoidance
Environment_1,CM,30.259,0.517,33.102,-0.585,2.488,-2.816,-0.383,-10.19,1.002,3.564,4.681,0.589,0.4581,Palm_Trunk,,Yes,0.8701,0.895,0.8066,No,Avoidance
Environment_1,CM,32.939,0.517,32.216,-0.578,2.501,-2.998,-0.09,-9.909,0.996,3.697,5.08,0.5924,0.4674,Palm_Trunk,,Yes,0.8547,0.8941,0.7964,No,Avoidance
Environment_1,CM,32.494,0.517,31.989,-0.543,2.532,-3.113,0.092,-8.229,1.006,3.55,4.925,0.5998,0.4871,Palm_Trunk,,Yes,0.8484,0.8979,0.7892,No,Avoidance
Environment_1,CM,32.891,0.517,31.046,-0.515,2.463,-2.67,0.119,-7.478,1.006,3.67,4.862,0.5913,0.4555,Palm_Trunk,,Yes,0.8451,0.8953,0.8081,No,Avoidance
Environment_1,CM,35.097,0.517,32.095,-0.484,2.494,-2.601,-0.018,-9.219,0.995,3.601,5.107,0.58,0.3991,Palm_Trunk,,Yes,0.8337,0.901,0.8133,No,Avoidance
Environment_1,CM,33.347,0.517,34.982,-0.535,2.5,-2.836,0.209,-7.169,0.995,3.449,4.999,0.5669,0.4458,Palm_Trunk,,Yes,0.837,0.9059,0.7943,No,Avoidance
Environment_1,CM,31.98,0.517,37.24,-0.527,2.491,-3.283,0.04,-9.177,0.975,3.68,5.236,0.5922,0.4264,Palm_Trunk,,Yes,0.837,0.9063,0.7855,No,Avoidance
Environment_1,CM,31.342,0.517,31.777,-0.509,2.51,-2.551,-0.028,-8.682,1.001,3.759,5.406,0.5212,0.415,Palm_Trunk,,Yes,0.8262,0.8975,0.7917,No,Avoidance
Environment_1,CM,33.547,0.517,34.791,-0.469,2.521,-2.423,0.048,-7.233,0.983,3.973,5.32,0.4924,0.3671,Palm_Trunk,,Yes,0.8213,0.9041,0.8027,No,Avoidance
Environment_1,CM,32.549,0.517,32.331,-0.452,2.501,-2.121,-0.174,-7.028,1.004,3.737,5.322,0.4648,0.3273,Palm_Trunk,,Yes,0.8213,0.9003,0.8078,No,Avoidance
Environment_1,CM,31.839,0.517,30.088,-0.398,2.477,-2.641,0.131,-6.798,1.025,3.853,5.246,0.4519,0.3259,Palm_Trunk,,Yes,0.814,0.9039,0.821,No,Avoidance
Environment_1,CM,31.996,0.517,34.34,-0.369,2.495,-2.076,-0.251,-7.382,0.972,4.051,5.245,0.4062,0.3154,Palm_Trunk,,Yes,0.8045,0.8915,0.8062,No,Avoidance
Environment_1,CM,34.899,0.517,33.53,-0.337,2.517,-1.947,-0.296,-5.767,0.979,4.267,5.633,0.3647,0.2585,Palm_Trunk,,Yes,0.8185,0.908,0.8243,No,Avoidance
Environment_1,CM,35.328,0.517,33.257,-0.379,2.497,-1.985,0.078,-5.555,0.997,4.236,5.525,0.3405,0.216,Palm_Trunk,,Yes,0.8243,0.9021,0.824,No,Avoidance
Environment_1,CM,32.419,0.517,32.037,-0.304,2.51,-1.53,0.061,-4.823,0.986,4.348,5.659,0.2828,0.2032,Palm_Trunk,,Yes,0.8176,0.8895,0.8668,No,Avoidance
Environment_1,CM,33.502,0.517,32.483,-0.247,2.503,-1.306,0.187,-3.326,0.955,4.436,5.883,0.2568,0.1929,Palm_Trunk,,Yes,0.8124,0.8947,0.8301,No,Avoidance
Environment_1,CM,32.54,0.517,32.86,-0.251,2.523,-1.574,0.214,-4.409,0.991,4.316,5.914,0.2251,0.1686,Palm_Trunk,,Yes,0.8184,0.8863,0.8611,No,Avoidance
Environment_1,CM,31.182,0.517,35.935,-0.206,2.489,-0.961,0.324,-3.138,1.03,4.838,6.124,0.1849,0.154,Palm_Trunk,,Yes,0.8403,0.8933,0.8656,No,Avoidance
Environment_1,CM,31.348,0.517,34.993,-0.194,2.516,-1.04,0.035,-3.484,0.997,5.042,6.368,0.1946,0.1718,Palm_Trunk,,Yes,0.868,0.9041,0.8838,No,Avoidance
Environment_1,CM,32.342,0.517,35.351,-0.139,2.488,-0.503,0.23,-2.559,1.019,5.108,6.597,0.1616,0.1156,Palm_Trunk,,Yes,0.8583,0.903,0.8759,No,Avoidance
Environment_1,CM,29.899,0.517,33.976,-0.136,2.49,-0.362,0.039,-1.193,1.014,5.408,6.626,0.1264,0.1627,Palm_Trunk,,Yes,0.8748,0.9129,0.9152,No,Avoidance
Environment_1,CM,35.375,0.517,29.041,-0.144,2.489,-0.576,-0.227,-3.38,1.005,5.866,7.101,0.1411,0.1106,Palm_Trunk,,Yes,0.8922,0.9429,0.9291,No,Avoidance
Environment_1,CM,35.638,0.517,30.276,-0.107,2.53,-0.092,-0.138,-0.837,1.016,5.589,7.038,0.1279,0.1099,Palm_Trunk,,Yes,0.9036,0.955,0.9196,No,Avoidance
Environment_1,CM,31.514,0.517,30.701,-0.082,2.528,-0.869,0.078,-1.174,0.981,5.675,7.262,0.1433,0.1104,Palm_Trunk,,Yes,0.9077,0.9429,0.9366,No,Avoidance
Environment_1,CM,30.552,0.517,34.788,-0.117,2.517,-0.539,-0.022,-1.077,1.002,5.549,7.247,0.1302,0.0926,Palm_Trunk,,Yes,0.9107,0.932,0.9325,No,Avoidance
Environment_1,CM,29.482,0.517,33.425,-0.11,2.519,-0.472,0.2,-3.307,1.01,5.447,6.956,0.1153,0.0476,Palm_Trunk,,Yes,0.9116,0.9325,0.9475,No,Avoidance
Environment_1,CM,29.094,0.517,34.859,-0.143,2.504,-0.367,-0.203,-2.165,0.991,5.577,7.288,0.0734,0.0206,Palm_Trunk,,Yes,0.9119,0.9236,0.9395,No,Avoidance
Environment_1,CM,27.795,0.517,35.072,-0.151,2.483,-0.784,-0.184,-2.047,1.0,5.586,7.316,0.0789,0.0559,Palm_Trunk,,Yes,0.9073,0.9326,0.9401,No,Avoidance
Environment_1,CM,28.856,0.517,32.54,-0.105,2.477,-0.273,0.145,-1.124,0.974,5.537,7.298,0.05,0.0118,Palm_Trunk,,Yes,0.9161,0.9256,0.9306,No,Avoidance
Environment_1,CM,32.75,0.517,32.456,-0.021,2.513,-0.339,0.074,-0.292,0.987,5.72,7.312,0.0387,0.0202,,,No,0.9314,0.9463,0.9648,No,Cruise
Environment_1,CM,32.38,0.517,35.368,-0.023,2.491,-0.161,0.42,-1.583,0.997,5.648,7.355,0.0334,0.0418,,,No,0.947,0.9589,0.9687,No,Cruise
Environment_1,CM,32.348,0.517,32.505,-0.034,2.507,-0.077,0.272,-1.739,0.985,5.965,7.838,0.057,0.0199,,,No,0.9715,0.9758,0.9944,No,Cruise
Environment_1,CM,31.814,0.517,31.38,-0.04,2.509,-0.555,-0.082,-1.517,1.021,5.967,7.594,0.0235,0.024,,,No,0.9644,0.9794,0.9886,No,Cruise
Environment_1,CM,33.574,0.517,31.534,-0.048,2.504,-0.524,0.208,-0.261,1.011,6.299,7.63,0.0286,0.0153,,,No,0.9669,0.966,0.9779,No,Cruise
Environment_1,CM,33.199,0.517,32.977,-0.015,2.506,-0.392,-0.225,-0.12,0.982,6.185,7.676,0.0337,0.0,,,No,0.9583,0.974,0.9736,No,Cruise
Environment_1,CM,34.727,0.517,31.6,0.015,2.489,-0.493,0.102,0.425,0.963,6.135,7.751,0.0032,0.0363,,,No,0.9658,0.9747,0.9694,No,Cruise
Environment_1,CM,32.506,0.517,30.723,0.03,2.513,-0.298,0.004,-1.064,1.021,6.155,7.506,0.002,0.0002,,,No,0.9668,0.9809,0.9773,No,Cruise
Environment_1,CM,33.741,0.517,36.32,-0.018,2.483,-0.296,-0.141,-0.599,0.965,6.26,7.363,0.0147,0.0,,,No,0.9555,0.9659,0.979,No,Cruise
Environment_1,CM,34.631,0.517,36.845,-0.005,2.518,0.115,-0.011,-0.358,0.992,6.398,7.556,0.0,0.0221,,,No,0.961,0.9648,0.9938,No,Cruise
Environment_1,CM,34.075,0.517,35.476,-0.002,2.477,-0.266,0.11,-0.161,1.001,6.132,7.399,0.0294,0.0298,,,No,0.9621,0.969,0.9869,No,Cruise
Environment_1,CM,34.882,0.517,36.289,-0.036,2.492,0.13,0.13,-0.735,0.982,5.918,7.236,0.0303,0.0362,,,No,0.9619,0.9596,0.9856,No,Cruise
Environment_1,CM,32.571,0.517,36.15,-0.067,2.522,-0.041,-0.151,-0.675,1.01,6.292,7.593,0.02,0.0371,,,No,0.955,0.9573,0.9878,No,Cruise
Environment_1,CM,34.743,0.517,38.713,-0.052,2.498,0.006,-0.209,-0.449,0.969,6.199,7.677,0.008,0.0256,,,No,0.9553,0.9536,0.9906,No,Cruise
Environment_1,CM,36.944,0.517,39.761,-0.046,2.482,-0.039,-0.056,-0.674,0.959,6.083,7.592,0.0035,0.0054,,,No,0.9538,0.9716,0.9939,No,Cruise
Environment_1,CM,36.953,0.517,34.781,-0.051,2.514,-0.086,0.068,-0.668,0.99,6.099,7.692,0.0017,0.0034,,,No,0.9592,0.9709,0.9791,No,Cruise
Environment_1,CM,36.064,0.517,36.201,-0.023,2.495,-0.019,0.125,-0.266,1.019,6.044,7.571,0.0071,0.0,,,No,0.9547,0.9645,0.9927,No,Cruise
Environment_1,CM,34.937,0.517,33.721,-0.022,2.519,0.362,0.158,0.041,1.02,6.217,7.81,0.0399,0.0,,,No,0.9507,0.953,0.9927,No,Cruise
Environment_1,CM,35.27,0.517,32.321,-0.006,2.509,-0.503,-0.117,-0.176,1.012,6.033,7.714,0.0063,0.0,,,No,0.9548,0.9619,0.9735,No,Cruise
Environment_1,CM,36.571,0.517,33.374,-0.044,2.517,0.209,0.04,-0.446,0.982,6.121,7.688,0.035,0.0,,,No,0.9638,0.9667,0.9767,No,Cruise
Environment_1,CM,36.099,0.517,36.208,-0.006,2.48,0.38,0.027,-0.191,1.001,6.305,7.801,0.0611,0.0162,,,No,0.9564,0.9556,0.9733,No,Cruise
Environment_1,CM,36.216,0.517,36.723,-0.011,2.48,-0.118,-0.005,0.723,1.012,6.212,7.632,0.0101,0.0023,,,No,0.9592,0.9632,0.9774,No,Cruise
Environment_1,CM,37.885,0.517,38.386,0.024,2.479,-0.452,0.083,-0.526,0.993,6.25,7.913,0.0078,0.03,,,No,0.9461,0.9644,0.9806,No,Cruise
Environment_1,CM,38.305,0.517,42.288,0.038,2.505,-0.34,-0.192,-0.617,0.997,6.229,7.622,0.0167,0.0388,,,No,0.9547,0.9658,0.9853,No,Cruise
Environment_1,CM,37.28,0.517,40.906,0.024,2.501,-0.127,0.12,-0.326,0.983,6.265,7.528,0.0093,0.0353,,,No,0.9583,0.9622,0.9691,No,Cruise
Environment_1,CM,36.004,0.517,40.451,0.01,2.484,-0.031,0.155,-0.686,0.957,6.432,7.535,0.0136,0.0166,,,No,0.9583,0.9615,0.9791,No,Cruise
Environment_1,CM,36.289,0.517,40.232,0.036,2.516,-0.424,0.002,0.694,0.99,6.31,7.557,0.048,0.0267,,,No,0.9615,0.9626,0.9773,No,Cruise
Environment_1,CM,38.593,0.517,41.437,0.013,2.497,-0.096,0.224,0.594,1.006,6.449,7.576,0.0338,0.0373,,,No,0.9566,0.9596,0.9834,No,Cruise
Environment_1,CM,39.439,0.517,39.284,0.055,2.488,-0.266,-0.068,1.784,0.995,6.398,7.626,0.0534,0.0034,,,No,0.9496,0.9647,0.9818,No,Cruise
Environment_1,CM,40.23,0.517,39.676,0.042,2.508,-0.731,0.601,-0.039,0.957,6.308,7.65,0.0338,0.071,,,No,0.9442,0.9637,0.9785,No,Cruise
Environment_1,CM,40.272,0.517,41.098,-0.004,2.49,0.042,0.051,0.783,1.009,6.078,7.781,0.0272,0.0742,,,No,0.9387,0.9598,0.9752,No,Cruise
Environment_1,CM,37.331,0.517,38.849,-0.044,2.482,-0.254,-0.17,0.455,1.001,6.303,7.56,0.028,0.0473,,,No,0.9439,0.9652,0.9819,No,Cruise
Environment_1,CM,38.693,0.517,35.977,-0.028,2.521,-0.183,-0.144,-0.139,1.022,6.428,7.623,0.0324,0.0392,,,No,0.9529,0.9653,0.9911,No,Cruise
Environment_1,CM,37.921,0.517,35.666,0.005,2.499,-0.342,0.018,1.151,1.018,6.262,7.649,0.0306,0.0372,,,No,0.9507,0.963,0.9847,No,Cruise
Environment_1,CM,40.242,0.517,39.422,0.053,2.512,0.06,-0.257,-0.395,1.001,6.199,7.656,0.0044,0.0518,,,No,0.9504,0.9774,0.9806,No,Cruise
Environment_1,CM,38.209,0.517,39.312,0.02,2.493,-0.136,-0.057,-0.87,0.994,6.085,7.812,0.0546,0.0438,,,No,0.9597,0.9637,0.9803,No,Cruise
Environment_1,CM,40.552,0.517,41.488,0.0,2.499,0.08,-0.066,0.404,1.006,6.152,7.904,0.0266,0.0285,,,No,0.9528,0.9606,0.982,No,Cruise
Environment_1,CM,41.024,0.517,38.377,-0.025,2.508,-0.209,0.244,-0.764,1.022,6.104,7.913,0.0,0.0067,,,No,0.9493,0.9519,0.9998,No,Cruise
Environment_1,CM,40.905,0.517,39.013,0.01,2.509,0.126,-0.243,0.01,1.007,6.044,7.747,0.0184,0.0333,,,No,0.9611,0.9532,0.9902,No,Cruise
Environment_1,CM,41.047,0.517,39.679,0.031,2.486,-0.53,-0.059,0.538,1.025,6.195,7.579,0.0238,0.0657,,,No,0.9486,0.9637,0.9973,No,Cruise
Environment_1,CM,41.174,0.517,39.831,0.064,2.492,0.075,0.024,0.423,1.016,5.907,7.352,0.031,0.0,,,No,0.9498,0.9674,0.9936,No,Cruise
Environment_1,CM,40.626,0.517,39.006,0.082,2.516,-0.314,-0.441,0.715,0.997,6.019,7.36,0.021,0.0203,,,No,0.9351,0.9651,0.9819,No,Cruise
Environment_1,CM,37.683,0.517,41.043,0.015,2.515,0.2,-0.065,0.503,1.0,5.946,7.556,0.0235,0.0028,,,No,0.945,0.9558,0.9847,No,Cruise
Environment_1,CM,37.27,0.517,41.884,0.031,2.522,0.168,-0.169,1.362,0.998,5.879,7.544,0.024,0.0293,,,No,0.9418,0.9601,0.984,No,Cruise
Environment_1,CM,35.378,0.517,38.632,0.026,2.492,0.569,0.062,1.245,1.01,5.924,7.504,0.0259,0.0561,,,No,0.9393,0.9652,0.9779,No,Cruise
Environment_1,CM,37.941,0.517,36.878,-0.009,2.492,0.066,0.041,1.233,0.974,6.366,7.927,0.0178,0.0503,,,No,0.9515,0.9559,0.9862,No,Cruise
Environment_1,CM,42.577,0.517,39.365,-0.005,2.475,0.41,0.142,1.444,0.985,6.041,7.616,0.0025,0.0,,,No,0.9589,0.9583,0.9883,No,Cruise
Environment_1,CM,42.025,0.517,42.214,0.051,2.5,0.427,0.043,-1.203,0.984,6.084,7.511,0.0021,0.0221,,,No,0.9641,0.9616,0.9947,No,Cruise
Environment_1,CM,38.885,0.517,43.027,0.083,2.51,0.069,-0.006,0.504,1.0,6.041,7.651,0.0146,0.0231,,,No,0.9683,0.9643,0.9923,No,Cruise
Environment_1,CM,37.203,0.517,38.81,0.079,2.488,-0.115,-0.015,0.661,0.966,6.122,7.601,0.0383,0.0514,,,No,0.9549,0.9697,0.9908,No,Cruise
Environment_1,CM,36.495,0.517,38.67,0.087,2.493,0.16,0.027,-0.264,0.951,6.178,7.819,0.0548,0.0709,,,No,0.9472,0.9576,0.987,No,Cruise
Environment_1,CM,37.776,0.517,39.683,0.072,2.526,0.387,0.079,-0.208,0.988,6.26,7.626,0.038,0.0496,,,No,0.9515,0.9588,0.9821,No,Cruise
Environment_1,CM,37.575,0.517,39.032,0.046,2.508,0.436,0.195,-1.155,1.001,5.971,7.3,0.0447,0.1104,,,No,0.9499,0.9639,0.9834,No,Cruise
Environment_1,CM,37.917,0.517,39.413,0.062,2.509,0.564,0.054,1.005,0.95,6.216,7.698,0.0497,0.1209,,,No,0.9474,0.9582,0.9949,No,Cruise
Environment_1,CM,39.794,0.517,41.719,0.092,2.501,0.71,-0.025,0.926,1.039,6.082,7.654,0.0368,0.0834,,,No,0.9521,0.9583,0.9921,No,Cruise
Environment_1,CM,41.597,0.517,38.993,0.092,2.536,0.608,-0.11,0.319,0.974,6.018,7.508,0.0473,0.0808,,,No,0.9423,0.9606,0.9902,No,Cruise
Environment_1,CM,43.549,0.517,37.011,0.046,2.533,-0.383,-0.049,1.218,1.027,6.022,7.359,0.0551,0.0539,,,No,0.9512,0.9611,0.9794,No,Cruise
Environment_1,CM,42.323,0.517,36.766,0.009,2.469,0.315,-0.285,1.181,1.026,6.196,7.702,0.0601,0.0847,,,No,0.9469,0.9655,0.9886,No,Cruise
Environment_1,CM,37.429,0.517,37.101,0.027,2.515,0.415,0.017,1.933,1.014,6.145,7.658,0.0514,0.0238,,,No,0.9495,0.9617,0.992,No,Cruise
Environment_1,CM,39.077,0.517,36.346,0.067,2.524,0.145,0.15,1.413,0.996,6.166,7.584,0.0686,0.0261,,,No,0.9521,0.961,1.0042,No,Cruise
Environment_1,CM,38.347,0.517,39.447,0.059,2.505,0.094,-0.013,1.179,1.002,6.044,7.369,0.0857,0.1148,,,No,0.9504,0.965,0.9931,No,Cruise
Environment_1,CM,40.205,0.517,39.958,0.087,2.494,-0.141,0.185,0.88,0.986,6.022,7.546,0.0958,0.0528,,,No,0.9582,0.9573,0.98,No,Cruise
Environment_1,CM,39.725,0.517,40.814,0.058,2.487,0.356,-0.194,-0.281,0.993,6.403,7.647,0.0735,0.0222,,,No,0.9479,0.9631,0.9832,No,Cruise
Environment_1,CM,39.134,0.517,39.461,0.053,2.516,-0.175,0.121,0.969,1.012,6.066,7.505,0.0755,0.0133,,,No,0.9561,0.9616,0.9839,No,Cruise
Environment_1,CM,40.417,0.517,41.578,0.044,2.505,0.162,-0.22,0.45,1.006,6.075,7.614,0.1113,0.0107,,,No,0.9458,0.9551,0.9757,No,Cruise
Environment_1,CM,39.238,0.517,42.827,0.036,2.466,0.53,-0.33,0.145,0.972,6.132,7.646,0.1157,0.0485,,,No,0.948,0.9603,0.9745,No,Cruise
Environment_1,CM,39.6,0.517,42.389,0.063,2.492,0.226,-0.175,-0.28,1.01,6.094,7.603,0.0882,0.0523,,,No,0.9414,0.9546,0.9757,No,Cruise
Environment_1,CM,39.862,0.517,40.973,0.023,2.492,0.245,-0.207,1.228,0.982,6.199,7.788,0.0645,0.0493,,,No,0.9411,0.9569,0.9792,No,Cruise
Environment_1,CM,41.908,0.517,44.697,-0.005,2.511,0.193,0.044,1.255,0.984,5.954,7.464,0.0601,0.0395,,,No,0.9363,0.945,0.9863,No,Cruise
Environment_1,CM,42.293,0.517,42.718,0.028,2.471,0.087,0.05,1.695,1.006,5.969,7.501,0.092,0.0559,,,No,0.9309,0.9559,0.9748,No,Cruise
Environment_1,CM,40.133,0.517,44.189,0.067,2.489,0.639,-0.096,0.104,1.006,6.047,7.281,0.0763,0.0634,,,No,0.9441,0.9562,0.9856,No,Cruise
Environment_1,CM,38.977,0.517,42.226,0.079,2.498,0.191,0.02,1.244,1.004,6.223,7.318,0.0796,0.0739,,,No,0.9303,0.9594,0.9813,No,Cruise
Environment_1,CM,39.253,0.517,39.928,0.087,2.489,-0.186,-0.125,2.102,1.012,6.222,7.307,0.0869,0.0866,,,No,0.9399,0.9469,0.9735,No,Cruise
Environment_1,CM,41.331,0.517,41.365,0.109,2.489,1.002,0.352,0.014,1.013,6.088,7.592,0.0716,0.1149,,,No,0.9421,0.961,0.9721,No,Cruise
Environment_1,CM,38.541,0.517,42.951,0.122,2.491,0.061,0.247,1.162,0.986,6.165,7.871,0.0722,0.0882,,,No,0.9492,0.9458,0.9851,No,Cruise
Environment_1,CM,39.328,0.517,41.812,0.085,2.48,0.425,0.307,1.68,1.023,6.222,7.524,0.0678,0.0339,,,No,0.9367,0.953,0.987,No,Cruise
Environment_1,CM,44.022,0.517,41.125,0.086,2.504,0.631,-0.18,0.603,0.96,6.353,7.688,0.0642,0.0729,,,No,0.9532,0.9411,0.9816,No,Cruise
Environment_1,CM,42.064,0.517,41.631,0.105,2.504,0.112,0.057,1.048,0.976,6.106,7.317,0.0997,0.0748,,,No,0.9372,0.955,0.9783,No,Cruise
Environment_1,CM,41.456,0.517,41.428,0.082,2.525,0.995,0.166,2.119,1.025,6.104,7.554,0.1027,0.0872,,,No,0.9383,0.945,0.9752,No,Cruise
Environment_1,CM,42.572,0.517,44.137,0.068,2.483,0.885,0.248,1.254,1.002,5.993,7.403,0.0952,0.0761,,,No,0.9185,0.9524,0.9851,No,Cruise
